{"protocolSection":{"identificationModule":{"nctId":"NCT00044915","orgStudyIdInfo":{"id":"100282"},"organization":{"fullName":"Bayer","class":"INDUSTRY"},"briefTitle":"Repinotan in Patients With Acute Ischemic Stroke","officialTitle":"A Randomized, Double-Blind, Placebo-Controlled Trial to Evaluate the Efficacy, Safety, Tolerability and Pharmacokinetic / Pharmacodynamic Effects of a Targeted Exposure of Intravenous Repinotan in Patients With Acute Ischemic Stroke"},"statusModule":{"statusVerifiedDate":"2009-06","overallStatus":"COMPLETED","expandedAccessInfo":{"hasExpandedAccess":false},"startDateStruct":{"date":"2000-12"},"completionDateStruct":{"date":"2004-09","type":"ACTUAL"},"studyFirstSubmitDate":"2002-09-06","studyFirstSubmitQcDate":"2002-09-06","studyFirstPostDateStruct":{"date":"2002-09-09","type":"ESTIMATED"},"lastUpdateSubmitDate":"2009-06-09","lastUpdatePostDateStruct":{"date":"2009-06-12","type":"ESTIMATED"}},"sponsorCollaboratorsModule":{"responsibleParty":{"oldNameTitle":"Therapeutic Area Head","oldOrganization":"Bayer HealthCare AG"},"leadSponsor":{"name":"Bayer","class":"INDUSTRY"}},"descriptionModule":{"briefSummary":"The purpose of this trial is to evaluate Repinotan HCl in patients with acute ischemic stroke. At study entry patients will be randomized to Repinotan HCl or placebo in a 1:1 ratio. The total treatment period wil be 72 hours."},"conditionsModule":{"conditions":["Stroke","Acute Ischemic Stroke"],"keywords":["Acute Ischemic Stroke Without Hemorrhage"]},"designModule":{"studyType":"INTERVENTIONAL","phases":["PHASE2"],"designInfo":{"allocation":"RANDOMIZED","interventionModel":"PARALLEL","primaryPurpose":"TREATMENT","maskingInfo":{"masking":"DOUBLE","whoMasked":["PARTICIPANT","INVESTIGATOR"]}},"enrollmentInfo":{"count":782,"type":"ACTUAL"}},"armsInterventionsModule":{"armGroups":[{"label":"Arm 1","type":"ACTIVE_COMPARATOR","interventionNames":["Drug: Repinotan HCl (BAYX3702)"]},{"label":"Arm 2","type":"PLACEBO_COMPARATOR","interventionNames":["Drug: Placebo"]}],"interventions":[{"type":"DRUG","name":"Repinotan HCl (BAYX3702)","description":"All patients receive 1.25 mg of repinotan","armGroupLabels":["Arm 1"]},{"type":"DRUG","name":"Placebo","description":"All patients receive 1.25 mg of placebo","armGroupLabels":["Arm 2"]}]},"eligibilityModule":{"eligibilityCriteria":"Inclusion Criteria:\n\n* Acute ischemic stroke of hemispheric localization (exclude brainstem and cerebellum), of suspected thromboembolic origin.\n* Males or females aged 18 years or over.\n* National Institute of Health Stroke Scale (NIH-SS) total score 8 to 23 with a motor deficit \\>/= 2 (for either one arm or leg) and level of consciousness \\< 2 and at least one of the following: Visual field deficit, neglect, or aphasia. If a patient receives t-PA, NIH-SS must be performed prior to receiving the study drug but after infusion of t-PA is initiated.\n* Signed informed consent from patient or legally authorized representative\n\nExclusion Criteria:\n\n* CT scan evidence of:\n* Clearly defined areas of hypodensity indicating infarction of \\>1/3 of the MCA territory or evidence of significant mass effect with shift of midline or major areas of sulcal effacement associated with loss of cortical definition (grey-white distinction). Minor early CT changes are common in MCA strokes and patients with early or subtle changes are eligible.\n* A primary intra-cerebral haemorrhage or any finding not consistent with an acute ischemic stroke as the cause of presenting symptoms.\n* Clinical evidence of acute stroke due to lacunar infarct (pure motor hemiplegia; pure sensory deficit, ataxia/clumsy hand syndromes)\n* Neurological (other than the presenting stroke) or psychiatric conditions that may affect the patient's functional status and/or that may interfere with the patient's assessment\n* Clinically relevant pre-existing neurological deficit (Historical Rankin score \\>/= 2 regardless of cause)\n* Generalized seizures having developed since the onset of stroke symptoms\n* Systolic blood pressure \\> 210 or \\< 110 mmHg (confirmed by up to three readings prior to randomization)\n* Diastolic blood pressure \\> 110 or \\< 60 mmHg (confirmed by up to three readings prior to randomization)\n* Myocardial infarction within 3 months, unstable angina within 3-5 days prior to starting infusion, unstable supra-ventricular and/or ventricular arrhythmia, severe conduction defect (AV block grades 2 and 3), complete left or right Bundle Branch Block, bradycardia (heart rate \\[HR\\] less than 50 bpm), uncompensated heart failure\n* History of myocarditis, cardiomyopathy or aortic stenosis\n* Patients known to have prolonged QTc intervals (inherited and sporadic syndromes of QTc prolongation or QTc interval \\> 450 msec males and 470 msec females on baseline ECG) or using Class IA or Class III antiarrhythmic drugs (e.g., quinidine, procainamide, amiodarone, sotalol)\n* Any patients that require initiation of new digoxin therapy are excluded. Patients already on digoxin therapy (for at least 1 month stable dose) at time of enrollment will be allowed in the study.\n* Electrolyte imbalance at baseline. Should the results not be available before starting the study drug infusion, the patients will be allowed in the study providing that the corrective therapy of any abnormal electrolyte results is implemented immediately upon availability of the laboratory report.\n* Any conditions predisposing to electrolyte imbalances (e.g., chronic vomiting, anorexia nervosa, bulimia nervosa) will also be excluded at baseline.\n* Participation in a research protocol for investigation of a pharmaceutical agent or innovative invasive procedure (including intra-arterial t-PA) within the past 30 days\n* Previously in the BRAIN-Study or treated with repinotan\n* Life expectancy of less than 6 months due to comorbid conditions\n* Any other known clinically significant medical disorder (e.g., cardiovascular, gastrointestinal, hepatic, renal, endocrine, major uncompensated metabolic disturbances, respiratory, immunological, hematological or bleeding disorder, cancer, AIDS)","healthyVolunteers":false,"sex":"ALL","minimumAge":"18 Years","stdAges":["ADULT","OLDER_ADULT"]},"contactsLocationsModule":{"overallOfficials":[{"name":"Bayer Study Director","affiliation":"Bayer","role":"STUDY_DIRECTOR"}],"locations":[{"city":"Los Angeles","state":"California","zip":"90024-1777","country":"United States","geoPoint":{"lat":34.05223,"lon":-118.24368}},{"city":"Oceanside","state":"California","zip":"92056-4405","country":"United States","geoPoint":{"lat":33.19587,"lon":-117.37948}},{"city":"San Diego","state":"California","zip":"92103-8765","country":"United States","geoPoint":{"lat":32.71533,"lon":-117.15726}},{"city":"San Jose","state":"California","zip":"95124","country":"United States","geoPoint":{"lat":37.33939,"lon":-121.89496}},{"city":"Boynton Beach","state":"Florida","zip":"33435-6000","country":"United States","geoPoint":{"lat":26.52535,"lon":-80.06643}},{"city":"Ft. Lauderdale","state":"Florida","zip":"33308","country":"United States","geoPoint":{"lat":26.12231,"lon":-80.14338}},{"city":"Ocala","state":"Florida","zip":"34471","country":"United States","geoPoint":{"lat":29.1872,"lon":-82.14009}},{"city":"Tampa","state":"Florida","zip":"33606","country":"United States","geoPoint":{"lat":27.94752,"lon":-82.45843}},{"city":"Decatur","state":"Georgia","zip":"30033","country":"United States","geoPoint":{"lat":33.77483,"lon":-84.29631}},{"city":"Honolulu","state":"Hawaii","zip":"96813-2413","country":"United States","geoPoint":{"lat":21.30694,"lon":-157.85833}},{"city":"Des Moines","state":"Iowa","zip":"50314","country":"United States","geoPoint":{"lat":41.60054,"lon":-93.60911}},{"city":"Baltimore","state":"Maryland","zip":"21224","country":"United States","geoPoint":{"lat":39.29038,"lon":-76.61219}},{"city":"Robbinsdale","state":"Minnesota","zip":"55422-2900","country":"United States","geoPoint":{"lat":45.03219,"lon":-93.33856}},{"city":"Great Falls","state":"Montana","zip":"59405","country":"United States","geoPoint":{"lat":47.50024,"lon":-111.30081}},{"city":"Edison","state":"New Jersey","zip":"08818-3903","country":"United States","geoPoint":{"lat":40.51872,"lon":-74.4121}},{"city":"Ridgewood","state":"New Jersey","zip":"07450","country":"United States","geoPoint":{"lat":40.97926,"lon":-74.11653}},{"city":"New Hyde Park","state":"New York","zip":"11040-1496","country":"United States","geoPoint":{"lat":40.7351,"lon":-73.68791}},{"city":"Stony Brook","state":"New York","zip":"11794","country":"United States","geoPoint":{"lat":40.92565,"lon":-73.14094}},{"city":"Chapel Hill","state":"North Carolina","zip":"27599-7065","country":"United States","geoPoint":{"lat":35.9132,"lon":-79.05584}},{"city":"Winston-Salem","state":"North Carolina","zip":"27103","country":"United States","geoPoint":{"lat":36.09986,"lon":-80.24422}},{"city":"Cleveland","state":"Ohio","zip":"44109-1998","country":"United States","geoPoint":{"lat":41.4995,"lon":-81.69541}},{"city":"Portland","state":"Oregon","zip":"97225","country":"United States","geoPoint":{"lat":45.52345,"lon":-122.67621}},{"city":"Philadelphia","state":"Pennsylvania","zip":"19107","country":"United States","geoPoint":{"lat":39.95233,"lon":-75.16379}},{"city":"Upland","state":"Pennsylvania","zip":"19013-3995","country":"United States","geoPoint":{"lat":39.85261,"lon":-75.38269}},{"city":"Beaufort","state":"South Carolina","zip":"29902-5472","country":"United States","geoPoint":{"lat":32.43158,"lon":-80.66983}},{"city":"Chattanooga","state":"Tennessee","zip":"37403-2112","country":"United States","geoPoint":{"lat":35.04563,"lon":-85.30968}},{"city":"Houston","state":"Texas","zip":"77030","country":"United States","geoPoint":{"lat":29.76328,"lon":-95.36327}},{"city":"Bellevue","state":"Washington","zip":"98004-4687","country":"United States","geoPoint":{"lat":47.61038,"lon":-122.20068}},{"city":"Gosford","state":"New South Wales","zip":"2250","country":"Australia","geoPoint":{"lat":-33.4244,"lon":151.34399}},{"city":"New Lambton Heights","state":"New South Wales","zip":"2305","country":"Australia","geoPoint":{"lat":-32.92466,"lon":151.69364}},{"city":"Southport","state":"Queensland","zip":"4215","country":"Australia","geoPoint":{"lat":-27.96724,"lon":153.39796}},{"city":"Hobart","state":"Tasmania","zip":"7000","country":"Australia","geoPoint":{"lat":-42.87936,"lon":147.32941}},{"city":"Melbourne","state":"Victoria","zip":"3011","country":"Australia","geoPoint":{"lat":-37.814,"lon":144.96332}},{"city":"Melbourne","state":"Victoria","zip":"3052","country":"Australia","geoPoint":{"lat":-37.814,"lon":144.96332}},{"city":"Melbourne","state":"Victoria","zip":"3084","country":"Australia","geoPoint":{"lat":-37.814,"lon":144.96332}},{"city":"Melbourne","state":"Victoria","zip":"3181","country":"Australia","geoPoint":{"lat":-37.814,"lon":144.96332}},{"city":"Klosterneuburg","state":"Niederösterreich","zip":"3400","country":"Austria","geoPoint":{"lat":48.30521,"lon":16.32522}},{"city":"Linz","state":"Oberösterreich","zip":"4020","country":"Austria","geoPoint":{"lat":48.30639,"lon":14.28611}},{"city":"Wien","zip":"1021","country":"Austria","geoPoint":{"lat":48.20849,"lon":16.37208}},{"city":"Bornem","zip":"2880","country":"Belgium","geoPoint":{"lat":51.09716,"lon":4.24364}},{"city":"Bruxelles - Brussel","zip":"1200","country":"Belgium","geoPoint":{"lat":50.85045,"lon":4.34878}},{"city":"Calgary","state":"Alberta","zip":"T2N 2T9","country":"Canada","geoPoint":{"lat":51.05011,"lon":-114.08529}},{"city":"Edmonton","state":"Alberta","zip":"T6G 2B7","country":"Canada","geoPoint":{"lat":53.55014,"lon":-113.46871}},{"city":"Lethbridge","state":"Alberta","zip":"T1KOC9","country":"Canada","geoPoint":{"lat":49.69999,"lon":-112.81856}},{"city":"North Vancouver","state":"British Columbia","zip":"V7L 2L3","country":"Canada","geoPoint":{"lat":49.31636,"lon":-123.06934}},{"city":"Penticton","state":"British Columbia","zip":"V2A 3G6","country":"Canada","geoPoint":{"lat":49.48062,"lon":-119.58584}},{"city":"Vancouver","state":"British Columbia","zip":"V5Z 1M9","country":"Canada","geoPoint":{"lat":49.24966,"lon":-123.11934}},{"city":"Victoria","state":"British Columbia","zip":"V8Z 6R5","country":"Canada","geoPoint":{"lat":48.43294,"lon":-123.3693}},{"city":"Winnipeg","state":"Manitoba","zip":"R2H 2A6","country":"Canada","geoPoint":{"lat":49.8844,"lon":-97.14704}},{"city":"St. John","state":"New Brunswick","zip":"E2L 4L2","country":"Canada","geoPoint":{"lat":45.2727,"lon":-66.06769}},{"city":"Halifax","state":"Nova Scotia","zip":"B3H 3A7","country":"Canada","geoPoint":{"lat":44.64533,"lon":-63.57239}},{"city":"London","state":"Ontario","zip":"N6A 5A5","country":"Canada","geoPoint":{"lat":42.98339,"lon":-81.23304}},{"city":"Mississauga","state":"Ontario","zip":"L5B 1B8","country":"Canada","geoPoint":{"lat":43.5789,"lon":-79.6583}},{"city":"Ottawa","state":"Ontario","zip":"K1H 8L6","country":"Canada","geoPoint":{"lat":45.41117,"lon":-75.69812}},{"city":"Toronto","state":"Ontario","zip":"M5T 2S8","country":"Canada","geoPoint":{"lat":43.70011,"lon":-79.4163}},{"city":"Chicoutimi","state":"Quebec","zip":"G7H 5H6","country":"Canada","geoPoint":{"lat":48.41963,"lon":-71.06369}},{"city":"Greenfield Park","state":"Quebec","zip":"J4V 2H1","country":"Canada","geoPoint":{"lat":45.48649,"lon":-73.46223}},{"city":"Quebec City","state":"Quebec","zip":"G1J 1Z4","country":"Canada","geoPoint":{"lat":46.81228,"lon":-71.21454}},{"city":"Saskatoon","state":"Saskatchewan","zip":"S7N 0W8","country":"Canada","geoPoint":{"lat":52.13238,"lon":-106.66892}},{"city":"Helsinki","zip":"00290","country":"Finland","geoPoint":{"lat":60.16952,"lon":24.93545}},{"city":"Kuopio","zip":"70120","country":"Finland","geoPoint":{"lat":62.89238,"lon":27.67703}},{"city":"Lahti","zip":"15850","country":"Finland","geoPoint":{"lat":60.98267,"lon":25.66151}},{"city":"Mikkeli","zip":"FIN-50100","country":"Finland","geoPoint":{"lat":61.68857,"lon":27.27227}},{"city":"Bordeaux","zip":"33000","country":"France","geoPoint":{"lat":44.84044,"lon":-0.5805}},{"city":"Nice","zip":"06200","country":"France","geoPoint":{"lat":43.70313,"lon":7.26608}},{"city":"Freiburg","state":"Baden-Württemberg","zip":"79106","country":"Germany","geoPoint":{"lat":47.9959,"lon":7.85222}},{"city":"Heidelberg","state":"Baden-Württemberg","zip":"69120","country":"Germany","geoPoint":{"lat":49.40768,"lon":8.69079}},{"city":"Tübingen","state":"Baden-Württemberg","zip":"72076","country":"Germany","geoPoint":{"lat":48.52266,"lon":9.05222}},{"city":"Aschaffenburg","state":"Bayern","zip":"63739","country":"Germany","geoPoint":{"lat":49.97704,"lon":9.15214}},{"city":"Bad Neustadt","state":"Bayern","zip":"97616","country":"Germany"},{"city":"Erlangen","state":"Bayern","zip":"91054","country":"Germany","geoPoint":{"lat":49.59099,"lon":11.00783}},{"city":"München","state":"Bayern","zip":"81377","country":"Germany","geoPoint":{"lat":48.13743,"lon":11.57549}},{"city":"München","state":"Bayern","zip":"81545","country":"Germany","geoPoint":{"lat":48.13743,"lon":11.57549}},{"city":"Nürnberg","state":"Bayern","zip":"90419","country":"Germany","geoPoint":{"lat":49.45421,"lon":11.07752}},{"city":"Regensburg","state":"Bayern","zip":"93053","country":"Germany","geoPoint":{"lat":49.01513,"lon":12.10161}},{"city":"Würzburg","state":"Bayern","zip":"97080","country":"Germany","geoPoint":{"lat":49.79391,"lon":9.95121}},{"city":"Frankfurt","state":"Hessen","zip":"60596","country":"Germany","geoPoint":{"lat":50.11552,"lon":8.68417}},{"city":"Greifswald","state":"Mecklenburg-Vorpommern","zip":"17489","country":"Germany","geoPoint":{"lat":54.09311,"lon":13.38786}},{"city":"Essen","state":"Nordrhein-Westfalen","zip":"45147","country":"Germany","geoPoint":{"lat":51.45657,"lon":7.01228}},{"city":"Köln","state":"Nordrhein-Westfalen","zip":"50931","country":"Germany","geoPoint":{"lat":50.93333,"lon":6.95}},{"city":"Minden","state":"Nordrhein-Westfalen","zip":"32427","country":"Germany","geoPoint":{"lat":52.28953,"lon":8.91455}},{"city":"Münster","state":"Nordrhein-Westfalen","zip":"48149","country":"Germany","geoPoint":{"lat":51.96236,"lon":7.62571}},{"city":"Kaiserslautern","state":"Rheinland-Pfalz","zip":"67655","country":"Germany","geoPoint":{"lat":49.443,"lon":7.77161}},{"city":"Magdeburg","state":"Sachsen-Anhalt","zip":"39112","country":"Germany","geoPoint":{"lat":52.12773,"lon":11.62916}},{"city":"Leipzig","state":"Sachsen","zip":"04103","country":"Germany","geoPoint":{"lat":51.33962,"lon":12.37129}},{"city":"Berlin","zip":"10117","country":"Germany","geoPoint":{"lat":52.52437,"lon":13.41053}},{"city":"Berlin","zip":"10249","country":"Germany","geoPoint":{"lat":52.52437,"lon":13.41053}},{"city":"Miskolc","zip":"3526","country":"Hungary","geoPoint":{"lat":48.1,"lon":20.78333}},{"city":"Petach Tikva","state":"Isarel","zip":"49372","country":"Israel","geoPoint":{"lat":32.08707,"lon":34.88747}},{"city":"Ashkelon","zip":"78306","country":"Israel","geoPoint":{"lat":31.66926,"lon":34.57149}},{"city":"Haifa","zip":"31048","country":"Israel","geoPoint":{"lat":32.81841,"lon":34.9885}},{"city":"Haifa","zip":"31096","country":"Israel","geoPoint":{"lat":32.81841,"lon":34.9885}},{"city":"Holon","zip":"58100","country":"Israel","geoPoint":{"lat":32.01034,"lon":34.77918}},{"city":"Nahariya","zip":"22100","country":"Israel","geoPoint":{"lat":33.00892,"lon":35.09814}},{"city":"Tel Aviv","zip":"64239","country":"Israel","geoPoint":{"lat":32.08088,"lon":34.78057}},{"city":"Tel Hashomer","zip":"52621","country":"Israel","geoPoint":{"lat":32.04195,"lon":34.85623}},{"city":"Como","zip":"22100","country":"Italy","geoPoint":{"lat":45.80819,"lon":9.0832}},{"city":"L'Aquila","zip":"67100","country":"Italy","geoPoint":{"lat":42.35055,"lon":13.39954}},{"city":"Milano","zip":"20153","country":"Italy","geoPoint":{"lat":45.46427,"lon":9.18951}},{"city":"Pavia","zip":"27100","country":"Italy","geoPoint":{"lat":45.19205,"lon":9.15917}},{"city":"Perugia","zip":"06126","country":"Italy","geoPoint":{"lat":43.1122,"lon":12.38878}},{"city":"Reggio Emilia","zip":"42100","country":"Italy","geoPoint":{"lat":44.69825,"lon":10.63125}},{"city":"Roma","zip":"00155","country":"Italy","geoPoint":{"lat":41.89193,"lon":12.51133}},{"city":"Verona","zip":"37126","country":"Italy","geoPoint":{"lat":45.4299,"lon":10.98444}},{"city":"Vibo Valentia","zip":"89900","country":"Italy","geoPoint":{"lat":38.67618,"lon":16.10094}},{"city":"Vicenza","zip":"36100","country":"Italy","geoPoint":{"lat":45.54672,"lon":11.5475}},{"city":"Groningen","zip":"9713 GZ","country":"Netherlands","geoPoint":{"lat":53.21917,"lon":6.56667}},{"city":"Nijmegen","zip":"6525 GA","country":"Netherlands","geoPoint":{"lat":51.8425,"lon":5.85278}},{"city":"Santiago de Compostela","state":"A Coruña","zip":"15706","country":"Spain","geoPoint":{"lat":42.88052,"lon":-8.54569}},{"city":"Barcelona","zip":"08003","country":"Spain","geoPoint":{"lat":41.38879,"lon":2.15899}},{"city":"Barcelona","zip":"08035","country":"Spain","geoPoint":{"lat":41.38879,"lon":2.15899}},{"city":"Madrid","zip":"28046","country":"Spain","geoPoint":{"lat":40.4165,"lon":-3.70256}},{"city":"Valencia","zip":"46010","country":"Spain","geoPoint":{"lat":39.46975,"lon":-0.37739}},{"city":"Zaragoza","zip":"50009","country":"Spain","geoPoint":{"lat":41.65606,"lon":-0.87734}},{"city":"Stockholm","zip":"171 76","country":"Sweden","geoPoint":{"lat":59.33258,"lon":18.0649}},{"city":"Umeå","zip":"901 85","country":"Sweden","geoPoint":{"lat":63.82842,"lon":20.25972}},{"city":"Leicester","state":"Leicestershire","zip":"LE1 5WW","country":"United Kingdom","geoPoint":{"lat":52.6386,"lon":-1.13169}},{"city":"Glasgow","state":"Strathclyde","zip":"G51 4TG","country":"United Kingdom","geoPoint":{"lat":55.86515,"lon":-4.25763}},{"city":"Dundee","state":"Tayside","zip":"DD2 1UB","country":"United Kingdom","geoPoint":{"lat":56.46913,"lon":-2.97489}}]}},"derivedSection":{"miscInfoModule":{"versionHolder":"2024-02-14"},"conditionBrowseModule":{"meshes":[{"id":"D000020521","term":"Stroke"},{"id":"D000083242","term":"Ischemic Stroke"},{"id":"D000002544","term":"Cerebral Infarction"},{"id":"D000007511","term":"Ischemia"}],"ancestors":[{"id":"D000002561","term":"Cerebrovascular Disorders"},{"id":"D000001927","term":"Brain Diseases"},{"id":"D000002493","term":"Central Nervous System Diseases"},{"id":"D000009422","term":"Nervous System Diseases"},{"id":"D000014652","term":"Vascular Diseases"},{"id":"D000002318","term":"Cardiovascular Diseases"},{"id":"D000010335","term":"Pathologic Processes"},{"id":"D000020520","term":"Brain Infarction"},{"id":"D000002545","term":"Brain Ischemia"},{"id":"D000007238","term":"Infarction"},{"id":"D000009336","term":"Necrosis"}],"browseLeaves":[{"id":"M21996","name":"Stroke","asFound":"Stroke","relevance":"HIGH"},{"id":"M9246","name":"Hemorrhage","relevance":"LOW"},{"id":"M10233","name":"Ischemia","asFound":"Ischemic","relevance":"HIGH"},{"id":"M2401","name":"Ischemic Stroke","asFound":"Ischemic Stroke","relevance":"HIGH"},{"id":"M9972","name":"Infarction","relevance":"LOW"},{"id":"M5483","name":"Cerebral Infarction","asFound":"Ischemic Stroke","relevance":"HIGH"},{"id":"M5500","name":"Cerebrovascular Disorders","relevance":"LOW"},{"id":"M4894","name":"Brain Diseases","relevance":"LOW"},{"id":"M5432","name":"Central Nervous System Diseases","relevance":"LOW"},{"id":"M17090","name":"Vascular Diseases","relevance":"LOW"},{"id":"M21995","name":"Brain Infarction","relevance":"LOW"},{"id":"M5484","name":"Brain Ischemia","relevance":"LOW"},{"id":"M11974","name":"Necrosis","relevance":"LOW"},{"id":"T170","name":"Acute Graft Versus Host Disease","relevance":"LOW"}],"browseBranches":[{"abbrev":"BC10","name":"Nervous System Diseases"},{"abbrev":"BC14","name":"Heart and Blood Diseases"},{"abbrev":"All","name":"All Conditions"},{"abbrev":"BC23","name":"Symptoms and General Pathology"},{"abbrev":"Rare","name":"Rare Diseases"}]},"interventionBrowseModule":{"meshes":[{"id":"C000111221","term":"Repinotan hydrochloride"}],"ancestors":[{"id":"D000058825","term":"Serotonin 5-HT1 Receptor Agonists"},{"id":"D000017366","term":"Serotonin Receptor Agonists"},{"id":"D000018490","term":"Serotonin Agents"},{"id":"D000018377","term":"Neurotransmitter Agents"},{"id":"D000045504","term":"Molecular Mechanisms of Pharmacological Action"},{"id":"D000045505","term":"Physiological Effects of Drugs"}],"browseLeaves":[{"id":"M259828","name":"Repinotan hydrochloride","asFound":"Necroptosis","relevance":"HIGH"},{"id":"M15202","name":"Serotonin","relevance":"LOW"},{"id":"M28930","name":"Serotonin 5-HT1 Receptor Agonists","relevance":"LOW"},{"id":"M19338","name":"Serotonin Receptor Agonists","relevance":"LOW"},{"id":"M20194","name":"Neurotransmitter Agents","relevance":"LOW"}],"browseBranches":[{"abbrev":"All","name":"All Drugs and Chemicals"}]}},"hasResults":false}