{"protocolSection":{"identificationModule":{"nctId":"NCT02258880","orgStudyIdInfo":{"id":"ASBI 802"},"organization":{"fullName":"Daiichi Sankyo, Inc.","class":"INDUSTRY"},"briefTitle":"Efficacy, Safety, Tolerability and Pharmacokinetics of SUN13837 to Treat Acute Stroke","officialTitle":"A Phase 2, Multicenter, Multinational, Randomized, Double-Blind, Placebo-Controlled, Parallel-Group Study to Evaluate the Efficacy, Safety, Tolerability, and Pharmacokinetics of SUN13837 Administered 28 Doses (27/28 Days) to Adult Subjects With an Acute Ischemic Stroke"},"statusModule":{"statusVerifiedDate":"2015-10","overallStatus":"WITHDRAWN","whyStopped":"study was stopped for business/administrative reasons and not for patient safety concerns","expandedAccessInfo":{"hasExpandedAccess":false},"startDateStruct":{"date":"2014-09"},"primaryCompletionDateStruct":{"date":"2016-05","type":"ESTIMATED"},"completionDateStruct":{"date":"2016-05","type":"ESTIMATED"},"studyFirstSubmitDate":"2014-09-29","studyFirstSubmitQcDate":"2014-10-07","studyFirstPostDateStruct":{"date":"2014-10-08","type":"ESTIMATED"},"lastUpdateSubmitDate":"2015-10-19","lastUpdatePostDateStruct":{"date":"2015-10-20","type":"ESTIMATED"}},"sponsorCollaboratorsModule":{"responsibleParty":{"type":"SPONSOR"},"leadSponsor":{"name":"Daiichi Sankyo, Inc.","class":"INDUSTRY"},"collaborators":[{"name":"Syneos Health","class":"OTHER"}]},"oversightModule":{"oversightHasDmc":true},"descriptionModule":{"briefSummary":"The purpose of this study is to evaluate the safety and tolerability of SUN13837 and to determine whether SUN13837 improves the physical performance, relative to placebo, following an acute stroke in adult subjects."},"conditionsModule":{"conditions":["Stroke"],"keywords":["Acute Stroke","Outcome Measures","Physical Performance"]},"designModule":{"studyType":"INTERVENTIONAL","phases":["PHASE2"],"designInfo":{"allocation":"RANDOMIZED","interventionModel":"PARALLEL","primaryPurpose":"TREATMENT","maskingInfo":{"masking":"QUADRUPLE","whoMasked":["PARTICIPANT","CARE_PROVIDER","INVESTIGATOR","OUTCOMES_ASSESSOR"]}},"enrollmentInfo":{"count":0,"type":"ACTUAL"}},"armsInterventionsModule":{"armGroups":[{"label":"SUN13837","type":"EXPERIMENTAL","description":"Drug: SUN13837 daily for 28 days.","interventionNames":["Drug: SUN13837"]},{"label":"Placebo","type":"PLACEBO_COMPARATOR","description":"Placebo: Matching Placebo daily for 28 days","interventionNames":["Drug: placebo"]}],"interventions":[{"type":"DRUG","name":"SUN13837","armGroupLabels":["SUN13837"]},{"type":"DRUG","name":"placebo","armGroupLabels":["Placebo"]}]},"outcomesModule":{"primaryOutcomes":[{"measure":"Mean change from baseline in the Physical Performance Assessment in Stroke (PPAS)","timeFrame":"84 days"}],"secondaryOutcomes":[{"measure":"The proportion of responders as measured by the PPAS","timeFrame":"84 days"},{"measure":"Mean change from baseline in PPAS Patient Reported Outcome Subscale","timeFrame":"84 days"},{"measure":"Mean change from baseline in Short Form-36 Physical Functioning Scale (SF-36 PF)","timeFrame":"84 days"},{"measure":"Mean change from baseline in Gait Speed","timeFrame":"84 days"},{"measure":"Proportion of responders as measured by the Modified Rankin Scale (mRS)","timeFrame":"84 days"},{"measure":"Safety/Tolerability - Number of Participants with Adverse Events","timeFrame":"84 days"}]},"eligibilityModule":{"eligibilityCriteria":"Each subject must meet all of the following criteria to participate in the study:\n\n1. Male or female subjects between 18 and 85 years, inclusive\n2. Subjects with no prior history of stroke (unless the stroke was not associated with a motor deficit)\n3. Subjects must score at least 16 points on the standard MMSE during baseline assessments\n4. Subjects must have a total score between 7 and 30, inclusive, out of 35 on the S-STREAM administered between 24 and 48 hours after the onset of acute stroke\n5. Subjects must have an estimated pre-stroke mRS of 0 or 1\n6. Male subjects agree to be heterosexually abstinent or use appropriate contraception\n7. Female subjects must have undergone menopause or, if premenopausal, must have a negative pregnancy test at baseline. Female subjects of childbearing potential agree to be sexually abstinent or must be willing to utilize adequate contraception\n8. Subjects must be willing to provide verbal/nonverbal informed consent indicating voluntary consent to participate in the study (if a subject is unable to provide informed consent, but able to comply with other study procedures, the subject's LAR may provide consent)\n\nExclusion Criteria:\n\nSubjects who meet any of the following criteria will be excluded from the study:\n\n1. Prior exposure to SUN13837\n2. History of severe allergic reaction, whether explained or not, requiring a visit to the ER and/or medical intervention with epinephrine\n3. Development of hemodynamic instability following the acute stroke\n4. History of dementia, advanced Parkinson's disease, other significant movement disorders, or other clinically significant diseases which would jeopardize the safety of the subject or impact the validity of the study results\n5. Presence of significant global or receptive aphasia\n6. Presence of clinically significant abnormal laboratory values at the time of presentation in the ER\n7. History of malabsorption or any gastrointestinal abnormality that could impair oral absorption\n8. Finding of Grade 3 or 4 proliferative retinopathy on routine fundoscopic examination or history of proliferative retinopathy (Grade 3 or 4) in subjects with diabetes mellitus\n9. Unable, as determined by the investigator, or unwilling to discontinue use of potent cytochrome (CYP) P450 3A4/5 inhibitors, potent CYP2D6 inhibitors, CYP3A inducers, or potent P glycoprotein (P gp) inhibitors\n10. Current participation in another clinical study involving administration of an investigational product or history of such participation within 30 days of acute stroke onset","healthyVolunteers":false,"sex":"ALL","minimumAge":"18 Years","maximumAge":"85 Years","stdAges":["ADULT","OLDER_ADULT"]},"contactsLocationsModule":{"overallOfficials":[{"name":"Ger Rikken, MD","affiliation":"Asubio Pharmaceuticals, Inc.","role":"STUDY_DIRECTOR"}],"locations":[{"city":"Mobile","state":"Alabama","zip":"36693","country":"United States","geoPoint":{"lat":30.69436,"lon":-88.04305}},{"city":"Encinita","state":"California","zip":"92024","country":"United States","geoPoint":{"lat":33.03699,"lon":-117.29198}},{"city":"Oceanside","state":"California","zip":"92056","country":"United States","geoPoint":{"lat":33.19587,"lon":-117.37948}},{"city":"Sarasota","state":"Florida","zip":"34239","country":"United States","geoPoint":{"lat":27.33643,"lon":-82.53065}},{"city":"Tampa","state":"Florida","zip":"33606","country":"United States","geoPoint":{"lat":27.94752,"lon":-82.45843}},{"city":"Atlanta","state":"Georgia","zip":"30322","country":"United States","geoPoint":{"lat":33.749,"lon":-84.38798}},{"city":"Savannah","state":"Georgia","zip":"31405","country":"United States","geoPoint":{"lat":32.08354,"lon":-81.09983}},{"city":"Lexington","state":"Kentucky","zip":"40536","country":"United States","geoPoint":{"lat":37.98869,"lon":-84.47772}},{"city":"Marrero","state":"Louisiana","zip":"70072","country":"United States","geoPoint":{"lat":29.89937,"lon":-90.10035}},{"city":"New Orleans","state":"Louisiana","zip":"70112","country":"United States","geoPoint":{"lat":29.95465,"lon":-90.07507}},{"city":"New Orleans","state":"Louisiana","zip":"70121","country":"United States","geoPoint":{"lat":29.95465,"lon":-90.07507}},{"city":"Worcester","state":"Massachusetts","zip":"01655","country":"United States","geoPoint":{"lat":42.26259,"lon":-71.80229}},{"city":"Detroit","state":"Michigan","zip":"48201","country":"United States","geoPoint":{"lat":42.33143,"lon":-83.04575}},{"city":"Detroit","state":"Michigan","zip":"48236","country":"United States","geoPoint":{"lat":42.33143,"lon":-83.04575}},{"city":"Novi","state":"Michigan","zip":"48374","country":"United States","geoPoint":{"lat":42.48059,"lon":-83.47549}},{"city":"Southfield","state":"Michigan","zip":"48705","country":"United States","geoPoint":{"lat":42.47337,"lon":-83.22187}},{"city":"Kalispell","state":"Montana","zip":"59901","country":"United States","geoPoint":{"lat":48.19579,"lon":-114.31291}},{"city":"Reno","state":"Nevada","zip":"89502","country":"United States","geoPoint":{"lat":39.52963,"lon":-119.8138}},{"city":"Edison","state":"New Jersey","zip":"08818","country":"United States","geoPoint":{"lat":40.51872,"lon":-74.4121}},{"city":"Summit","state":"New Jersey","zip":"07901","country":"United States","geoPoint":{"lat":40.71562,"lon":-74.36468}},{"city":"Brooklyn","state":"New York","zip":"11220","country":"United States","geoPoint":{"lat":40.6501,"lon":-73.94958}},{"city":"Chapel Hill","state":"North Carolina","zip":"27599","country":"United States","geoPoint":{"lat":35.9132,"lon":-79.05584}},{"city":"Columbus","state":"Ohio","zip":"43210","country":"United States","geoPoint":{"lat":39.96118,"lon":-82.99879}},{"city":"Portland","state":"Oregon","zip":"97201","country":"United States","geoPoint":{"lat":45.52345,"lon":-122.67621}},{"city":"Portland","state":"Oregon","zip":"97213","country":"United States","geoPoint":{"lat":45.52345,"lon":-122.67621}},{"city":"Portland","state":"Oregon","zip":"97225","country":"United States","geoPoint":{"lat":45.52345,"lon":-122.67621}},{"city":"Bryn Mawr","state":"Pennsylvania","zip":"19010","country":"United States","geoPoint":{"lat":40.30396,"lon":-80.08672}},{"city":"Hershey","state":"Pennsylvania","zip":"17033","country":"United States","geoPoint":{"lat":40.28592,"lon":-76.65025}},{"city":"Paoli","state":"Pennsylvania","zip":"19301","country":"United States","geoPoint":{"lat":40.04205,"lon":-75.47631}},{"city":"Philadelphia","state":"Pennsylvania","zip":"19102","country":"United States","geoPoint":{"lat":39.95233,"lon":-75.16379}},{"city":"Columbia","state":"South Carolina","zip":"29203","country":"United States","geoPoint":{"lat":34.00071,"lon":-81.03481}},{"city":"Chattanooga","state":"Tennessee","zip":"37404","country":"United States","geoPoint":{"lat":35.04563,"lon":-85.30968}},{"city":"Houston","state":"Texas","zip":"77030","country":"United States","geoPoint":{"lat":29.76328,"lon":-95.36327}},{"city":"Mechanicsville","state":"Virginia","zip":"23116","country":"United States","geoPoint":{"lat":37.60876,"lon":-77.37331}},{"city":"Midlothian","state":"Virginia","zip":"23114","country":"United States","geoPoint":{"lat":37.50598,"lon":-77.64916}},{"city":"Richmond","state":"Virginia","zip":"23226","country":"United States","geoPoint":{"lat":37.55376,"lon":-77.46026}},{"city":"Richmond","state":"Virginia","zip":"23298","country":"United States","geoPoint":{"lat":37.55376,"lon":-77.46026}},{"city":"Edmonton","state":"Alberta","zip":"T6G 2B7","country":"Canada","geoPoint":{"lat":53.55014,"lon":-113.46871}},{"city":"Victoria","state":"British Columbia","zip":"V8R 1J8","country":"Canada","geoPoint":{"lat":48.43294,"lon":-123.3693}},{"city":"St-Jerome","state":"Quebec","zip":"J7Z 5T3","country":"Canada","geoPoint":{"lat":45.78036,"lon":-74.00365}},{"city":"Haifa","zip":"3109601","country":"Israel","geoPoint":{"lat":32.81841,"lon":34.9885}},{"city":"Haifa","zip":"3339419","country":"Israel","geoPoint":{"lat":32.81841,"lon":34.9885}},{"city":"Holon","zip":"5822012","country":"Israel","geoPoint":{"lat":32.01034,"lon":34.77918}},{"city":"Kfar-Saba","zip":"4428164","country":"Israel","geoPoint":{"lat":32.175,"lon":34.90694}},{"city":"Naharyia","zip":"2210001","country":"Israel"},{"city":"Ramat Gan","zip":"5262100","country":"Israel","geoPoint":{"lat":32.08227,"lon":34.81065}},{"city":"Tel-Aviv","zip":"6423906","country":"Israel","geoPoint":{"lat":32.08088,"lon":34.78057}},{"city":"Bloemfontein","state":"Free State","zip":"9301","country":"South Africa","geoPoint":{"lat":-29.12107,"lon":26.214}},{"city":"Alberton","state":"Gauteng","zip":"1449","country":"South Africa","geoPoint":{"lat":-26.26786,"lon":28.12225}},{"city":"Krugersdorp","state":"Gauteng","zip":"1739","country":"South Africa","geoPoint":{"lat":-26.08577,"lon":27.77515}},{"city":"Bellville","state":"Western Cape","zip":"7350","country":"South Africa","geoPoint":{"lat":-33.90022,"lon":18.62847}},{"city":"Somerset West","state":"Western Cape","zip":"7130","country":"South Africa","geoPoint":{"lat":-34.08401,"lon":18.82113}},{"city":"Worcester","state":"Western Cape","zip":"6850","country":"South Africa","geoPoint":{"lat":-33.64651,"lon":19.44852}}]}},"derivedSection":{"miscInfoModule":{"versionHolder":"2024-02-14"},"conditionBrowseModule":{"meshes":[{"id":"D000020521","term":"Stroke"}],"ancestors":[{"id":"D000002561","term":"Cerebrovascular Disorders"},{"id":"D000001927","term":"Brain Diseases"},{"id":"D000002493","term":"Central Nervous System Diseases"},{"id":"D000009422","term":"Nervous System Diseases"},{"id":"D000014652","term":"Vascular Diseases"},{"id":"D000002318","term":"Cardiovascular Diseases"}],"browseLeaves":[{"id":"M21996","name":"Stroke","asFound":"Stroke","relevance":"HIGH"},{"id":"M10233","name":"Ischemia","relevance":"LOW"},{"id":"M2401","name":"Ischemic Stroke","relevance":"LOW"},{"id":"M5500","name":"Cerebrovascular Disorders","relevance":"LOW"},{"id":"M4894","name":"Brain Diseases","relevance":"LOW"},{"id":"M5432","name":"Central Nervous System Diseases","relevance":"LOW"},{"id":"M17090","name":"Vascular Diseases","relevance":"LOW"},{"id":"T170","name":"Acute Graft Versus Host Disease","relevance":"LOW"}],"browseBranches":[{"abbrev":"BC10","name":"Nervous System Diseases"},{"abbrev":"BC14","name":"Heart and Blood Diseases"},{"abbrev":"All","name":"All Conditions"},{"abbrev":"BC23","name":"Symptoms and General Pathology"},{"abbrev":"Rare","name":"Rare Diseases"}]}},"hasResults":false}