{"protocolSection":{"identificationModule":{"nctId":"NCT03968393","orgStudyIdInfo":{"id":"2019-ASPIREAF"},"secondaryIdInfos":[{"id":"2019-001336-62","type":"EUDRACT_NUMBER"}],"organization":{"fullName":"Population Health Research Institute","class":"OTHER"},"briefTitle":"Anticoagulation for Stroke Prevention In Patients With Recent Episodes of Perioperative AF After Noncardiac Surgery","officialTitle":"Anticoagulation for Stroke Prevention In Patients With Recent Episodes of Perioperative Atrial Fibrillation After Noncardiac Surgery - The ASPIRE-AF Trial","acronym":"ASPIRE-AF"},"statusModule":{"statusVerifiedDate":"2023-09","overallStatus":"RECRUITING","expandedAccessInfo":{"hasExpandedAccess":false},"startDateStruct":{"date":"2019-06-14","type":"ACTUAL"},"primaryCompletionDateStruct":{"date":"2026-09","type":"ESTIMATED"},"completionDateStruct":{"date":"2026-12","type":"ESTIMATED"},"studyFirstSubmitDate":"2019-03-22","studyFirstSubmitQcDate":"2019-05-27","studyFirstPostDateStruct":{"date":"2019-05-30","type":"ACTUAL"},"lastUpdateSubmitDate":"2023-09-28","lastUpdatePostDateStruct":{"date":"2023-10-02","type":"ACTUAL"}},"sponsorCollaboratorsModule":{"responsibleParty":{"type":"SPONSOR"},"leadSponsor":{"name":"Population Health Research Institute","class":"OTHER"},"collaborators":[{"name":"Hamilton Health Sciences Corporation","class":"OTHER"}]},"oversightModule":{"oversightHasDmc":false,"isFdaRegulatedDrug":false,"isFdaRegulatedDevice":false},"descriptionModule":{"briefSummary":"Multinational, investigator-initiated study of oral anticoagulation versus no anticoagulation for the prevention of stroke and other adverse cardiovascular events in patients with transient perioperative atrial fibrillation after noncardiac surgery and additional stroke risk factors.","detailedDescription":"ASPIRE-AF is a prospective, randomized, open-label trial of non-vitamin K oral anticoagulants (NOACs) versus no oral anticoagulation in patients with transient perioperative atrial fibrillation and additional stroke factors after noncardiac surgery. The primary objective is to assess the effects of NOACs on the co-primary composite outcomes of 1. non-hemorrhagic stroke and systemic embolism, and 2. vascular mortality, and non-fatal non-hemorrhagic stroke, myocardial infarction, peripheral arterial thrombosis, amputation, and symptomatic venous thromboembolism 24 months after randomization."},"conditionsModule":{"conditions":["Stroke","Atrial Fibrillation"],"keywords":["Transient Atrial Fibrillation","Perioperative Atrial Fibrillation","Non-vitamin K Oral Anticoagulation","Noncardiac Surgery","PROBE Design"]},"designModule":{"studyType":"INTERVENTIONAL","phases":["PHASE4"],"designInfo":{"allocation":"RANDOMIZED","interventionModel":"PARALLEL","interventionModelDescription":"Prospective, randomized, open-label clinical trial with blinded outcome assessment","primaryPurpose":"PREVENTION","maskingInfo":{"masking":"SINGLE","whoMasked":["OUTCOMES_ASSESSOR"]}},"enrollmentInfo":{"count":2800,"type":"ESTIMATED"}},"armsInterventionsModule":{"armGroups":[{"label":"Non-vitamin K oral anticoagulant (NOAC)","type":"EXPERIMENTAL","description":"Participants randomized to the intervention arm will be prescribed one of the following NOACs for 24 months, unless they are undergoing a procedure with an increased risk of bleeding, have an adverse event or low calculated creatinine clearance, or decide to discontinue their use.","interventionNames":["Drug: Non-vitamin K oral anticoagulant (NOAC)"]},{"label":"No anticoagulation","type":"NO_INTERVENTION","description":"Participants randomized to the control arm will not be prescribed an oral anticoagulant unless they develop a clear indication for one during follow-up (e.g., recurrent nonoperative AF). They can be newly prescribed or continue taking low dose aspirin or another single antiplatelet agent as per the protocol. This will be decided by the participant's physician."}],"interventions":[{"type":"DRUG","name":"Non-vitamin K oral anticoagulant (NOAC)","description":"Participants randomized to the intervention arm will be prescribed one of the following NOACs for 24 months: edoxaban 60 mg daily (dose reduction to 30 mg, if applicable), apixaban 5 mg twice daily (dose reduction to 2.5 mg, if applicable), dabigatran 110 mg twice daily, or rivaroxaban 20 mg daily (dose reduction to 15 mg, if applicable). The choice of NOAC will be left up to the participant's prescribing physician.","armGroupLabels":["Non-vitamin K oral anticoagulant (NOAC)"],"otherNames":["Apixaban","Dabigatran","Edoxaban","Rivaroxaban"]}]},"outcomesModule":{"primaryOutcomes":[{"measure":"Incidence of Non-hemorrhagic stroke or systemic embolism","timeFrame":"Up to 24 months, until final follow-up"},{"measure":"Incidence of vascular mortality, and non-fatal non-hemorrhagic stroke, myocardial infarction, peripheral arterial thrombosis, amputation, and symptomatic venous thromboembolism","timeFrame":"Up to 24 months, until final follow-up"}],"secondaryOutcomes":[{"measure":"Incidence of vascular mortality","timeFrame":"Up to 24 months, until final follow-up"},{"measure":"Incidence of non-fatal, non-hemorrhagic stroke","timeFrame":"Up to 24 months, until final follow-up"},{"measure":"Incidence of Myocardial infarction","timeFrame":"Up to 24 months, until final follow-up"},{"measure":"Incidence of peripheral arterial thrombosis","timeFrame":"Up to 24 months, until final follow-up"},{"measure":"Incidence of amputation","timeFrame":"Up to 24 months, until final follow-up"},{"measure":"Incidence of symptomatic venous thromboembolism","timeFrame":"Up to 24 months, until final follow-up"},{"measure":"Incidence of all-cause stroke","timeFrame":"Up to 24 months, until final follow-up"},{"measure":"Incidence of all-cause mortality","timeFrame":"Up to 24 months, until final follow-up"}],"otherOutcomes":[{"measure":"Incidence of composite of life-threatening, major, and critical organ bleeding","description":"Safety objective, measured as previously done in the MANAGE trial","timeFrame":"Up to 24 months, until final follow-up"},{"measure":"Incidence of major bleeding","description":"Safety objective, measured according to the ISTH criteria","timeFrame":"Up to 24 months, until final follow-up"},{"measure":"Incidence of hemorrhagic stroke","description":"Safety objective","timeFrame":"Up to 24 months, until final follow-up"},{"measure":"Hospitalization for vascular causes","description":"Tertiary Objective","timeFrame":"Up to 24 months, until final follow-up"},{"measure":"Hospitalization for all causes","description":"Tertiary Objective","timeFrame":"Up to 24 months, until final follow-up"}]},"eligibilityModule":{"eligibilityCriteria":"Inclusion Criteria:\n\n1. noncardiac surgery with at least an overnight hospital admission after surgery in the last 35 days;\n2. ≥1 episode of clinically important perioperative AF during or after their surgery;\n3. sinus rhythm at the time of randomization; AND\n4. any of the following high-risk criteria:\n\n   1. age 55-74 years, and having either known cardiovascular disease, recent major vascular surgery, or a CHA2DS2VASc score ≥3;OR\n   2. age ≥75 years.\n\nExclusion Criteria:\n\n1. history of documented AF prior to noncardiac surgery;\n2. need for long-term systemic anticoagulation;\n3. ongoing need for long-term dual antiplatelet treatment;\n4. contraindication to oral anticoagulation;\n5. severe renal insufficiency (eGFR \\<30 ml/min);\n6. acute stroke in the past 3 months;\n7. underwent cardiac surgery in the past 3 months;\n8. history of nontraumatic intracranial, intraocular, or spinal bleeding;\n9. hemorrhagic disorder or bleeding diathesis;\n10. expected to be non-compliant with follow-up and/or study medications;\n11. known life expectancy less than 1 year due to concomitant disease;\n12. women who are pregnant, breastfeeding, or of childbearing potential who are not taking effective contraception; OR\n13. previously enrolled in the trial","healthyVolunteers":false,"sex":"ALL","minimumAge":"55 Years","stdAges":["ADULT","OLDER_ADULT"]},"contactsLocationsModule":{"centralContacts":[{"name":"Cassie McDonald","role":"CONTACT","phone":"1-905-594-0560","email":"aspireaf@phri.ca"}],"overallOfficials":[{"name":"David Conen, MD, MPH","affiliation":"Population Health Research Institute","role":"PRINCIPAL_INVESTIGATOR"},{"name":"PJ Devereaux, MD, PhD","affiliation":"Population Health Research Institute","role":"STUDY_CHAIR"}],"locations":[{"facility":"Hospital Municipal Chivilcoy","status":"NOT_YET_RECRUITING","city":"Chivilcoy","zip":"B6620","country":"Argentina","contacts":[{"name":"Pablo Fernandez, MD","role":"PRINCIPAL_INVESTIGATOR"}],"geoPoint":{"lat":-34.89566,"lon":-60.01667}},{"facility":"Hospital Privado de Rosario","status":"NOT_YET_RECRUITING","city":"Santa Fe","zip":"S2000GAP","country":"Argentina","contacts":[{"name":"Carlos Dumont, MD","role":"PRINCIPAL_INVESTIGATOR"}],"geoPoint":{"lat":-31.63333,"lon":-60.7}},{"facility":"Sanatorio Cisma","status":"NOT_YET_RECRUITING","city":"Tucuman","zip":"T4000","country":"Argentina","contacts":[{"name":"Guillermo Isa Messa, MD","role":"PRINCIPAL_INVESTIGATOR"}],"geoPoint":{"lat":-26.82414,"lon":-65.2226}},{"facility":"Canberra Hospital","status":"NOT_YET_RECRUITING","city":"Garran","state":"Australian Capital Territory","zip":"2605","country":"Australia","contacts":[{"name":"Walter Abhayaratna, MD","role":"PRINCIPAL_INVESTIGATOR"}],"geoPoint":{"lat":-35.34206,"lon":149.10846}},{"facility":"Royal Prince Alfred Hospital","status":"RECRUITING","city":"Camperdown","state":"New South Wales","zip":"2050","country":"Australia","contacts":[{"name":"Sanjay Patel, MD","role":"PRINCIPAL_INVESTIGATOR"}],"geoPoint":{"lat":-33.88965,"lon":151.17642}},{"facility":"Concord Repatriation General Hospital","status":"RECRUITING","city":"Concord","state":"New South Wales","zip":"2139","country":"Australia","contacts":[{"name":"David Brieger, MD","role":"PRINCIPAL_INVESTIGATOR"}],"geoPoint":{"lat":-33.84722,"lon":151.10381}},{"facility":"John Hunter Hospital","status":"RECRUITING","city":"Newcastle","state":"New South Wales","zip":"2305","country":"Australia","contacts":[{"name":"Aaron Sverdlov, MD","role":"PRINCIPAL_INVESTIGATOR"}],"geoPoint":{"lat":-32.92715,"lon":151.77647}},{"facility":"Westmead Hospital","status":"RECRUITING","city":"Westmead","state":"New South Wales","zip":"2145","country":"Australia","contacts":[{"name":"Clara Chow, MD","role":"PRINCIPAL_INVESTIGATOR"}],"geoPoint":{"lat":-33.80383,"lon":150.98768}},{"facility":"Wollongong Hospital","status":"NOT_YET_RECRUITING","city":"Wollongong","state":"New South Wales","zip":"2500","country":"Australia","contacts":[{"name":"Astin Lee, MD","role":"PRINCIPAL_INVESTIGATOR"}],"geoPoint":{"lat":-34.424,"lon":150.89345}},{"facility":"Wesley & Greenscopes Private Hospitals","status":"NOT_YET_RECRUITING","city":"Brisbane","state":"Queensland","zip":"4064","country":"Australia","contacts":[{"name":"David Colquhoun, MD","role":"PRINCIPAL_INVESTIGATOR"}],"geoPoint":{"lat":-27.46794,"lon":153.02809}},{"facility":"Royal Brisbane and Women's Hospital","status":"NOT_YET_RECRUITING","city":"Herston","state":"Queensland","zip":"4029","country":"Australia","contacts":[{"name":"John Atherton, MD","role":"PRINCIPAL_INVESTIGATOR"}],"geoPoint":{"lat":-27.44453,"lon":153.01852}},{"facility":"Monash Medical Centre","status":"NOT_YET_RECRUITING","city":"Clayton","state":"Victoria","zip":"3168","country":"Australia","contacts":[{"name":"Stephen Nicholls, MD","role":"PRINCIPAL_INVESTIGATOR"}],"geoPoint":{"lat":-37.91667,"lon":145.11667}},{"facility":"Royal Perth Hospital","status":"RECRUITING","city":"Perth","state":"Western Australia","zip":"6000","country":"Australia","contacts":[{"name":"Graham Hillis, MD","role":"PRINCIPAL_INVESTIGATOR"}],"geoPoint":{"lat":-31.95224,"lon":115.8614}},{"facility":"Instituto do Coração do Hospital das Clínicas da FMUSP","status":"NOT_YET_RECRUITING","city":"Cerqueira César","zip":"05403-900","country":"Brazil","contacts":[{"name":"Carlos Serrano, MD","role":"PRINCIPAL_INVESTIGATOR"}],"geoPoint":{"lat":-23.03556,"lon":-49.16611}},{"facility":"Hospital de Clinicas de Porto Alegre","status":"NOT_YET_RECRUITING","city":"Porto Alegre","zip":"90035-903","country":"Brazil","contacts":[{"name":"Carisi Polanczyk, MD","role":"PRINCIPAL_INVESTIGATOR"}],"geoPoint":{"lat":-30.03306,"lon":-51.23}},{"facility":"University of Alberta Hospital","status":"RECRUITING","city":"Edmonton","state":"Alberta","zip":"T6G 2B7","country":"Canada","contacts":[{"name":"Finlay McAlister, MD","role":"PRINCIPAL_INVESTIGATOR"}],"geoPoint":{"lat":53.55014,"lon":-113.46871}},{"facility":"Health Sciences Centre Winnipeg","status":"NOT_YET_RECRUITING","city":"Winnipeg","state":"Manitoba","zip":"R3A 1R9","country":"Canada","contacts":[{"name":"Sadeesh Srinathan, MD","role":"PRINCIPAL_INVESTIGATOR"}],"geoPoint":{"lat":49.8844,"lon":-97.14704}},{"facility":"Halifax Infirmary","status":"RECRUITING","city":"Halifax","state":"Nova Scotia","zip":"B3H 3A6","country":"Canada","contacts":[{"name":"Kim Styles, MD","role":"PRINCIPAL_INVESTIGATOR"}],"geoPoint":{"lat":44.64533,"lon":-63.57239}},{"facility":"Hamilton General Hospital","status":"RECRUITING","city":"Hamilton","state":"Ontario","zip":"L8L 2X2","country":"Canada","contacts":[{"name":"Mohamed Panju, MD","role":"PRINCIPAL_INVESTIGATOR"}],"geoPoint":{"lat":43.25011,"lon":-79.84963}},{"facility":"St. Joseph's Healthcare Hamilton","status":"RECRUITING","city":"Hamilton","state":"Ontario","zip":"L8N 4A6","country":"Canada","contacts":[{"name":"Vikas Tandon, MD","role":"PRINCIPAL_INVESTIGATOR"}],"geoPoint":{"lat":43.25011,"lon":-79.84963}},{"facility":"Juravinski Hospital","status":"RECRUITING","city":"Hamilton","state":"Ontario","zip":"L8V 1C3","country":"Canada","contacts":[{"name":"Ameen Patel, MD","role":"PRINCIPAL_INVESTIGATOR"}],"geoPoint":{"lat":43.25011,"lon":-79.84963}},{"facility":"Kingston General Hospital","status":"RECRUITING","city":"Kingston","state":"Ontario","zip":"K7L 2V7","country":"Canada","contacts":[{"name":"Michael McMullen, MD","role":"PRINCIPAL_INVESTIGATOR"}],"geoPoint":{"lat":44.22976,"lon":-76.48101}},{"facility":"London Health Sciences Centre - University Hospital","status":"RECRUITING","city":"London","state":"Ontario","zip":"N6A 5A5","country":"Canada","contacts":[{"name":"Marko Mrkobrada, MD","role":"PRINCIPAL_INVESTIGATOR"}],"geoPoint":{"lat":42.98339,"lon":-81.23304}},{"facility":"The Ottawa Hospital General Campus","status":"RECRUITING","city":"Ottawa","state":"Ontario","zip":"K1H 8L6","country":"Canada","contacts":[{"name":"James Villeneuve, MD","role":"PRINCIPAL_INVESTIGATOR"}],"geoPoint":{"lat":45.41117,"lon":-75.69812}},{"facility":"Niagara Health System - St. Catharine's Site","status":"RECRUITING","city":"St. Catharines","state":"Ontario","zip":"L2S 0A9","country":"Canada","contacts":[{"name":"Leonard Blair, MD","role":"PRINCIPAL_INVESTIGATOR"}],"geoPoint":{"lat":43.17126,"lon":-79.24267}},{"facility":"Centre Hospitalier de l'Université de Montréal","status":"RECRUITING","city":"Montréal","state":"Quebec","zip":"H2X 3E4","country":"Canada","contacts":[{"name":"Isabelle Greiss, MD","role":"PRINCIPAL_INVESTIGATOR"}],"geoPoint":{"lat":45.50884,"lon":-73.58781}},{"facility":"Hôpital Fleurimont du Centre hospitalier universitaire de Sherbrooke","status":"RECRUITING","city":"Sherbrooke","state":"Quebec","zip":"J1H 5H3","country":"Canada","contacts":[{"name":"Félix Ayala-Paredes, MD","role":"PRINCIPAL_INVESTIGATOR"}],"geoPoint":{"lat":45.40008,"lon":-71.89908}},{"facility":"Royal University Hospital","status":"NOT_YET_RECRUITING","city":"Saskatoon","state":"Saskatchewan","zip":"S7N 0W8","country":"Canada","contacts":[{"name":"Michael Prystajecky, MD","role":"PRINCIPAL_INVESTIGATOR"}],"geoPoint":{"lat":52.13238,"lon":-106.66892}},{"facility":"Aarhus University Hospital","status":"NOT_YET_RECRUITING","city":"Aarhus","zip":"8200","country":"Denmark","contacts":[{"name":"Erik Grove, MD","role":"PRINCIPAL_INVESTIGATOR"}],"geoPoint":{"lat":56.15674,"lon":10.21076}},{"facility":"Hospital South West Jutland - University Hospital of Southern Denmark","status":"RECRUITING","city":"Esbjerg","zip":"6700","country":"Denmark","contacts":[{"name":"Axel Brandes, MD","role":"PRINCIPAL_INVESTIGATOR"}],"geoPoint":{"lat":55.47028,"lon":8.45187}},{"facility":"Odense University Hospital","status":"RECRUITING","city":"Odense","zip":"5000","country":"Denmark","contacts":[{"name":"Axel Brandes, MD","role":"PRINCIPAL_INVESTIGATOR"}],"geoPoint":{"lat":55.39594,"lon":10.38831}},{"facility":"Universitatsklinikum Leipzig","status":"NOT_YET_RECRUITING","city":"Leipzig","zip":"04103","country":"Germany","contacts":[{"name":"Rolf Wachter, MD","role":"PRINCIPAL_INVESTIGATOR"}],"geoPoint":{"lat":51.33962,"lon":12.37129}},{"facility":"NU Hospitals","status":"NOT_YET_RECRUITING","city":"Bangalore","state":"Karnataka","zip":"560010","country":"India","contacts":[{"name":"Pramod Krishnappa, MD","role":"PRINCIPAL_INVESTIGATOR"}],"geoPoint":{"lat":12.97194,"lon":77.59369}},{"facility":"Amala Institute","status":"NOT_YET_RECRUITING","city":"Thrissur","state":"Kerala","zip":"680555","country":"India","contacts":[{"name":"Kishore Puthezhath, MD","role":"PRINCIPAL_INVESTIGATOR"}],"geoPoint":{"lat":10.51667,"lon":76.21667}},{"facility":"Jehangir Clinical Development Centre","status":"NOT_YET_RECRUITING","city":"Pune","state":"Maharashtra","zip":"411001","country":"India","contacts":[{"name":"Ajit Mehta, MD","role":"PRINCIPAL_INVESTIGATOR"}],"geoPoint":{"lat":18.51957,"lon":73.85535}},{"facility":"St. John's Medical College Hospital","status":"NOT_YET_RECRUITING","city":"Bangalore","zip":"560034","country":"India","contacts":[{"name":"Joe Cherian, MD","role":"PRINCIPAL_INVESTIGATOR"}],"geoPoint":{"lat":12.97194,"lon":77.59369}},{"facility":"NU Hospitals","status":"NOT_YET_RECRUITING","city":"Bengaluru","zip":"560010","country":"India","contacts":[{"name":"Pramod Krishnappa, MD","role":"PRINCIPAL_INVESTIGATOR"}],"geoPoint":{"lat":12.97194,"lon":77.59369}},{"facility":"Bangalore Baptist Hospital","status":"NOT_YET_RECRUITING","city":"Bengaluru","zip":"560024","country":"India","contacts":[{"name":"Joel Jacob Chakravarthy, MD","role":"PRINCIPAL_INVESTIGATOR"}],"geoPoint":{"lat":12.97194,"lon":77.59369}},{"facility":"JIPMER","status":"NOT_YET_RECRUITING","city":"Pondicherry","zip":"605006","country":"India","contacts":[{"name":"Adinarayanan Sethurmachandran, MD","role":"PRINCIPAL_INVESTIGATOR"}],"geoPoint":{"lat":11.93381,"lon":79.82979}},{"facility":"Ruby Hall Clinic","status":"NOT_YET_RECRUITING","city":"Pune","zip":"411057","country":"India","contacts":[{"name":"Jagdish Hiremath, MD","role":"PRINCIPAL_INVESTIGATOR"}],"geoPoint":{"lat":18.51957,"lon":73.85535}},{"facility":"Trivandrum Medical","status":"NOT_YET_RECRUITING","city":"Thiruvananthapuram","zip":"695011","country":"India","contacts":[{"name":"Prem Menon, MD","role":"PRINCIPAL_INVESTIGATOR"}],"geoPoint":{"lat":8.4855,"lon":76.94924}},{"facility":"Government Medical College","status":"NOT_YET_RECRUITING","city":"Trivandrum","zip":"695011","country":"India","contacts":[{"name":"Prem Menon, MD","role":"PRINCIPAL_INVESTIGATOR"}],"geoPoint":{"lat":8.4855,"lon":76.94924}},{"facility":"ASST Grande Ospedale Metropolitano Niguarda","status":"NOT_YET_RECRUITING","city":"Milano","state":"Milan","zip":"20162","country":"Italy","contacts":[{"name":"Matteo Baroni, MD","role":"PRINCIPAL_INVESTIGATOR"}],"geoPoint":{"lat":45.46427,"lon":9.18951}},{"facility":"Azienda Ospedaliera Nazionale SS. Antonio e Biagio e Cesare Arrigo","status":"NOT_YET_RECRUITING","city":"Alessandria","zip":"15121","country":"Italy","contacts":[{"name":"Gabriele Colò, MD","role":"PRINCIPAL_INVESTIGATOR"}],"geoPoint":{"lat":44.90924,"lon":8.61007}},{"facility":"Fondazione IRCCS Ca'Granda Ospedale Maggiore Policlinico","status":"RECRUITING","city":"Milan","zip":"20122","country":"Italy","contacts":[{"name":"Giuseppe Ristagno, MD","role":"PRINCIPAL_INVESTIGATOR"}],"geoPoint":{"lat":45.46427,"lon":9.18951}},{"facility":"La Maddalena","status":"NOT_YET_RECRUITING","city":"Palermo","zip":"90146","country":"Italy","contacts":[{"name":"Salvatore D'Arpa, MD","role":"PRINCIPAL_INVESTIGATOR"}],"geoPoint":{"lat":38.13205,"lon":13.33561}},{"facility":"Piacenza Ospedale","status":"NOT_YET_RECRUITING","city":"Piacenza","zip":"29121","country":"Italy","contacts":[{"name":"Maria Bolognesi, MD","role":"CONTACT"}],"geoPoint":{"lat":45.05242,"lon":9.69342}},{"facility":"San Luigi Gonzaga","status":"NOT_YET_RECRUITING","city":"Turin","zip":"10043","country":"Italy","contacts":[{"name":"Pietro Caironi, MD","role":"PRINCIPAL_INVESTIGATOR"}],"geoPoint":{"lat":45.07049,"lon":7.68682}},{"facility":"B and B Hospital","status":"RECRUITING","city":"Lalitpur","zip":"44700","country":"Nepal","contacts":[{"name":"Rajib Rajbhandari, MD","role":"PRINCIPAL_INVESTIGATOR"}],"geoPoint":{"lat":27.67658,"lon":85.31417}},{"facility":"Jeroen Bosch Hospital","status":"RECRUITING","city":"'s-Hertogenbosch","zip":"5223","country":"Netherlands","contacts":[{"name":"Jacob Van Eck, MD","role":"PRINCIPAL_INVESTIGATOR"}],"geoPoint":{"lat":51.69917,"lon":5.30417}},{"facility":"Noordwest Ziekenhuisgroep","status":"RECRUITING","city":"Alkmaar","zip":"1815","country":"Netherlands","contacts":[{"name":"Stefan Timmer, MD","role":"PRINCIPAL_INVESTIGATOR"}],"geoPoint":{"lat":52.63167,"lon":4.74861}},{"facility":"ZiekenhuisGroepTwente (ZGT)","status":"RECRUITING","city":"Almelo","zip":"7609","country":"Netherlands","contacts":[{"name":"Lambertus Pos, MD","role":"PRINCIPAL_INVESTIGATOR"}],"geoPoint":{"lat":52.35667,"lon":6.6625}},{"facility":"Ziekenhuis Amstelland","status":"RECRUITING","city":"Amstelveen","zip":"1186","country":"Netherlands","contacts":[{"name":"Freerk Broeyer, MD","role":"PRINCIPAL_INVESTIGATOR"}],"geoPoint":{"lat":52.30083,"lon":4.86389}},{"facility":"Rijnstate Hospital","status":"RECRUITING","city":"Arnhem","zip":"6815","country":"Netherlands","contacts":[{"name":"Ron Pisters, MD","role":"PRINCIPAL_INVESTIGATOR"}],"geoPoint":{"lat":51.98,"lon":5.91111}},{"facility":"Deventer Ziekenhuis","status":"RECRUITING","city":"Deventer","zip":"7416","country":"Netherlands","contacts":[{"name":"Ype Tuininga, MD","role":"PRINCIPAL_INVESTIGATOR"}],"geoPoint":{"lat":52.255,"lon":6.16389}},{"facility":"Hospital Gelderse Vallei","status":"RECRUITING","city":"Ede","zip":"6716","country":"Netherlands","contacts":[{"name":"Thomas Oosterhof, MD","role":"PRINCIPAL_INVESTIGATOR"}],"geoPoint":{"lat":52.03333,"lon":5.65833}},{"facility":"Martini Hospital","status":"RECRUITING","city":"Groningen","zip":"9728","country":"Netherlands","contacts":[{"name":"Robert Tieleman, MD","role":"PRINCIPAL_INVESTIGATOR"}],"geoPoint":{"lat":53.21917,"lon":6.56667}},{"facility":"Franciscus Gasthuis","status":"RECRUITING","city":"Rotterdam","zip":"3045","country":"Netherlands","contacts":[{"name":"Peter Nierop, MD","role":"PRINCIPAL_INVESTIGATOR"}],"geoPoint":{"lat":51.9225,"lon":4.47917}},{"facility":"Ikazia Hospital","status":"RECRUITING","city":"Rotterdam","zip":"3083","country":"Netherlands","contacts":[{"name":"Stieneke Zoet-Nugteren, MD","role":"PRINCIPAL_INVESTIGATOR"}],"geoPoint":{"lat":51.9225,"lon":4.47917}},{"facility":"ETZ Tilburg","status":"RECRUITING","city":"Tilburg","zip":"5022","country":"Netherlands","contacts":[{"name":"Walter Hermans, MD","role":"PRINCIPAL_INVESTIGATOR"}],"geoPoint":{"lat":51.55551,"lon":5.0913}},{"facility":"Dunedin Public Hospital","status":"NOT_YET_RECRUITING","city":"Dunedin","zip":"9016","country":"New Zealand","contacts":[{"name":"James Pemberton, MD","role":"PRINCIPAL_INVESTIGATOR"}],"geoPoint":{"lat":-45.87416,"lon":170.50361}},{"facility":"Waikato Hospital","status":"NOT_YET_RECRUITING","city":"Hamilton","zip":"3204","country":"New Zealand","contacts":[{"name":"Martin Stiles, MD","role":"PRINCIPAL_INVESTIGATOR"}],"geoPoint":{"lat":-37.78333,"lon":175.28333}},{"facility":"Shifa International Hospital","status":"NOT_YET_RECRUITING","city":"Islamabad","country":"Pakistan","contacts":[{"name":"Saeed Ullah Shah, MD","role":"PRINCIPAL_INVESTIGATOR"}],"geoPoint":{"lat":33.72148,"lon":73.04329}},{"facility":"Dow Medical University","status":"NOT_YET_RECRUITING","city":"Karachi","country":"Pakistan","contacts":[{"name":"Muhammad Tariq Farman, MD","role":"PRINCIPAL_INVESTIGATOR"}],"geoPoint":{"lat":24.8608,"lon":67.0104}},{"facility":"Hospital de Mar","status":"NOT_YET_RECRUITING","city":"Barcelona","zip":"08003","country":"Spain","contacts":[{"name":"Sandra Beltran de Heredia Marrodan, MD","role":"PRINCIPAL_INVESTIGATOR"}],"geoPoint":{"lat":41.38879,"lon":2.15899}},{"facility":"Vall d'Hebron Hospital","status":"NOT_YET_RECRUITING","city":"Barcelona","zip":"08014","country":"Spain","contacts":[{"name":"Montserrat Ribas Ball, MD","role":"PRINCIPAL_INVESTIGATOR"}],"geoPoint":{"lat":41.38879,"lon":2.15899}},{"facility":"Hospital de la Santa Creu i Sant Pau","status":"RECRUITING","city":"Barcelona","zip":"08025","country":"Spain","contacts":[{"name":"Jose M Guerra, MD","role":"PRINCIPAL_INVESTIGATOR"}],"geoPoint":{"lat":41.38879,"lon":2.15899}},{"facility":"University Hospital Ramon y Cajal","status":"NOT_YET_RECRUITING","city":"Madrid","zip":"28034","country":"Spain","contacts":[{"name":"Jesus Alvarez Garcia, MD","role":"PRINCIPAL_INVESTIGATOR"}],"geoPoint":{"lat":40.4165,"lon":-3.70256}},{"facility":"Uppsala University","status":"NOT_YET_RECRUITING","city":"Uppsala","zip":"751 85","country":"Sweden","contacts":[{"name":"Claes Held, MD","role":"PRINCIPAL_INVESTIGATOR"},{"name":"Gorav Batra, MD","role":"PRINCIPAL_INVESTIGATOR"}],"geoPoint":{"lat":59.85882,"lon":17.63889}},{"facility":"Blackpool Teaching Hospital","status":"NOT_YET_RECRUITING","city":"Blackpool","state":"Lancashire","zip":"FY3 8NR","country":"United Kingdom","contacts":[{"name":"Alex Blackmore, MD","role":"PRINCIPAL_INVESTIGATOR"}],"geoPoint":{"lat":53.81667,"lon":-3.05}},{"facility":"Liverpool Heart and Chest Hospital","status":"NOT_YET_RECRUITING","city":"Liverpool","zip":"L14 3PE","country":"United Kingdom","contacts":[{"name":"Michael Shackcloth, MD","role":"PRINCIPAL_INVESTIGATOR"}],"geoPoint":{"lat":53.41058,"lon":-2.97794}}]},"ipdSharingStatementModule":{"ipdSharing":"NO"}},"derivedSection":{"miscInfoModule":{"versionHolder":"2024-02-14"},"conditionBrowseModule":{"meshes":[{"id":"D000020521","term":"Stroke"},{"id":"D000001281","term":"Atrial Fibrillation"}],"ancestors":[{"id":"D000002561","term":"Cerebrovascular Disorders"},{"id":"D000001927","term":"Brain Diseases"},{"id":"D000002493","term":"Central Nervous System Diseases"},{"id":"D000009422","term":"Nervous System Diseases"},{"id":"D000014652","term":"Vascular Diseases"},{"id":"D000002318","term":"Cardiovascular Diseases"},{"id":"D000001145","term":"Arrhythmias, Cardiac"},{"id":"D000006331","term":"Heart Diseases"},{"id":"D000010335","term":"Pathologic Processes"}],"browseLeaves":[{"id":"M21996","name":"Stroke","asFound":"Stroke","relevance":"HIGH"},{"id":"M4276","name":"Atrial Fibrillation","asFound":"Atrial Fibrillation","relevance":"HIGH"},{"id":"M5500","name":"Cerebrovascular Disorders","relevance":"LOW"},{"id":"M4894","name":"Brain Diseases","relevance":"LOW"},{"id":"M5432","name":"Central Nervous System Diseases","relevance":"LOW"},{"id":"M17090","name":"Vascular Diseases","relevance":"LOW"},{"id":"M4143","name":"Arrhythmias, Cardiac","relevance":"LOW"},{"id":"M9109","name":"Heart Diseases","relevance":"LOW"}],"browseBranches":[{"abbrev":"BC10","name":"Nervous System Diseases"},{"abbrev":"BC14","name":"Heart and Blood Diseases"},{"abbrev":"All","name":"All Conditions"},{"abbrev":"BC23","name":"Symptoms and General Pathology"}]},"interventionBrowseModule":{"meshes":[{"id":"D000069552","term":"Rivaroxaban"},{"id":"C000522181","term":"Apixaban"},{"id":"C000552171","term":"Edoxaban"},{"id":"D000069604","term":"Dabigatran"},{"id":"D000000925","term":"Anticoagulants"}],"ancestors":[{"id":"D000065427","term":"Factor Xa Inhibitors"},{"id":"D000000991","term":"Antithrombins"},{"id":"D000015842","term":"Serine Proteinase Inhibitors"},{"id":"D000011480","term":"Protease Inhibitors"},{"id":"D000004791","term":"Enzyme Inhibitors"},{"id":"D000045504","term":"Molecular Mechanisms of Pharmacological Action"}],"browseLeaves":[{"id":"M4238","name":"Aspirin","relevance":"LOW"},{"id":"M288142","name":"Apixaban","asFound":"Extraction","relevance":"HIGH"},{"id":"M3934","name":"Anticoagulants","asFound":"Domains","relevance":"HIGH"},{"id":"M463","name":"Rivaroxaban","asFound":"Weight loss","relevance":"HIGH"},{"id":"M13555","name":"Platelet Aggregation Inhibitors","relevance":"LOW"},{"id":"M260974","name":"Edoxaban","asFound":"Follow-up Study","relevance":"HIGH"},{"id":"M490","name":"Dabigatran","asFound":"4 hours","relevance":"HIGH"},{"id":"M30203","name":"Factor Xa Inhibitors","relevance":"LOW"},{"id":"M3997","name":"Antithrombins","relevance":"LOW"},{"id":"M3996","name":"Antithrombin III","relevance":"LOW"},{"id":"M14033","name":"Protease Inhibitors","relevance":"LOW"},{"id":"M18081","name":"Serine Proteinase Inhibitors","relevance":"LOW"},{"id":"M19299","name":"HIV Protease Inhibitors","relevance":"LOW"},{"id":"M7641","name":"Enzyme Inhibitors","relevance":"LOW"},{"id":"T18","name":"Serine","relevance":"LOW"}],"browseBranches":[{"abbrev":"Antipy","name":"Antipyretics"},{"abbrev":"Infl","name":"Anti-Inflammatory Agents"},{"abbrev":"ARhu","name":"Antirheumatic Agents"},{"abbrev":"FiAg","name":"Fibrinolytic Agents"},{"abbrev":"Analg","name":"Analgesics"},{"abbrev":"PlAggInh","name":"Platelet Aggregation Inhibitors"},{"abbrev":"All","name":"All Drugs and Chemicals"},{"abbrev":"AnCoag","name":"Anticoagulants"},{"abbrev":"Infe","name":"Anti-Infective Agents"},{"abbrev":"AA","name":"Amino Acids"}]}},"hasResults":false}