{"protocolSection":{"identificationModule":{"nctId":"NCT02832544","orgStudyIdInfo":{"id":"INVICTUS - VKA"},"organization":{"fullName":"Population Health Research Institute","class":"OTHER"},"briefTitle":"INVestIgation of rheumatiC AF Treatment Using Vitamin K Antagonists, Rivaroxaban or Aspirin Studies, Non-Inferiority","officialTitle":"INVestIgation of rheumatiC AF Treatment Using Vitamin K Antagonists, Rivaroxaban or Aspirin Studies","acronym":"INVICTUS-VKA"},"statusModule":{"statusVerifiedDate":"2022-07","overallStatus":"COMPLETED","expandedAccessInfo":{"hasExpandedAccess":false},"startDateStruct":{"date":"2016-08-22","type":"ACTUAL"},"primaryCompletionDateStruct":{"date":"2022-08-18","type":"ACTUAL"},"completionDateStruct":{"date":"2022-08-18","type":"ACTUAL"},"studyFirstSubmitDate":"2015-12-10","studyFirstSubmitQcDate":"2016-07-11","studyFirstPostDateStruct":{"date":"2016-07-14","type":"ESTIMATED"},"lastUpdateSubmitDate":"2022-10-03","lastUpdatePostDateStruct":{"date":"2022-10-05","type":"ACTUAL"}},"sponsorCollaboratorsModule":{"responsibleParty":{"type":"SPONSOR"},"leadSponsor":{"name":"Population Health Research Institute","class":"OTHER"},"collaborators":[{"name":"University of Cape Town","class":"OTHER"},{"name":"Bayer","class":"INDUSTRY"}]},"oversightModule":{"oversightHasDmc":true},"descriptionModule":{"briefSummary":"This program is a comprehensive evaluation of rheumatic valvular heart disease (RVHD), Atrial fibrillation (AF)/flutter and stroke.\n\nA prospective, randomized, parallel group, open-label clinical trial of rivaroxaban versus standard vitamin K antagonists (VKA) therapy to evaluate non-inferiority of rivaroxaban to VKA, with testing for superiority if non-inferiority is satisfied.","detailedDescription":"Non-Inferiority Trial of rivaroxaban versus VKAs: 4,500 patients\n\nInclusion Criteria:\n\n1. RVHD diagnosed by echocardiography at any time prior to enrollment\n2. Age ≥18\n3. Increased risk of stroke by any of the following\n\n   1. CHA2DS2-VASc score ≥ 2 OR\n   2. Moderate/Severe mitral stenosis with valve area ≤2.0 cm2 OR\n   3. Left atrial spontaneous echo contrast OR\n   4. Left atrial thrombus\n4. Heart Rhythm a) AF or Flutter should be documented on baseline 12-lead ECG, or on a previous 12-lead ECG, Holter monitor, in-hospital ECG rhythm strip or Pacemaker or ICD electrogram.\n\nTreatment:\n\nPatients will be randomized either to receive rivaroxaban or any approved VKA. Treatment will be open-label.\n\n1. Rivaroxaban Arm\n\n   * Rivaroxaban 20 mg once daily\n   * Rivaroxaban 15 mg once daily (for patients with an creatinine clearance ≥15 and \\<50 ml/min)\n2. VKA Arm\n\n   * Any VKA approved for use in the participating country\n   * VKA titrated to achieve an INR of 2.0-3.0"},"conditionsModule":{"conditions":["Rheumatic Heart Disease"],"keywords":["atrial fibrillation","stroke"]},"designModule":{"studyType":"INTERVENTIONAL","phases":["PHASE3"],"designInfo":{"allocation":"RANDOMIZED","interventionModel":"PARALLEL","primaryPurpose":"PREVENTION","maskingInfo":{"masking":"NONE"}},"enrollmentInfo":{"count":4565,"type":"ACTUAL"}},"armsInterventionsModule":{"armGroups":[{"label":"Rivaroxaban (20 mg)","type":"EXPERIMENTAL","description":"Rivaroxaban 20 mg od (n \\~ 2250); 15 mg od (once daily) in patients with creatinine clearance (CrCl) 15-49 ml/min","interventionNames":["Drug: Rivaroxaban (20 mg)"]},{"label":"Vitamin K antagonists (VKA)","type":"ACTIVE_COMPARATOR","description":"Any approved VKA in the participating country (n \\~ 2250); VKA titrated to achieve an INR of 2.0-3.0","interventionNames":["Drug: Vitamin K antagonists (VKA)"]}],"interventions":[{"type":"DRUG","name":"Rivaroxaban (20 mg)","description":"Rivaroxaban is non-inferior to VKAs for the prevention of stroke or systemic embolism in patients with AF/flutter and RVHD and potentially superior to VKAs.","armGroupLabels":["Rivaroxaban (20 mg)"],"otherNames":["Xarelto"]},{"type":"DRUG","name":"Vitamin K antagonists (VKA)","armGroupLabels":["Vitamin K antagonists (VKA)"],"otherNames":["Warfarin"]}]},"outcomesModule":{"primaryOutcomes":[{"measure":"Time from randomization to the first occurrence of vascular death or death of unknown cause, stroke, myocardial infarction or systemic embolism","description":"Vascular death or death of unknown cause, stroke, myocardial infarction or systemic embolism","timeFrame":"Approximately 4 years"}],"secondaryOutcomes":[{"measure":"Time from randomization to the first occurrence of composite of stroke or systemic embolism","description":"Composite of stroke or systemic embolism","timeFrame":"Approximately 4 years"}],"otherOutcomes":[{"measure":"Time from randomization to the first occurrence of a Major Bleed","description":"using the ISTH major bleeding definition","timeFrame":"Approximately 4 years"}]},"eligibilityModule":{"eligibilityCriteria":"Inclusion Criteria:\n\n1. RVHD diagnosed by echocardiography at any time prior to enrollment\n2. Age ≥18\n3. Increased risk of stroke by any of the following\n\n   * CHA2DS2-VASc score ≥ 2 OR\n   * Moderate/Severe mitral stenosis with valve area ≤2.0 cm2 OR\n   * Left atrial spontaneous echo contrast OR\n   * Left atrial thrombus\n4. Heart Rhythm \\*AF or Flutter should be documented on baseline 12-lead ECG, or on a previous 12-lead ECG, Holter monitor, in-hospital ECG rhythm strip or Pacemaker or ICD electrogram.\n\nExclusion Criteria:\n\n1. Refusal to give informed consent\n2. Actively involved in any study that would compromise the protocol of INVICTUS Trial\n3. Severe co-morbid condition with life expectancy \\< 1 year\n4. Other serious condition(s) or logistic factors likely to interfere with study participation or with the ability to complete the trial, as appropriate to country or region.\n5. Likely to have valve replacement surgery within 6 months\n6. Mechanical valve prosthesis or other condition requiring treatment with VKAs. Patients with deep vein thrombosis or recent pulmonary embolism can be enrolled where both VKAs and rivaroxaban are approved.\n7. Contraindication to the study medication of the trial\n\n   * Allergy to rivaroxaban\n   * Allergy to VKAs ( non-inferiority trial)\n   * Allergy to aspirin ( superiority trial)\n8. Severe renal insufficiency with an calculated creatinine clearance (Cockcroft-Gault) \\<15 ml/min\n9. Serious bleeding in the past six months or at high risk for bleeding\n10. Moderate to severe hepatic impairment\n11. Ongoing need for dual antiplatelet therapy (patients with on-going aspirin therapy ≤100 mg per day are not excluded)\n12. Ongoing need for dual strong inhibitors of CYP-3a4 or p-glycoprotein inhibitor.\n13. Received an investigational drug in the past 30 days\n14. Patients considered unsuitable for trial inclusion because of unwillingness to attend follow up visits\n15. Women who are pregnant and/or breastfeeding\n16. Women of child bearing age who do not use an effective form of birth control.","healthyVolunteers":false,"sex":"ALL","minimumAge":"18 Years","stdAges":["ADULT","OLDER_ADULT"]},"contactsLocationsModule":{"overallOfficials":[{"name":"Stuart Connolly, MD","affiliation":"Population Health Research Institute","role":"PRINCIPAL_INVESTIGATOR"}],"locations":[{"facility":"Princess Marina Hospital","city":"Gaborone","country":"Botswana","geoPoint":{"lat":-24.65451,"lon":25.90859}},{"facility":"Cardresearch - Cardiologia Assistencial e de Pesquisa","city":"Belo Horizonte","state":"Minas Gerais","zip":"30150-240","country":"Brazil","geoPoint":{"lat":-19.92083,"lon":-43.93778}},{"facility":"Nucleo de Estudios Clinicos - Universidade Federal do Triângulo Mineiro","city":"Uberaba","state":"Minas Gerais","country":"Brazil","geoPoint":{"lat":-19.74833,"lon":-47.93194}},{"facility":"Eurolatino Pesquisas Médicas Ltda","city":"Uberlândia","state":"Minas Gerais","zip":"38411-186","country":"Brazil","geoPoint":{"lat":-18.91861,"lon":-48.27722}},{"facility":"Clínica Procardio Ltda.","city":"Blumenau","state":"Santa Catarina","zip":"89010-500","country":"Brazil","geoPoint":{"lat":-26.91944,"lon":-49.06611}},{"facility":"Instituto de Pesquisa Clínica de Campinas","city":"Campinas","zip":"13060-080","country":"Brazil","geoPoint":{"lat":-22.90556,"lon":-47.06083}},{"facility":"LOEMA - Instituto de Pesquisa Clínica & Consultores Ltda","city":"Campinas","zip":"São Paulo","country":"Brazil","geoPoint":{"lat":-22.90556,"lon":-47.06083}},{"facility":"Via Médica Centro Clínico Barroso e Sebba Ltda","city":"Goiania","zip":"74223130","country":"Brazil","geoPoint":{"lat":-16.67861,"lon":-49.25389}},{"facility":"Instituto de Cardiologia do Rio Grande do Sul","city":"Porto Alegre","zip":"90620001","country":"Brazil","geoPoint":{"lat":-30.03306,"lon":-51.23}},{"facility":"Fundação Faculdade de Medicina de São José do Rio Preto","city":"São José do Rio Preto","zip":"1509000","country":"Brazil","geoPoint":{"lat":-20.81972,"lon":-49.37944}},{"facility":"Instituto do Coração - HCFMUSP","city":"São Paulo","zip":"05403-000","country":"Brazil","geoPoint":{"lat":-23.5475,"lon":-46.63611}},{"facility":"Instituto Dante Pazzanese de Cardiologia","city":"São Paulo","zip":"4012909","country":"Brazil","geoPoint":{"lat":-23.5475,"lon":-46.63611}},{"facility":"Santa Casa de Misericórdia de Votuporanga","city":"Votuporanga","zip":"15500-003","country":"Brazil","geoPoint":{"lat":-20.42278,"lon":-49.97278}},{"facility":"Clinique Coeur Et Vie","city":"Douala","zip":"7562","country":"Cameroon","geoPoint":{"lat":4.04827,"lon":9.70428}},{"facility":"Douala General Hospital","city":"Douala","country":"Cameroon","geoPoint":{"lat":4.04827,"lon":9.70428}},{"facility":"St. Elizabeth Catholic General Hospital, Cardiac Centre","city":"Kumbo","country":"Cameroon","geoPoint":{"lat":6.2,"lon":10.66667}},{"facility":"Hopital Central Yaounde","city":"Yaounde","country":"Cameroon","geoPoint":{"lat":3.86667,"lon":11.51667}},{"facility":"Liangxiang Hospital","city":"Beijing","state":"Beijing","zip":"102401","country":"China","geoPoint":{"lat":39.9075,"lon":116.39723}},{"facility":"The First Affiliated Hospital/School of Clinical Medicine of Guangdong Pharmaceutical University","city":"Guangzhou","state":"Guangdong","zip":"510062","country":"China","geoPoint":{"lat":23.11667,"lon":113.25}},{"facility":"Jixi People's Hospital","city":"Jixi","state":"Heilongjiang","zip":"158100","country":"China","geoPoint":{"lat":45.30109,"lon":130.95718}},{"facility":"Tieli People's Hospital","city":"Yichun","state":"Heilongjiang","zip":"152500","country":"China","geoPoint":{"lat":47.72143,"lon":128.87529}},{"facility":"Luoyang Central's Hospital Affiliated to Zhengzhou University","city":"Luoyang","state":"Henan","zip":"471009","country":"China","geoPoint":{"lat":34.68361,"lon":112.45361}},{"facility":"Dancheng County People's Hospital","city":"Zhoukou","state":"Henan","zip":"477150","country":"China","geoPoint":{"lat":33.63333,"lon":114.63333}},{"facility":"Suiping Renan Hospital","city":"Zhumadian","state":"Henan","zip":"463100","country":"China","geoPoint":{"lat":32.97944,"lon":114.02944}},{"facility":"Jianshi County People's Hospital","city":"Enshi","state":"Hubei","zip":"445308","country":"China","geoPoint":{"lat":30.3,"lon":109.48333}},{"facility":"Suqian Peaple's Hospital of Nanjing Drum-Tower Hospital Group","city":"Suqian","state":"Jiangsu","zip":"223800","country":"China"},{"facility":"Tonghua Central Hospital","city":"Tonghua","state":"Jilin","zip":"134001","country":"China","geoPoint":{"lat":41.71972,"lon":125.92639}},{"facility":"Affiliated Zhongshan Hospital of Dalian University","city":"Dalian","state":"Liaoning","zip":"116001","country":"China","geoPoint":{"lat":38.91222,"lon":121.60222}},{"facility":"The First Affiliated Hospital of Dalian Medical University","city":"Dalian","state":"Liaoning","zip":"116011","country":"China","geoPoint":{"lat":38.91222,"lon":121.60222}},{"facility":"Ningxia Peple's Hospital","city":"Yinchuan","state":"Ningxia","zip":"750021","country":"China","geoPoint":{"lat":38.46806,"lon":106.27306}},{"facility":"Pi County People's Hospital","city":"Chengdu","state":"Sichuan","zip":"611730","country":"China","geoPoint":{"lat":30.66667,"lon":104.06667}},{"facility":"Anyue County People's Hospital","city":"Ziyang","state":"Sichuan","zip":"642350","country":"China"},{"facility":"Wendeng Central Hospital","city":"Weihai","state":"Wendeng","country":"China","geoPoint":{"lat":37.50914,"lon":122.11356}},{"facility":"Ninghai People's Hospital","city":"Ningbo","state":"Zhejiang","zip":"315600","country":"China","geoPoint":{"lat":29.87819,"lon":121.54945}},{"facility":"Beijing Anzhen Hospital","city":"Beijing","zip":"100029","country":"China","geoPoint":{"lat":39.9075,"lon":116.39723}},{"facility":"Zhongmou County People's Hospital","city":"Henan","zip":"450000","country":"China"},{"facility":"Zhengzhou No.7 People's Hospital","city":"Henan","zip":"450016","country":"China"},{"facility":"Zhengzhou 9th People's Hospital","city":"Henan","zip":"450053","country":"China"},{"facility":"Guangshan County People's Hospital","city":"Henan","country":"China"},{"facility":"Alexandria University Hospital","city":"Alexandria","zip":"21561","country":"Egypt","geoPoint":{"lat":31.21564,"lon":29.95527}},{"facility":"Assuit General Hospital","city":"Assuit","country":"Egypt","geoPoint":{"lat":27.18096,"lon":31.18368}},{"facility":"Benha University Cardiology Department","city":"Banha","country":"Egypt","geoPoint":{"lat":30.45906,"lon":31.17858}},{"facility":"Beni Suef University Hospital","city":"Banī Suwayf","country":"Egypt","geoPoint":{"lat":29.07441,"lon":31.09785}},{"facility":"Ain Shams University Hospital","city":"Cairo","zip":"11566","country":"Egypt","geoPoint":{"lat":30.06263,"lon":31.24967}},{"facility":"Kasr El Einy Hospital (Cairo University)","city":"Cairo","zip":"21561","country":"Egypt","geoPoint":{"lat":30.06263,"lon":31.24967}},{"facility":"Mehallah Rheumatic Heart Center","city":"El Mansura","zip":"31951","country":"Egypt","geoPoint":{"lat":31.03637,"lon":31.38069}},{"facility":"Specialized Medical Hospital - Mansoura","city":"El Mansura","zip":"35516","country":"Egypt","geoPoint":{"lat":31.03637,"lon":31.38069}},{"facility":"Fayoum General Hospital","city":"Fayoum","zip":"31951","country":"Egypt","geoPoint":{"lat":29.30995,"lon":30.8418}},{"facility":"Suez Canal University Hospital","city":"Ismailia","zip":"41522","country":"Egypt","geoPoint":{"lat":30.60427,"lon":32.27225}},{"facility":"El Minia University Hospital","city":"Minya","zip":"61519","country":"Egypt","geoPoint":{"lat":28.10988,"lon":30.7503}},{"facility":"Sohag University, Sohag","city":"Sohag","zip":"35516","country":"Egypt","geoPoint":{"lat":26.55695,"lon":31.69478}},{"facility":"Red Crescent Hospital","city":"Tanta","zip":"31951","country":"Egypt","geoPoint":{"lat":30.78847,"lon":31.00192}},{"facility":"Zagazig University Hospital","city":"Zagazig","zip":"44519","country":"Egypt","geoPoint":{"lat":30.58768,"lon":31.502}},{"facility":"Hawassa University Referral Hospital","city":"Hawassa","state":"Snnpr","country":"Ethiopia","geoPoint":{"lat":7.06205,"lon":38.47635}},{"facility":"College of Health Sciences, Addis Ababa University, Black Lion Hospital","city":"Addis Ababa","zip":"1176","country":"Ethiopia","geoPoint":{"lat":9.02497,"lon":38.74689}},{"facility":"Jimma University Hospital","city":"Jimma","country":"Ethiopia","geoPoint":{"lat":7.67344,"lon":36.83441}},{"facility":"Mekelle University","city":"Mek'ele","zip":"1871","country":"Ethiopia","geoPoint":{"lat":13.49667,"lon":39.47528}},{"facility":"Dr. Ram Manohar Lohia Hospital @ PGIMER","city":"New Delhi","state":"Delhi","zip":"110001","country":"India","geoPoint":{"lat":28.63576,"lon":77.22445}},{"facility":"Govind Ballabh Pant Hospital (GIPMER)","city":"New Delhi","state":"Delhi","zip":"110002","country":"India","geoPoint":{"lat":28.63576,"lon":77.22445}},{"facility":"All India Institute of Medical Sciences","city":"New Delhi","state":"Delhi","zip":"110029","country":"India","geoPoint":{"lat":28.63576,"lon":77.22445}},{"facility":"Sri Jayadev Institute of Cardiovascular Sciences and Research","city":"Bangalore","state":"Karnataka","zip":"560069","country":"India","geoPoint":{"lat":12.97194,"lon":77.59369}},{"facility":"SMS Medical College","city":"Jaipur","state":"Rajasthan","zip":"302004","country":"India","geoPoint":{"lat":26.91962,"lon":75.78781}},{"facility":"King George's Medical College","city":"Lucknow","state":"Uttar Pradesh","zip":"226003","country":"India","geoPoint":{"lat":26.83928,"lon":80.92313}},{"facility":"Sanjay Gandhi Post Graduate Institute of Medical Sciences","city":"Lucknow","state":"Uttar Pradesh","zip":"226014","country":"India","geoPoint":{"lat":26.83928,"lon":80.92313}},{"facility":"Kazakh National Medical Institute,","city":"Almaty","country":"Kazakhstan","geoPoint":{"lat":43.25667,"lon":76.92861}},{"facility":"Moi Teaching and Referral Hospital","city":"Eldoret","zip":"30100","country":"Kenya","geoPoint":{"lat":0.52036,"lon":35.26993}},{"facility":"Karen Hospital","city":"Nairobi","zip":"00200","country":"Kenya","geoPoint":{"lat":-1.28333,"lon":36.81667}},{"facility":"Kenyatta National Hospital / University Of Nairobi","city":"Nairobi","country":"Kenya","geoPoint":{"lat":-1.28333,"lon":36.81667}},{"facility":"Clinical Hospital of administrative department of President and Government of Kyrgyz Republic","city":"Bishkek","zip":"720001","country":"Kyrgyzstan","geoPoint":{"lat":42.87,"lon":74.59}},{"facility":"Queen Elizabeth Central Hospital","city":"Blantyre","zip":"265","country":"Malawi","geoPoint":{"lat":-15.78499,"lon":35.00854}},{"facility":"Kumuzu Central Hospital","city":"Lilongwe","zip":"265","country":"Malawi","geoPoint":{"lat":-13.96692,"lon":33.78725}},{"facility":"Mzuzu Central Hospital","city":"Mzuzu","zip":"265","country":"Malawi","geoPoint":{"lat":-11.46556,"lon":34.02071}},{"facility":"Hospital Angeles León","city":"León","state":"Guanajuato","zip":"37150","country":"Mexico","geoPoint":{"lat":21.12908,"lon":-101.67374}},{"facility":"Hospital Bernardette","city":"Guadalajara","state":"Jalisco","zip":"44200","country":"Mexico","geoPoint":{"lat":20.66682,"lon":-103.39182}},{"facility":"Centro de Estudios Clínicos de Querétaro S.C.","city":"Queretaro","state":"Querétaro","zip":"76000","country":"Mexico"},{"facility":"Centro para el Desarrollo de la Medicina y Asistencia Especializada S.C.","city":"Culiacan","state":"Sinaloa","zip":"80230","country":"Mexico","geoPoint":{"lat":24.79032,"lon":-107.38782}},{"facility":"Instituto de Investigación del Hospital Cardiológica Aguascalientes","city":"Aguascalientes","zip":"20230","country":"Mexico","geoPoint":{"lat":21.88234,"lon":-102.28259}},{"facility":"Hospital General Dr. Jorge Soberon Acevedo.Secretaria de Salud del Estado de Guerrero","city":"Guerrero","zip":"40000","country":"Mexico"},{"facility":"Instituto Nacional de Cardiología Ignacio Chavez","city":"México","zip":"14080","country":"Mexico","geoPoint":{"lat":19.42847,"lon":-99.12766}},{"facility":"Maputo Central Hospital","city":"Maputo","zip":"1111","country":"Mozambique","geoPoint":{"lat":-25.96553,"lon":32.58322}},{"facility":"Instituto Nacional de Saude & Universidade Eduardo Mondlane","city":"Maputo","zip":"CP 264","country":"Mozambique","geoPoint":{"lat":-25.96553,"lon":32.58322}},{"facility":"College of Medical Sciences","city":"Bharatpur","zip":"44207","country":"Nepal","geoPoint":{"lat":27.68333,"lon":84.43333}},{"facility":"Chitwan Medical College","city":"Bharatpur","country":"Nepal","geoPoint":{"lat":27.68333,"lon":84.43333}},{"facility":"Nobel medical college and teaching hospital pvt ltd","city":"Biratnagar","zip":"56613","country":"Nepal","geoPoint":{"lat":26.45505,"lon":87.27007}},{"facility":"Gautam Buddha Community Heart Hospital","city":"Butwal","zip":"32907","country":"Nepal","geoPoint":{"lat":27.70055,"lon":83.44836}},{"facility":"BP Koirala Institute of Health Sciences","city":"Dharān Bāzār","zip":"56700","country":"Nepal","geoPoint":{"lat":26.81248,"lon":87.28355}},{"facility":"Manmohan Cardiothoracic Vascular and Trasplant Center, IOM, TU","city":"Kathmandu","zip":"44600","country":"Nepal","geoPoint":{"lat":27.70169,"lon":85.3206}},{"facility":"Sahid Gangalal Heart Center","city":"Kathmandu","zip":"44600","country":"Nepal","geoPoint":{"lat":27.70169,"lon":85.3206}},{"facility":"Bheri Zonal Hospital","city":"Nepalgunj","zip":"21900","country":"Nepal","geoPoint":{"lat":28.05,"lon":81.61667}},{"facility":"Manipal College of Medical Sciences","city":"Pokhara","zip":"33700","country":"Nepal","geoPoint":{"lat":28.26689,"lon":83.96851}},{"facility":"Federal Medical Center","city":"Abeokuta","country":"Nigeria","geoPoint":{"lat":7.15571,"lon":3.34509}},{"facility":"University of Nigeria Teaching Hospital","city":"Enugu","zip":"400201","country":"Nigeria","geoPoint":{"lat":6.44132,"lon":7.49883}},{"facility":"College of Medicine, University of Ibadan","city":"Ibadan","zip":"200212","country":"Nigeria","geoPoint":{"lat":7.37756,"lon":3.90591}},{"facility":"Jos University Teaching Hospital","city":"Jos","zip":"930001","country":"Nigeria","geoPoint":{"lat":9.92849,"lon":8.89212}},{"facility":"Ahmadu Bello University Teaching Hospital","city":"Kaduna","zip":"810001","country":"Nigeria","geoPoint":{"lat":10.52641,"lon":7.43879}},{"facility":"Aminu Kano University Teaching Hospital","city":"Kano","zip":"700223","country":"Nigeria","geoPoint":{"lat":12.00012,"lon":8.51672}},{"facility":"Department of Medicine, Lagos University Teaching Hospital","city":"Lagos","zip":"12003","country":"Nigeria","geoPoint":{"lat":6.45407,"lon":3.39467}},{"facility":"Ladoke Akintola University of Technology Teaching Hospital","city":"Ogbomoso","zip":"4007","country":"Nigeria","geoPoint":{"lat":8.13373,"lon":4.24014}},{"facility":"Department of Medicine, Delta State University Teaching Hospital","city":"Oghara","country":"Nigeria"},{"facility":"Punjab Institute of Cardiology","city":"Lahore","state":"Punjab","zip":"54000","country":"Pakistan","geoPoint":{"lat":31.558,"lon":74.35071}},{"facility":"Isra University Hospital","city":"Hyderabad","zip":"31300","country":"Pakistan","geoPoint":{"lat":25.39242,"lon":68.37366}},{"facility":"Nishtar Hospital Multan","city":"Multan","zip":"60000","country":"Pakistan","geoPoint":{"lat":30.19679,"lon":71.47824}},{"facility":"Lady Reading Hospital","city":"Peshawar","zip":"PK 2500","country":"Pakistan","geoPoint":{"lat":34.008,"lon":71.57849}},{"facility":"Rawalpindi Institute of Cardiology","city":"Rawalpindi","zip":"46000","country":"Pakistan","geoPoint":{"lat":33.6007,"lon":73.0679}},{"facility":"Instituto Nacional de Cardiología","city":"Asunción","zip":"1725","country":"Paraguay","geoPoint":{"lat":-25.30066,"lon":-57.63591}},{"facility":"Hospital Barrio Obrero","city":"Asunción","zip":"2279","country":"Paraguay","geoPoint":{"lat":-25.30066,"lon":-57.63591}},{"facility":"Hospital Regional de Ciudad Del Este","city":"Ciudad del Este","zip":"7000","country":"Paraguay","geoPoint":{"lat":-25.50972,"lon":-54.61111}},{"facility":"Hospital Nacional Itaugua","city":"Itaugua","zip":"2740","country":"Paraguay","geoPoint":{"lat":-25.39257,"lon":-57.35418}},{"facility":"Clinical Hospital","city":"San Lorenzo","zip":"1863","country":"Paraguay","geoPoint":{"lat":-25.33968,"lon":-57.50879}},{"facility":"Palawan Medical City","city":"Puerto Princesa City","state":"Palawan","zip":"5300","country":"Philippines","geoPoint":{"lat":9.73917,"lon":118.73528}},{"facility":"Philippine General Hospital","city":"Manila","zip":"1000","country":"Philippines","geoPoint":{"lat":14.6042,"lon":120.9822}},{"facility":"Philippine Heart Center","city":"Quezon City","zip":"1100","country":"Philippines","geoPoint":{"lat":14.6488,"lon":121.0509}},{"facility":"Quirino Memorial Medical Center","city":"Quezon City","zip":"1109","country":"Philippines","geoPoint":{"lat":14.6488,"lon":121.0509}},{"facility":"University of Rwanda, Kigali University Teaching Hospital","city":"Kigali","country":"Rwanda","geoPoint":{"lat":-1.94995,"lon":30.05885}},{"facility":"Nelson Mandela Academic Hospital","city":"Mthatha","state":"Eastern Cape","zip":"5099","country":"South Africa","geoPoint":{"lat":-31.58893,"lon":28.78443}},{"facility":"Charlotte Maxeke Academic Hospital","city":"Johannesburg","state":"Parktown","zip":"2193","country":"South Africa","geoPoint":{"lat":-26.20227,"lon":28.04363}},{"facility":"Sefako Makgatho Health Sciences University","city":"Ga-Rankuwa,","state":"Pretoria","zip":"0204","country":"South Africa","geoPoint":{"lat":-25.61692,"lon":27.99471}},{"facility":"Cardiology Research Universitas private hospital","city":"Bloemfontein","zip":"9301","country":"South Africa","geoPoint":{"lat":-29.12107,"lon":26.214}},{"facility":"University of Cape Town","city":"Cape Town","zip":"7925","country":"South Africa","geoPoint":{"lat":-33.92584,"lon":18.42322}},{"facility":"University of Limpopo","city":"Polokwane","zip":"700","country":"South Africa","geoPoint":{"lat":-23.90449,"lon":29.46885}},{"facility":"Port Elizabeth Hospital Complex","city":"Port Elizabeth","zip":"6001","country":"South Africa","geoPoint":{"lat":-33.91799,"lon":25.57007}},{"facility":"Chris Hani Baragwanath Hospital","city":"Soweto","zip":"2013","country":"South Africa","geoPoint":{"lat":-26.26781,"lon":27.85849}},{"facility":"Atbara Teaching Hospital","city":"Atbara","country":"Sudan","geoPoint":{"lat":17.70217,"lon":33.98638}},{"facility":"Alobeid Teaching Hospital","city":"El Obeid","country":"Sudan","geoPoint":{"lat":13.18421,"lon":30.21669}},{"facility":"Ahmed Gasim Hospital","city":"Khartoum","zip":"1111","country":"Sudan","geoPoint":{"lat":15.55177,"lon":32.53241}},{"facility":"Alshaab Teaching Hospital","city":"Khartoum","zip":"1111","country":"Sudan","geoPoint":{"lat":15.55177,"lon":32.53241}},{"facility":"Ahmed Gasim Pediatric Hospital","city":"Khartoum","country":"Sudan","geoPoint":{"lat":15.55177,"lon":32.53241}},{"facility":"Sudan Heart Center","city":"Khartoum","country":"Sudan","geoPoint":{"lat":15.55177,"lon":32.53241}},{"facility":"Digna Prince Hospital","city":"Port Sudan","country":"Sudan","geoPoint":{"lat":19.61745,"lon":37.21644}},{"facility":"Medani Heart Centre","city":"Wad Medani","country":"Sudan","geoPoint":{"lat":14.40118,"lon":33.51989}},{"facility":"Muhimbili University of Health and Allied Sciences","city":"Dar es Salaam","country":"Tanzania","geoPoint":{"lat":-6.82349,"lon":39.26951}},{"facility":"Mbeya Zonal Referral Hospital","city":"Mbeya","zip":"419","country":"Tanzania","geoPoint":{"lat":-8.9,"lon":33.45}},{"facility":"Uganda Heart Institute","city":"Kampala","country":"Uganda","geoPoint":{"lat":0.31628,"lon":32.58219}},{"facility":"Livingstone Central Hospital","city":"Livingstone","zip":"10101","country":"Zambia","geoPoint":{"lat":-17.84194,"lon":25.85425}},{"facility":"University Teaching Hospital (UTH)","city":"Lusaka","country":"Zambia","geoPoint":{"lat":-15.40669,"lon":28.28713}},{"facility":"Ndola Central Hospital","city":"Ndola","zip":"10101","country":"Zambia","geoPoint":{"lat":-12.95867,"lon":28.63659}},{"facility":"Mpilo Hospital, National University Science & Technology","city":"Bulawayo","country":"Zimbabwe","geoPoint":{"lat":-20.15,"lon":28.58333}},{"facility":"Harare Hospital","city":"Harare","country":"Zimbabwe","geoPoint":{"lat":-17.82772,"lon":31.05337}},{"facility":"Parirenyatwa Hospital","city":"Harare","country":"Zimbabwe","geoPoint":{"lat":-17.82772,"lon":31.05337}}]},"referencesModule":{"references":[{"pmid":"36036525","type":"DERIVED","citation":"Connolly SJ, Karthikeyan G, Ntsekhe M, Haileamlak A, El Sayed A, El Ghamrawy A, Damasceno A, Avezum A, Dans AML, Gitura B, Hu D, Kamanzi ER, Maklady F, Fana G, Gonzalez-Hermosillo JA, Musuku J, Kazmi K, Zuhlke L, Gondwe L, Ma C, Paniagua M, Ogah OS, Molefe-Baikai OJ, Lwabi P, Chillo P, Sharma SK, Cabral TTJ, Tarhuni WM, Benz A, van Eikels M, Krol A, Pattath D, Balasubramanian K, Rangarajan S, Ramasundarahettige C, Mayosi B, Yusuf S; INVICTUS Investigators. Rivaroxaban in Rheumatic Heart Disease-Associated Atrial Fibrillation. N Engl J Med. 2022 Sep 15;387(11):978-988. doi: 10.1056/NEJMoa2209051. Epub 2022 Aug 28."},{"pmid":"33136507","type":"DERIVED","citation":"Karthikeyan G, Connolly SJ, Yusuf S. Overestimation of Stroke Risk in Rheumatic Mitral Stenosis and the Implications for Oral Anticoagulation. Circulation. 2020 Nov 3;142(18):1697-1699. doi: 10.1161/CIRCULATIONAHA.120.050347. Epub 2020 Nov 2. No abstract available. Erratum In: Circulation. 2023 Feb 21;147(8):e623."},{"pmid":"32474206","type":"DERIVED","citation":"Karthikeyan G, Connolly SJ, Ntsekhe M, Benz A, Rangarajan S, Lewis G, Yun Y, Sharma SK, Maklady F, Elghamrawy AE, Kazmi K, Cabral TTJ, Dayi H, Changsheng M, Gitura BM, Avezum A, Zuhlke L, Lwabi P, Haileamlak A, Ogah O, Chillo P, Paniagua M, ElSayed A, Dans A, Gondwe-Chunda L, Molefe-Baikai OJ, Gonzalez-Hermosillo JA, Hakim J, Damasceno A, Kamanzi ER, Musuku J, Davletov K, Connolly K, Mayosi BM, Yusuf S; INVICTUS Investigators. The INVICTUS rheumatic heart disease research program: Rationale, design and baseline characteristics of a randomized trial of rivaroxaban compared to vitamin K antagonists in rheumatic valvular disease and atrial fibrillation. Am Heart J. 2020 Jul;225:69-77. doi: 10.1016/j.ahj.2020.03.018. Epub 2020 Mar 25."}]},"ipdSharingStatementModule":{"ipdSharing":"NO","description":"cumulative participant data only"}},"derivedSection":{"miscInfoModule":{"versionHolder":"2024-02-14"},"conditionBrowseModule":{"meshes":[{"id":"D000012214","term":"Rheumatic Heart Disease"},{"id":"D000012216","term":"Rheumatic Diseases"},{"id":"D000006331","term":"Heart Diseases"}],"ancestors":[{"id":"D000002318","term":"Cardiovascular Diseases"},{"id":"D000009140","term":"Musculoskeletal Diseases"},{"id":"D000003240","term":"Connective Tissue Diseases"},{"id":"D000012213","term":"Rheumatic Fever"},{"id":"D000013290","term":"Streptococcal Infections"},{"id":"D000016908","term":"Gram-Positive Bacterial Infections"},{"id":"D000001424","term":"Bacterial Infections"},{"id":"D000001423","term":"Bacterial Infections and Mycoses"},{"id":"D000007239","term":"Infections"}],"browseLeaves":[{"id":"M21996","name":"Stroke","relevance":"LOW"},{"id":"M4276","name":"Atrial Fibrillation","relevance":"LOW"},{"id":"M9109","name":"Heart Diseases","asFound":"Heart Disease","relevance":"HIGH"},{"id":"M14735","name":"Rheumatic Diseases","asFound":"Rheumatic","relevance":"HIGH"},{"id":"M14733","name":"Rheumatic Heart Disease","asFound":"Rheumatic Heart Disease","relevance":"HIGH"},{"id":"M6013","name":"Collagen Diseases","relevance":"LOW"},{"id":"M11787","name":"Musculoskeletal Diseases","relevance":"LOW"},{"id":"M6154","name":"Connective Tissue Diseases","relevance":"LOW"},{"id":"M14732","name":"Rheumatic Fever","relevance":"LOW"},{"id":"M8154","name":"Fever","relevance":"LOW"},{"id":"M2455","name":"Hyperthermia","relevance":"LOW"},{"id":"M9973","name":"Infections","relevance":"LOW"},{"id":"M6058","name":"Communicable Diseases","relevance":"LOW"},{"id":"M15770","name":"Streptococcal Infections","relevance":"LOW"},{"id":"M4412","name":"Bacterial Infections","relevance":"LOW"},{"id":"M18942","name":"Gram-Positive Bacterial Infections","relevance":"LOW"},{"id":"M11826","name":"Mycoses","relevance":"LOW"},{"id":"M4411","name":"Bacterial Infections and Mycoses","relevance":"LOW"},{"id":"T4999","name":"Rheumatic Fever","relevance":"LOW"},{"id":"T163","name":"Acute Articular Rheumatism","relevance":"LOW"}],"browseBranches":[{"abbrev":"BC10","name":"Nervous System Diseases"},{"abbrev":"BC14","name":"Heart and Blood Diseases"},{"abbrev":"All","name":"All Conditions"},{"abbrev":"BC23","name":"Symptoms and General Pathology"},{"abbrev":"BC05","name":"Musculoskeletal Diseases"},{"abbrev":"BC17","name":"Skin and Connective Tissue Diseases"},{"abbrev":"BC01","name":"Infections"},{"abbrev":"BC26","name":"Wounds and Injuries"},{"abbrev":"Rare","name":"Rare Diseases"}]},"interventionBrowseModule":{"meshes":[{"id":"D000014812","term":"Vitamin K"},{"id":"D000014859","term":"Warfarin"},{"id":"D000069552","term":"Rivaroxaban"}],"ancestors":[{"id":"D000014815","term":"Vitamins"},{"id":"D000018977","term":"Micronutrients"},{"id":"D000045505","term":"Physiological Effects of Drugs"},{"id":"D000000925","term":"Anticoagulants"},{"id":"D000065427","term":"Factor Xa Inhibitors"},{"id":"D000000991","term":"Antithrombins"},{"id":"D000015842","term":"Serine Proteinase Inhibitors"},{"id":"D000011480","term":"Protease Inhibitors"},{"id":"D000004791","term":"Enzyme Inhibitors"},{"id":"D000045504","term":"Molecular Mechanisms of Pharmacological Action"},{"id":"D000000933","term":"Antifibrinolytic Agents"},{"id":"D000050299","term":"Fibrin Modulating Agents"},{"id":"D000006490","term":"Hemostatics"},{"id":"D000003029","term":"Coagulants"}],"browseLeaves":[{"id":"M4238","name":"Aspirin","relevance":"LOW"},{"id":"M17245","name":"Vitamin K","asFound":"Black","relevance":"HIGH"},{"id":"M17248","name":"Vitamins","relevance":"LOW"},{"id":"M463","name":"Rivaroxaban","asFound":"Weight loss","relevance":"HIGH"},{"id":"M17292","name":"Warfarin","asFound":"Third","relevance":"HIGH"},{"id":"M20699","name":"Micronutrients","relevance":"LOW"},{"id":"M16575","name":"Trace Elements","relevance":"LOW"},{"id":"M3934","name":"Anticoagulants","relevance":"LOW"},{"id":"M30203","name":"Factor Xa Inhibitors","relevance":"LOW"},{"id":"M3997","name":"Antithrombins","relevance":"LOW"},{"id":"M3996","name":"Antithrombin III","relevance":"LOW"},{"id":"M14033","name":"Protease Inhibitors","relevance":"LOW"},{"id":"M18081","name":"Serine Proteinase Inhibitors","relevance":"LOW"},{"id":"M19299","name":"HIV Protease Inhibitors","relevance":"LOW"},{"id":"M7641","name":"Enzyme Inhibitors","relevance":"LOW"},{"id":"M3942","name":"Antifibrinolytic Agents","relevance":"LOW"},{"id":"M9266","name":"Hemostatics","relevance":"LOW"},{"id":"M5949","name":"Coagulants","relevance":"LOW"},{"id":"T481","name":"Vitamin K","asFound":"Black","relevance":"HIGH"},{"id":"T450","name":"Menaquinone","relevance":"LOW"},{"id":"T449","name":"Menadione","relevance":"LOW"},{"id":"T452","name":"Naphthoquinone","relevance":"LOW"},{"id":"T458","name":"Phylloquinone","relevance":"LOW"},{"id":"T18","name":"Serine","relevance":"LOW"}],"browseBranches":[{"abbrev":"Antipy","name":"Antipyretics"},{"abbrev":"Infl","name":"Anti-Inflammatory Agents"},{"abbrev":"ARhu","name":"Antirheumatic Agents"},{"abbrev":"FiAg","name":"Fibrinolytic Agents"},{"abbrev":"Analg","name":"Analgesics"},{"abbrev":"PlAggInh","name":"Platelet Aggregation Inhibitors"},{"abbrev":"All","name":"All Drugs and Chemicals"},{"abbrev":"Micro","name":"Micronutrients"},{"abbrev":"Coag","name":"Coagulants"},{"abbrev":"AnCoag","name":"Anticoagulants"},{"abbrev":"Infe","name":"Anti-Infective Agents"},{"abbrev":"Vi","name":"Vitamins"},{"abbrev":"AA","name":"Amino Acids"}]}},"hasResults":false}