{"protocolSection":{"identificationModule":{"nctId":"NCT00262600","orgStudyIdInfo":{"id":"1160.26"},"secondaryIdInfos":[{"id":"2005-003894-26","type":"EUDRACT_NUMBER","domain":"EudraCT"}],"organization":{"fullName":"Boehringer Ingelheim","class":"INDUSTRY"},"briefTitle":"Randomized Evaluation of Long Term Anticoagulant Therapy (RE-LY) With Dabigatran Etexilate","officialTitle":"Randomized Evaluation of Long Term Anticoagulant Therapy (RE-LY) Comparing the Efficacy and Safety of Two Blinded Doses of Dabigatran Etexilate With Open Label Warfarin for the Prevention of Stroke and Systemic Embolism in Patients With Non-valvular Atrial Fibrillation: Prospective, Multi-centre, Parallel-group, Non-inferiority Trial (RE-LY Study)"},"statusModule":{"statusVerifiedDate":"2014-04","overallStatus":"COMPLETED","expandedAccessInfo":{"hasExpandedAccess":false},"startDateStruct":{"date":"2005-12","type":"ACTUAL"},"primaryCompletionDateStruct":{"date":"2009-04","type":"ACTUAL"},"studyFirstSubmitDate":"2005-12-06","studyFirstSubmitQcDate":"2005-12-06","studyFirstPostDateStruct":{"date":"2005-12-07","type":"ESTIMATED"},"resultsFirstSubmitDate":"2010-11-18","resultsFirstSubmitQcDate":"2011-01-17","resultsFirstPostDateStruct":{"date":"2011-02-10","type":"ESTIMATED"},"lastUpdateSubmitDate":"2019-04-08","lastUpdatePostDateStruct":{"date":"2019-04-17","type":"ACTUAL"}},"sponsorCollaboratorsModule":{"responsibleParty":{"oldNameTitle":"Boehringer Ingelheim, Study Chair","oldOrganization":"Boehringer Ingelheim"},"leadSponsor":{"name":"Boehringer Ingelheim","class":"INDUSTRY"},"collaborators":[{"name":"Population Health Research Institute","class":"OTHER"},{"name":"Uppsala University","class":"OTHER"}]},"descriptionModule":{"briefSummary":"The primary objective of this trial is to demonstrate the efficacy and safety of dabigatran etexilate in patients with non-valvular atrial fibrillation for the prevention of stroke and systemic embolism."},"conditionsModule":{"conditions":["Atrial Fibrillation","Stroke"]},"designModule":{"studyType":"INTERVENTIONAL","phases":["PHASE3"],"designInfo":{"allocation":"RANDOMIZED","interventionModel":"PARALLEL","primaryPurpose":"PREVENTION"},"enrollmentInfo":{"count":18113,"type":"ACTUAL"}},"armsInterventionsModule":{"armGroups":[{"label":"Dabigatran dose 2","type":"ACTIVE_COMPARATOR","description":"twice a day","interventionNames":["Drug: Dabigatran dose 2"]},{"label":"Warfarin","type":"ACTIVE_COMPARATOR","description":"once a day","interventionNames":["Drug: warfarin"]},{"label":"Dabigatran dose 1","type":"ACTIVE_COMPARATOR","description":"twice a day","interventionNames":["Drug: Dabigatran dose 1"]}],"interventions":[{"type":"DRUG","name":"warfarin","description":"once a day","armGroupLabels":["Warfarin"]},{"type":"DRUG","name":"Dabigatran dose 1","description":"twice daily","armGroupLabels":["Dabigatran dose 1"]},{"type":"DRUG","name":"Dabigatran dose 2","description":"twice a day","armGroupLabels":["Dabigatran dose 2"]}]},"outcomesModule":{"primaryOutcomes":[{"measure":"Yearly Event Rate for Composite Endpoint of Stroke/SEE","description":"Time to first occurrence of stroke or systemic embolic event. Yearly event rate (%) = number of subjects with event / subject-years \\* 100. Subject years = sum(date of study termination - date of randomization + 1) of all randomized subjects / 365.25","timeFrame":"36 months"}],"secondaryOutcomes":[{"measure":"Yearly Event Rate for Composite Endpoint of Stroke/SEE/All Cause Death","description":"Time to first occurrence of stroke, SEE or all cause death. Yearly event rate (%) = number of subjects with event / subject-years \\* 100. Subject years = sum(date of study termination - date of randomization + 1) of all randomized subjects / 365.25","timeFrame":"36 months"},{"measure":"Yearly Event Rate: Composite of Stroke/SEE/PE/MI/Vascular Death","description":"Time to first occurrence of stroke, systemic embolic event, pulmonary embolism, myocardial infarction including silent myocardial infarction or vascular death. Yearly event rate (%) = number of subjects with event / subject-years \\* 100. Subject years = sum(date of study termination - date of randomization + 1) of all randomized subjects / 365.25","timeFrame":"36 months"},{"measure":"Bleeding Events (Major and Minor)","description":"Yearly event rate of bleeds. Yearly event rate (%) = number of subjects with event / subject-years \\* 100. Subject years = sum(date of study termination - date of randomization + 1) of all randomized subjects / 365.25\n\nMajor bleeds are adjudicated, whereas minor bleeds are investigator reported.","timeFrame":"36 months"},{"measure":"Clinical Relevant Abnormalities for Intracerebral Hemorrhage and Other Intracranial Hemorrhage (ICH)","description":"Patients with clinical relevant abnormalities for intracerebral hemorrhage, other intracranial hemorrhage (ICH)","timeFrame":"36 months"},{"measure":"Abnormal Liver Function Test","description":"Number of subjects with abnormal liver function test (LFT), i.e., ALT/AST\\>3xULN and total bilirubin \\> 2 x ULN","timeFrame":"36 months"}]},"eligibilityModule":{"eligibilityCriteria":"Inclusion criteria Patients with non-valvular atrial fibrillation (AF), at moderate to high risk of stroke, or systemic embolism with at least one additional risk factor (i.e. previous ischemic stroke, TIA, or systemic embolism, left ventricular dysfunction, age \\>=75 years, age \\>=65 with either diabetes mellitus, history of coronary artery disease or hypertension)\n\nExclusion criteria\n\n1. Prosthetic heart valves requiring anticoagulation per se, or hemodynamically relevant valve disease that is expected to require surgical intervention during the course of the study\n2. Severe, disabling stroke within the previous 6 months, or any stroke within the previous 14 days\n3. Conditions associated with an increased risk of bleeding\n4. Contraindication to warfarin treatment\n5. Reversible causes of atrial fibrillation (e.g., cardiac surgery, pulmonary embolism, untreated hyperthyroidism).\n6. Plan to perform a pulmonary vein ablation or surgery for cure of the AF\n7. Severe renal impairment (estimated creatinine clearance \\<=30 mL/min)\n8. Active infective endocarditis\n9. Active liver disease\n10. Women who are pregnant, lactating, or of childbearing potential who refuse to use a medically acceptable form of contraception throughout the study\n11. Anaemia (haemoglobin \\<100g/L) or thrombocytopenia (platelet count \\<100 x 109/L)\n12. Patients who have developed transaminase elevations upon exposure to ximelagatran\n13. Patients who have received an investigational drug in the past 30 days or are participating in another drug study\n14. Patients considered unreliable by the investigator concerning the requirements for follow-up during the study and/or compliance with study drug administration, has a life expectancy less than the expected duration of the trial due to concomitant disease, or has any condition which in the opinion of the investigator, would not allow safe participation in the study (e.g., drug addiction, alcohol abuse)\n15. Any known hypersensitivity to galactose if the warfarin used contains galactose.","healthyVolunteers":false,"sex":"ALL","minimumAge":"18 Years","stdAges":["ADULT","OLDER_ADULT"]},"contactsLocationsModule":{"overallOfficials":[{"name":"Boehringer Ingelheim","affiliation":"Boehringer Ingelheim","role":"STUDY_CHAIR"}],"locations":[{"facility":"1160.26.0009 Boehringer Ingelheim Investigational Site","city":"Birmingham","state":"Alabama","country":"United States","geoPoint":{"lat":33.52066,"lon":-86.80249}},{"facility":"1160.26.0046 Boehringer Ingelheim Investigational Site","city":"Birmingham","state":"Alabama","country":"United States","geoPoint":{"lat":33.52066,"lon":-86.80249}},{"facility":"1160.26.0057 Boehringer Ingelheim Investigational Site","city":"Birmingham","state":"Alabama","country":"United States","geoPoint":{"lat":33.52066,"lon":-86.80249}},{"facility":"1160.26.0211 Boehringer Ingelheim Investigational Site","city":"Birmingham","state":"Alabama","country":"United States","geoPoint":{"lat":33.52066,"lon":-86.80249}},{"facility":"1160.26.0206 Boehringer Ingelheim Investigational Site","city":"Huntsville","state":"Alabama","country":"United States","geoPoint":{"lat":34.7304,"lon":-86.58594}},{"facility":"1160.26.0115 Boehringer Ingelheim Investigational Site","city":"Mobile","state":"Alabama","country":"United States","geoPoint":{"lat":30.69436,"lon":-88.04305}},{"facility":"1160.26.0104 Boehringer Ingelheim Investigational Site","city":"Lake Havasu City","state":"Arizona","country":"United States","geoPoint":{"lat":34.4839,"lon":-114.32245}},{"facility":"1160.26.0304 Boehringer Ingelheim Investigational Site","city":"Peoria","state":"Arizona","country":"United States","geoPoint":{"lat":33.5806,"lon":-112.23738}},{"facility":"1160.26.0185 Boehringer Ingelheim Investigational Site","city":"Tucson","state":"Arizona","country":"United States","geoPoint":{"lat":32.22174,"lon":-110.92648}},{"facility":"1160.26.0305 Boehringer Ingelheim Investigational Site","city":"Tucson","state":"Arizona","country":"United States","geoPoint":{"lat":32.22174,"lon":-110.92648}},{"facility":"1160.26.0038 Boehringer Ingelheim Investigational Site","city":"Hot Springs","state":"Arkansas","country":"United States","geoPoint":{"lat":34.5037,"lon":-93.05518}},{"facility":"1160.26.0302 Boehringer Ingelheim Investigational Site","city":"Jonesboro","state":"Arkansas","country":"United States","geoPoint":{"lat":35.8423,"lon":-90.70428}},{"facility":"1160.26.0121 Boehringer Ingelheim Investigational Site","city":"Little Rock","state":"Arkansas","country":"United States","geoPoint":{"lat":34.74648,"lon":-92.28959}},{"facility":"1160.26.0191 Boehringer Ingelheim Investigational Site","city":"Little Rock","state":"Arkansas","country":"United States","geoPoint":{"lat":34.74648,"lon":-92.28959}},{"facility":"1160.26.0204 Boehringer Ingelheim Investigational Site","city":"Little Rock","state":"Arkansas","country":"United States","geoPoint":{"lat":34.74648,"lon":-92.28959}},{"facility":"1160.26.0213 Boehringer Ingelheim Investigational Site","city":"Little Rock","state":"Arkansas","country":"United States","geoPoint":{"lat":34.74648,"lon":-92.28959}},{"facility":"1160.26.0455 Boehringer Ingelheim Investigational Site","city":"Little Rock","state":"Arkansas","country":"United States","geoPoint":{"lat":34.74648,"lon":-92.28959}},{"facility":"1160.26.0388 Boehringer Ingelheim Investigational Site","city":"Anaheim","state":"California","country":"United States","geoPoint":{"lat":33.83529,"lon":-117.9145}},{"facility":"1160.26.0441 Boehringer Ingelheim Investigational Site","city":"Carmichael","state":"California","country":"United States","geoPoint":{"lat":38.61713,"lon":-121.32828}},{"facility":"1160.26.0145 Boehringer Ingelheim Investigational Site","city":"French Camp","state":"California","country":"United States","geoPoint":{"lat":37.88409,"lon":-121.27106}},{"facility":"1160.26.0333 Boehringer Ingelheim Investigational Site","city":"Fullerton","state":"California","country":"United States","geoPoint":{"lat":33.87029,"lon":-117.92534}},{"facility":"1160.26.0384 Boehringer Ingelheim Investigational Site","city":"La Jolla","state":"California","country":"United States","geoPoint":{"lat":32.84727,"lon":-117.2742}},{"facility":"1160.26.0091 Boehringer Ingelheim Investigational Site","city":"La Mesa","state":"California","country":"United States","geoPoint":{"lat":32.76783,"lon":-117.02308}},{"facility":"1160.26.0246 Boehringer Ingelheim Investigational Site","city":"Lancaster","state":"California","country":"United States","geoPoint":{"lat":34.69804,"lon":-118.13674}},{"facility":"1160.26.0345 Boehringer Ingelheim Investigational Site","city":"Larkspur","state":"California","country":"United States","geoPoint":{"lat":37.93409,"lon":-122.53525}},{"facility":"1160.26.0217 Boehringer Ingelheim Investigational Site","city":"Loma Linda","state":"California","country":"United States","geoPoint":{"lat":34.04835,"lon":-117.26115}},{"facility":"1160.26.0059 Boehringer Ingelheim Investigational Site","city":"Los Angeles","state":"California","country":"United States","geoPoint":{"lat":34.05223,"lon":-118.24368}},{"facility":"1160.26.0088 Boehringer Ingelheim Investigational Site","city":"Los Angeles","state":"California","country":"United States","geoPoint":{"lat":34.05223,"lon":-118.24368}},{"facility":"1160.26.0337 Boehringer Ingelheim Investigational Site","city":"Los Angeles","state":"California","country":"United States","geoPoint":{"lat":34.05223,"lon":-118.24368}},{"facility":"1160.26.0326 Boehringer Ingelheim Investigational Site","city":"Mather","state":"California","country":"United States","geoPoint":{"lat":37.88215,"lon":-119.85573}},{"facility":"1160.26.0070 Boehringer Ingelheim Investigational Site","city":"Merced","state":"California","country":"United States","geoPoint":{"lat":37.30216,"lon":-120.48297}},{"facility":"1160.26.0349 Boehringer Ingelheim Investigational Site","city":"Oakland","state":"California","country":"United States","geoPoint":{"lat":37.80437,"lon":-122.2708}},{"facility":"1160.26.0016 Boehringer Ingelheim Investigational Site","city":"Oceanside","state":"California","country":"United States","geoPoint":{"lat":33.19587,"lon":-117.37948}},{"facility":"1160.26.0087 Boehringer Ingelheim Investigational Site","city":"Palm Springs","state":"California","country":"United States","geoPoint":{"lat":33.8303,"lon":-116.54529}},{"facility":"1160.26.0459 Boehringer Ingelheim Investigational Site","city":"Pasadena","state":"California","country":"United States","geoPoint":{"lat":34.14778,"lon":-118.14452}},{"facility":"1160.26.0216 Boehringer Ingelheim Investigational Site","city":"Redondo Beach","state":"California","country":"United States","geoPoint":{"lat":33.84918,"lon":-118.38841}},{"facility":"1160.26.0135 Boehringer Ingelheim Investigational Site","city":"Riverside","state":"California","country":"United States","geoPoint":{"lat":33.95335,"lon":-117.39616}},{"facility":"1160.26.0162 Boehringer Ingelheim Investigational Site","city":"Sacramento","state":"California","country":"United States","geoPoint":{"lat":38.58157,"lon":-121.4944}},{"facility":"1160.26.0300 Boehringer Ingelheim Investigational Site","city":"Sacramento","state":"California","country":"United States","geoPoint":{"lat":38.58157,"lon":-121.4944}},{"facility":"1160.26.0371 Boehringer Ingelheim Investigational Site","city":"Sacramento","state":"California","country":"United States","geoPoint":{"lat":38.58157,"lon":-121.4944}},{"facility":"1160.26.0116 Boehringer Ingelheim Investigational Site","city":"San Diego","state":"California","country":"United States","geoPoint":{"lat":32.71533,"lon":-117.15726}},{"facility":"1160.26.0148 Boehringer Ingelheim Investigational Site","city":"San Diego","state":"California","country":"United States","geoPoint":{"lat":32.71533,"lon":-117.15726}},{"facility":"1160.26.0270 Boehringer Ingelheim Investigational Site","city":"San Diego","state":"California","country":"United States","geoPoint":{"lat":32.71533,"lon":-117.15726}},{"facility":"1160.26.0284 Boehringer Ingelheim Investigational Site","city":"San Diego","state":"California","country":"United States","geoPoint":{"lat":32.71533,"lon":-117.15726}},{"facility":"1160.26.0351 Boehringer Ingelheim Investigational Site","city":"Santa Ana","state":"California","country":"United States","geoPoint":{"lat":33.74557,"lon":-117.86783}},{"facility":"1160.26.0043 Boehringer Ingelheim Investigational Site","city":"Santa Rosa","state":"California","country":"United States","geoPoint":{"lat":38.44047,"lon":-122.71443}},{"facility":"1160.26.0462 Boehringer Ingelheim Investigational Site","city":"Sylmar","state":"California","country":"United States","geoPoint":{"lat":34.30778,"lon":-118.44925}},{"facility":"1160.26.0276 Boehringer Ingelheim Investigational Site","city":"Torrance","state":"California","country":"United States","geoPoint":{"lat":33.83585,"lon":-118.34063}},{"facility":"1160.26.0379 Boehringer Ingelheim Investigational Site","city":"Walnut Creek","state":"California","country":"United States","geoPoint":{"lat":37.90631,"lon":-122.06496}},{"facility":"1160.26.0419 Boehringer Ingelheim Investigational Site","city":"Aurora","state":"Colorado","country":"United States","geoPoint":{"lat":39.72943,"lon":-104.83192}},{"facility":"1160.26.0321 Boehringer Ingelheim Investigational Site","city":"Colorado Springs","state":"Colorado","country":"United States","geoPoint":{"lat":38.83388,"lon":-104.82136}},{"facility":"1160.26.0449 Boehringer Ingelheim Investigational Site","city":"Colorado Springs","state":"Colorado","country":"United States","geoPoint":{"lat":38.83388,"lon":-104.82136}},{"facility":"1160.26.0360 Boehringer Ingelheim Investigational Site","city":"Denver","state":"Colorado","country":"United States","geoPoint":{"lat":39.73915,"lon":-104.9847}},{"facility":"1160.26.0413 Boehringer Ingelheim Investigational Site","city":"Denver","state":"Colorado","country":"United States","geoPoint":{"lat":39.73915,"lon":-104.9847}},{"facility":"1160.26.0362 Boehringer Ingelheim Investigational Site","city":"Fort Collins","state":"Colorado","country":"United States","geoPoint":{"lat":40.58526,"lon":-105.08442}},{"facility":"1160.26.0399 Boehringer Ingelheim Investigational Site","city":"Greeley","state":"Colorado","country":"United States","geoPoint":{"lat":40.42331,"lon":-104.70913}},{"facility":"1160.26.0058 Boehringer Ingelheim Investigational Site","city":"Bridgeport","state":"Connecticut","country":"United States","geoPoint":{"lat":41.16704,"lon":-73.20483}},{"facility":"1160.26.0241 Boehringer Ingelheim Investigational Site","city":"Bridgeport","state":"Connecticut","country":"United States","geoPoint":{"lat":41.16704,"lon":-73.20483}},{"facility":"1160.26.0278 Boehringer Ingelheim Investigational Site","city":"Bridgeport","state":"Connecticut","country":"United States","geoPoint":{"lat":41.16704,"lon":-73.20483}},{"facility":"1160.26.0085 Boehringer Ingelheim Investigational Site","city":"Fairfield","state":"Connecticut","country":"United States","geoPoint":{"lat":41.14121,"lon":-73.26373}},{"facility":"1160.26.0482 Boehringer Ingelheim Investigational Site","city":"Guilford","state":"Connecticut","country":"United States","geoPoint":{"lat":41.28899,"lon":-72.68176}},{"facility":"1160.26.0366 Boehringer Ingelheim Investigational Site","city":"Newark","state":"Delaware","country":"United States","geoPoint":{"lat":39.68372,"lon":-75.74966}},{"facility":"1160.26.0343 Boehringer Ingelheim Investigational Site","city":"Washington","state":"District of Columbia","country":"United States","geoPoint":{"lat":38.89511,"lon":-77.03637}},{"facility":"1160.26.0022 Boehringer Ingelheim Investigational Site","city":"Atlantis","state":"Florida","country":"United States","geoPoint":{"lat":26.5909,"lon":-80.10088}},{"facility":"1160.26.0382 Boehringer Ingelheim Investigational Site","city":"Boynton Beach","state":"Florida","country":"United States","geoPoint":{"lat":26.52535,"lon":-80.06643}},{"facility":"1160.26.0056 Boehringer Ingelheim Investigational Site","city":"Brandon","state":"Florida","country":"United States","geoPoint":{"lat":27.9378,"lon":-82.28592}},{"facility":"1160.26.0105 Boehringer Ingelheim Investigational Site","city":"Clearwater","state":"Florida","country":"United States","geoPoint":{"lat":27.96585,"lon":-82.8001}},{"facility":"1160.26.0296 Boehringer Ingelheim Investigational Site","city":"Clearwater","state":"Florida","country":"United States","geoPoint":{"lat":27.96585,"lon":-82.8001}},{"facility":"1160.26.0429 Boehringer Ingelheim Investigational Site","city":"Clearwater","state":"Florida","country":"United States","geoPoint":{"lat":27.96585,"lon":-82.8001}},{"facility":"1160.26.0376 Boehringer Ingelheim Investigational Site","city":"Daytona Beach","state":"Florida","country":"United States","geoPoint":{"lat":29.21081,"lon":-81.02283}},{"facility":"1160.26.0411 Boehringer Ingelheim Investigational Site","city":"Deerfield Beach","state":"Florida","country":"United States","geoPoint":{"lat":26.31841,"lon":-80.09977}},{"facility":"1160.26.0074 Boehringer Ingelheim Investigational Site","city":"Fort Myers","state":"Florida","country":"United States","geoPoint":{"lat":26.62168,"lon":-81.84059}},{"facility":"1160.26.0239 Boehringer Ingelheim Investigational Site","city":"Gainesville","state":"Florida","country":"United States","geoPoint":{"lat":29.65163,"lon":-82.32483}},{"facility":"1160.26.0260 Boehringer Ingelheim Investigational Site","city":"Hollywood","state":"Florida","country":"United States","geoPoint":{"lat":26.0112,"lon":-80.14949}},{"facility":"1160.26.0265 Boehringer Ingelheim Investigational Site","city":"Hollywood","state":"Florida","country":"United States","geoPoint":{"lat":26.0112,"lon":-80.14949}},{"facility":"1160.26.0100 Boehringer Ingelheim Investigational Site","city":"Inverness","state":"Florida","country":"United States","geoPoint":{"lat":28.83582,"lon":-82.33037}},{"facility":"1160.26.0209 Boehringer Ingelheim Investigational Site","city":"Jacksonville Beach","state":"Florida","country":"United States","geoPoint":{"lat":30.29469,"lon":-81.39314}},{"facility":"1160.26.0033 Boehringer Ingelheim Investigational Site","city":"Jacksonville","state":"Florida","country":"United States","geoPoint":{"lat":30.33218,"lon":-81.65565}},{"facility":"1160.26.0089 Boehringer Ingelheim Investigational Site","city":"Jacksonville","state":"Florida","country":"United States","geoPoint":{"lat":30.33218,"lon":-81.65565}},{"facility":"1160.26.0232 Boehringer Ingelheim Investigational Site","city":"Jacksonville","state":"Florida","country":"United States","geoPoint":{"lat":30.33218,"lon":-81.65565}},{"facility":"1160.26.0240 Boehringer Ingelheim Investigational Site","city":"Jacksonville","state":"Florida","country":"United States","geoPoint":{"lat":30.33218,"lon":-81.65565}},{"facility":"1160.26.0427 Boehringer Ingelheim Investigational Site","city":"Jacksonville","state":"Florida","country":"United States","geoPoint":{"lat":30.33218,"lon":-81.65565}},{"facility":"1160.26.0464 Boehringer Ingelheim Investigational Site","city":"Jacksonville","state":"Florida","country":"United States","geoPoint":{"lat":30.33218,"lon":-81.65565}},{"facility":"1160.26.0012 Boehringer Ingelheim Investigational Site","city":"Lakeland","state":"Florida","country":"United States","geoPoint":{"lat":28.03947,"lon":-81.9498}},{"facility":"1160.26.0259 Boehringer Ingelheim Investigational Site","city":"Melbourne","state":"Florida","country":"United States","geoPoint":{"lat":28.08363,"lon":-80.60811}},{"facility":"1160.26.0358 Boehringer Ingelheim Investigational Site","city":"Melbourne","state":"Florida","country":"United States","geoPoint":{"lat":28.08363,"lon":-80.60811}},{"facility":"1160.26.0034 Boehringer Ingelheim Investigational Site","city":"Miami","state":"Florida","country":"United States","geoPoint":{"lat":25.77427,"lon":-80.19366}},{"facility":"1160.26.0199 Boehringer Ingelheim Investigational Site","city":"Miami","state":"Florida","country":"United States","geoPoint":{"lat":25.77427,"lon":-80.19366}},{"facility":"1160.26.0227 Boehringer Ingelheim Investigational Site","city":"Orlando","state":"Florida","country":"United States","geoPoint":{"lat":28.53834,"lon":-81.37924}},{"facility":"1160.26.0095 Boehringer Ingelheim Investigational Site","city":"Ormond Beach","state":"Florida","country":"United States","geoPoint":{"lat":29.28581,"lon":-81.05589}},{"facility":"1160.26.0037 Boehringer Ingelheim Investigational Site","city":"Pensacola","state":"Florida","country":"United States","geoPoint":{"lat":30.42131,"lon":-87.21691}},{"facility":"1160.26.0076 Boehringer Ingelheim Investigational Site","city":"Pensacola","state":"Florida","country":"United States","geoPoint":{"lat":30.42131,"lon":-87.21691}},{"facility":"1160.26.0081 Boehringer Ingelheim Investigational Site","city":"Pensacola","state":"Florida","country":"United States","geoPoint":{"lat":30.42131,"lon":-87.21691}},{"facility":"1160.26.0111 Boehringer Ingelheim Investigational Site","city":"Pensacola","state":"Florida","country":"United States","geoPoint":{"lat":30.42131,"lon":-87.21691}},{"facility":"1160.26.0137 Boehringer Ingelheim Investigational Site","city":"Port Charlotte","state":"Florida","country":"United States","geoPoint":{"lat":26.97617,"lon":-82.09064}},{"facility":"1160.26.0389 Boehringer Ingelheim Investigational Site","city":"Port Charlotte","state":"Florida","country":"United States","geoPoint":{"lat":26.97617,"lon":-82.09064}},{"facility":"1160.26.0417 Boehringer Ingelheim Investigational Site","city":"Port Charlotte","state":"Florida","country":"United States","geoPoint":{"lat":26.97617,"lon":-82.09064}},{"facility":"1160.26.0332 Boehringer Ingelheim Investigational Site","city":"Rockledge","state":"Florida","country":"United States","geoPoint":{"lat":28.35084,"lon":-80.72533}},{"facility":"1160.26.0226 Boehringer Ingelheim Investigational Site","city":"Safety Harbor","state":"Florida","country":"United States","geoPoint":{"lat":27.99085,"lon":-82.69316}},{"facility":"1160.26.0015 Boehringer Ingelheim Investigational Site","city":"Saint Petersburg","state":"Florida","country":"United States","geoPoint":{"lat":27.77086,"lon":-82.67927}},{"facility":"1160.26.0339 Boehringer Ingelheim Investigational Site","city":"Saint Petersburg","state":"Florida","country":"United States","geoPoint":{"lat":27.77086,"lon":-82.67927}},{"facility":"1160.26.0031 Boehringer Ingelheim Investigational Site","city":"Sarasota","state":"Florida","country":"United States","geoPoint":{"lat":27.33643,"lon":-82.53065}},{"facility":"1160.26.0385 Boehringer Ingelheim Investigational Site","city":"Sarasota","state":"Florida","country":"United States","geoPoint":{"lat":27.33643,"lon":-82.53065}},{"facility":"1160.26.0010 Boehringer Ingelheim Investigational Site","city":"Stuart","state":"Florida","country":"United States","geoPoint":{"lat":27.19755,"lon":-80.25283}},{"facility":"1160.26.0327 Boehringer Ingelheim Investigational Site","city":"Tamarac","state":"Florida","country":"United States","geoPoint":{"lat":26.21286,"lon":-80.24977}},{"facility":"1160.26.0271 Boehringer Ingelheim Investigational Site","city":"Tampa","state":"Florida","country":"United States","geoPoint":{"lat":27.94752,"lon":-82.45843}},{"facility":"1160.26.0328 Boehringer Ingelheim Investigational Site","city":"Tampa","state":"Florida","country":"United States","geoPoint":{"lat":27.94752,"lon":-82.45843}},{"facility":"1160.26.0381 Boehringer Ingelheim Investigational Site","city":"Tampa","state":"Florida","country":"United States","geoPoint":{"lat":27.94752,"lon":-82.45843}},{"facility":"1160.26.0019 Boehringer Ingelheim Investigational Site","city":"Vero Beach","state":"Florida","country":"United States","geoPoint":{"lat":27.63864,"lon":-80.39727}},{"facility":"1160.26.0159 Boehringer Ingelheim Investigational Site","city":"Atlanta","state":"Georgia","country":"United States","geoPoint":{"lat":33.749,"lon":-84.38798}},{"facility":"1160.26.0283 Boehringer Ingelheim Investigational Site","city":"Atlanta","state":"Georgia","country":"United States","geoPoint":{"lat":33.749,"lon":-84.38798}},{"facility":"1160.26.0338 Boehringer Ingelheim Investigational Site","city":"Atlanta","state":"Georgia","country":"United States","geoPoint":{"lat":33.749,"lon":-84.38798}},{"facility":"1160.26.0021 Boehringer Ingelheim Investigational Site","city":"Augusta","state":"Georgia","country":"United States","geoPoint":{"lat":33.47097,"lon":-81.97484}},{"facility":"1160.26.0319 Boehringer Ingelheim Investigational Site","city":"Augusta","state":"Georgia","country":"United States","geoPoint":{"lat":33.47097,"lon":-81.97484}},{"facility":"1160.26.0092 Boehringer Ingelheim Investigational Site","city":"Blue Ridge","state":"Georgia","country":"United States","geoPoint":{"lat":34.86397,"lon":-84.32409}},{"facility":"1160.26.0161 Boehringer Ingelheim Investigational Site","city":"Conyers","state":"Georgia","country":"United States","geoPoint":{"lat":33.66761,"lon":-84.01769}},{"facility":"1160.26.0026 Boehringer Ingelheim Investigational Site","city":"Coeur d'Alene","state":"Idaho","country":"United States","geoPoint":{"lat":47.67768,"lon":-116.78047}},{"facility":"1160.26.0218 Boehringer Ingelheim Investigational Site","city":"Berwyn","state":"Illinois","country":"United States","geoPoint":{"lat":41.85059,"lon":-87.79367}},{"facility":"1160.26.0184 Boehringer Ingelheim Investigational Site","city":"Chicago","state":"Illinois","country":"United States","geoPoint":{"lat":41.85003,"lon":-87.65005}},{"facility":"1160.26.0233 Boehringer Ingelheim Investigational Site","city":"Chicago","state":"Illinois","country":"United States","geoPoint":{"lat":41.85003,"lon":-87.65005}},{"facility":"1160.26.0324 Boehringer Ingelheim Investigational Site","city":"Chicago","state":"Illinois","country":"United States","geoPoint":{"lat":41.85003,"lon":-87.65005}},{"facility":"1160.26.0457 Boehringer Ingelheim Investigational Site","city":"Chicago","state":"Illinois","country":"United States","geoPoint":{"lat":41.85003,"lon":-87.65005}},{"facility":"1160.26.0237 Boehringer Ingelheim Investigational Site","city":"Evanston","state":"Illinois","country":"United States","geoPoint":{"lat":42.04114,"lon":-87.69006}},{"facility":"1160.26.0236 Boehringer Ingelheim Investigational Site","city":"Glenview","state":"Illinois","country":"United States","geoPoint":{"lat":42.06975,"lon":-87.78784}},{"facility":"1160.26.0396 Boehringer Ingelheim Investigational Site","city":"Hines","state":"Illinois","country":"United States","geoPoint":{"lat":41.85364,"lon":-87.8395}},{"facility":"1160.26.0438 Boehringer Ingelheim Investigational Site","city":"Maywood","state":"Illinois","country":"United States","geoPoint":{"lat":41.8792,"lon":-87.84312}},{"facility":"1160.26.0331 Boehringer Ingelheim Investigational Site","city":"Melrose Park","state":"Illinois","country":"United States","geoPoint":{"lat":41.90059,"lon":-87.85673}},{"facility":"1160.26.0364 Boehringer Ingelheim Investigational Site","city":"Normal","state":"Illinois","country":"United States","geoPoint":{"lat":40.5142,"lon":-88.99063}},{"facility":"1160.26.0109 Boehringer Ingelheim Investigational Site","city":"North Chicago","state":"Illinois","country":"United States","geoPoint":{"lat":42.32558,"lon":-87.84118}},{"facility":"1160.26.0152 Boehringer Ingelheim Investigational Site","city":"Oak Lawn","state":"Illinois","country":"United States","geoPoint":{"lat":41.71087,"lon":-87.75811}},{"facility":"1160.26.0198 Boehringer Ingelheim Investigational Site","city":"Rockford","state":"Illinois","country":"United States","geoPoint":{"lat":42.27113,"lon":-89.094}},{"facility":"1160.26.0433 Boehringer Ingelheim Investigational Site","city":"Winfield","state":"Illinois","country":"United States","geoPoint":{"lat":41.8617,"lon":-88.1609}},{"facility":"1160.26.0041 Boehringer Ingelheim Investigational Site","city":"Evansville","state":"Indiana","country":"United States","geoPoint":{"lat":37.97476,"lon":-87.55585}},{"facility":"1160.26.0377 Boehringer Ingelheim Investigational Site","city":"Fort Wayne","state":"Indiana","country":"United States","geoPoint":{"lat":41.1306,"lon":-85.12886}},{"facility":"1160.26.0288 Boehringer Ingelheim Investigational Site","city":"Indianapolis","state":"Indiana","country":"United States","geoPoint":{"lat":39.76838,"lon":-86.15804}},{"facility":"1160.26.0352 Boehringer Ingelheim Investigational Site","city":"Indianapolis","state":"Indiana","country":"United States","geoPoint":{"lat":39.76838,"lon":-86.15804}},{"facility":"1160.26.0436 Boehringer Ingelheim Investigational Site","city":"Indianapolis","state":"Indiana","country":"United States","geoPoint":{"lat":39.76838,"lon":-86.15804}},{"facility":"1160.26.0028 Boehringer Ingelheim Investigational Site","city":"Jeffersonville","state":"Indiana","country":"United States","geoPoint":{"lat":38.27757,"lon":-85.73718}},{"facility":"1160.26.0235 Boehringer Ingelheim Investigational Site","city":"South Bend","state":"Indiana","country":"United States","geoPoint":{"lat":41.68338,"lon":-86.25001}},{"facility":"1160.26.0268 Boehringer Ingelheim Investigational Site","city":"Dubuque","state":"Iowa","country":"United States","geoPoint":{"lat":42.50056,"lon":-90.66457}},{"facility":"1160.26.0001 Boehringer Ingelheim Investigational Site","city":"West Des Moines","state":"Iowa","country":"United States","geoPoint":{"lat":41.57721,"lon":-93.71133}},{"facility":"1160.26.0189 Boehringer Ingelheim Investigational Site","city":"West Des Moines","state":"Iowa","country":"United States","geoPoint":{"lat":41.57721,"lon":-93.71133}},{"facility":"1160.26.0357 Boehringer Ingelheim Investigational Site","city":"West Des Moines","state":"Iowa","country":"United States","geoPoint":{"lat":41.57721,"lon":-93.71133}},{"facility":"1160.26.0354 Boehringer Ingelheim Investigational Site","city":"Wichita","state":"Kansas","country":"United States","geoPoint":{"lat":37.69224,"lon":-97.33754}},{"facility":"1160.26.0077 Boehringer Ingelheim Investigational Site","city":"Bowling Green","state":"Kentucky","country":"United States","geoPoint":{"lat":36.99032,"lon":-86.4436}},{"facility":"1160.26.0138 Boehringer Ingelheim Investigational Site","city":"Crestview Hills","state":"Kentucky","country":"United States","geoPoint":{"lat":39.02728,"lon":-84.58494}},{"facility":"1160.26.0422 Boehringer Ingelheim Investigational Site","city":"Lexington","state":"Kentucky","country":"United States","geoPoint":{"lat":37.98869,"lon":-84.47772}},{"facility":"1160.26.0178 Boehringer Ingelheim Investigational Site","city":"Louisville","state":"Kentucky","country":"United States","geoPoint":{"lat":38.25424,"lon":-85.75941}},{"facility":"1160.26.0397 Boehringer Ingelheim Investigational Site","city":"Louisville","state":"Kentucky","country":"United States","geoPoint":{"lat":38.25424,"lon":-85.75941}},{"facility":"1160.26.0310 Boehringer Ingelheim Investigational Site","city":"Owensboro","state":"Kentucky","country":"United States","geoPoint":{"lat":37.77422,"lon":-87.11333}},{"facility":"1160.26.0011 Boehringer Ingelheim Investigational Site","city":"Baton Rouge","state":"Louisiana","country":"United States","geoPoint":{"lat":30.45075,"lon":-91.15455}},{"facility":"1160.26.0144 Boehringer Ingelheim Investigational Site","city":"Baton Rouge","state":"Louisiana","country":"United States","geoPoint":{"lat":30.45075,"lon":-91.15455}},{"facility":"1160.26.0404 Boehringer Ingelheim Investigational Site","city":"Baton Rouge","state":"Louisiana","country":"United States","geoPoint":{"lat":30.45075,"lon":-91.15455}},{"facility":"1160.26.0093 Boehringer Ingelheim Investigational Site","city":"Covington","state":"Louisiana","country":"United States","geoPoint":{"lat":30.47549,"lon":-90.10042}},{"facility":"1160.26.0340 Boehringer Ingelheim Investigational Site","city":"Lacombe","state":"Louisiana","country":"United States","geoPoint":{"lat":30.31353,"lon":-89.94313}},{"facility":"1160.26.0018 Boehringer Ingelheim Investigational Site","city":"Lafayette","state":"Louisiana","country":"United States","geoPoint":{"lat":30.22409,"lon":-92.01984}},{"facility":"1160.26.0391 Boehringer Ingelheim Investigational Site","city":"Lafayette","state":"Louisiana","country":"United States","geoPoint":{"lat":30.22409,"lon":-92.01984}},{"facility":"1160.26.0252 Boehringer Ingelheim Investigational Site","city":"Morgan City","state":"Louisiana","country":"United States","geoPoint":{"lat":29.69937,"lon":-91.20677}},{"facility":"1160.26.0132 Boehringer Ingelheim Investigational Site","city":"New Iberia","state":"Louisiana","country":"United States","geoPoint":{"lat":30.00354,"lon":-91.81873}},{"facility":"1160.26.0299 Tulane University School Of Medicine","city":"New Orleans","state":"Louisiana","country":"United States","geoPoint":{"lat":29.95465,"lon":-90.07507}},{"facility":"1160.26.0048 Boehringer Ingelheim Investigational Site","city":"Shreveport","state":"Louisiana","country":"United States","geoPoint":{"lat":32.52515,"lon":-93.75018}},{"facility":"1160.26.0096 Boehringer Ingelheim Investigational Site","city":"Auburn","state":"Maine","country":"United States","geoPoint":{"lat":44.09785,"lon":-70.23117}},{"facility":"1160.26.0068 Boehringer Ingelheim Investigational Site","city":"Scarborough","state":"Maine","country":"United States","geoPoint":{"lat":43.57814,"lon":-70.32172}},{"facility":"1160.26.0114 Boehringer Ingelheim Investigational Site","city":"Annapolis","state":"Maryland","country":"United States","geoPoint":{"lat":38.97845,"lon":-76.49218}},{"facility":"1160.26.0164 Boehringer Ingelheim Investigational Site","city":"Annapolis","state":"Maryland","country":"United States","geoPoint":{"lat":38.97845,"lon":-76.49218}},{"facility":"1160.26.0023 Boehringer Ingelheim Investigational Site","city":"Baltimore","state":"Maryland","country":"United States","geoPoint":{"lat":39.29038,"lon":-76.61219}},{"facility":"1160.26.0047 Boehringer Ingelheim Investigational Site","city":"Baltimore","state":"Maryland","country":"United States","geoPoint":{"lat":39.29038,"lon":-76.61219}},{"facility":"1160.26.0079 Boehringer Ingelheim Investigational Site","city":"Baltimore","state":"Maryland","country":"United States","geoPoint":{"lat":39.29038,"lon":-76.61219}},{"facility":"1160.26.0186 Boehringer Ingelheim Investigational Site","city":"Baltimore","state":"Maryland","country":"United States","geoPoint":{"lat":39.29038,"lon":-76.61219}},{"facility":"1160.26.0194 Boehringer Ingelheim Investigational Site","city":"Baltimore","state":"Maryland","country":"United States","geoPoint":{"lat":39.29038,"lon":-76.61219}},{"facility":"1160.26.0255 Boehringer Ingelheim Investigational Site","city":"Bel Air","state":"Maryland","country":"United States","geoPoint":{"lat":39.53594,"lon":-76.34829}},{"facility":"1160.26.0398 Boehringer Ingelheim Investigational Site","city":"Columbia","state":"Maryland","country":"United States","geoPoint":{"lat":39.24038,"lon":-76.83942}},{"facility":"1160.26.0177 Boehringer Ingelheim Investigational Site","city":"Rockville","state":"Maryland","country":"United States","geoPoint":{"lat":39.084,"lon":-77.15276}},{"facility":"1160.26.0073 Boehringer Ingelheim Investigational Site","city":"Salisbury","state":"Maryland","country":"United States","geoPoint":{"lat":38.36067,"lon":-75.59937}},{"facility":"1160.26.0207 Boehringer Ingelheim Investigational Site","city":"Salisbury","state":"Maryland","country":"United States","geoPoint":{"lat":38.36067,"lon":-75.59937}},{"facility":"1160.26.0196 Boehringer Ingelheim Investigational Site","city":"Takoma Park","state":"Maryland","country":"United States","geoPoint":{"lat":38.97789,"lon":-77.00748}},{"facility":"1160.26.0187 Boehringer Ingelheim Investigational Site","city":"Towson","state":"Maryland","country":"United States","geoPoint":{"lat":39.4015,"lon":-76.60191}},{"facility":"1160.26.0052 Boehringer Ingelheim Investigational Site","city":"Westminster","state":"Maryland","country":"United States","geoPoint":{"lat":39.57538,"lon":-76.99581}},{"facility":"1160.26.0042 Boehringer Ingelheim Investigational Site","city":"Ayer","state":"Massachusetts","country":"United States","geoPoint":{"lat":42.5612,"lon":-71.58979}},{"facility":"1160.26.0401 Boehringer Ingelheim Investigational Site","city":"Boston","state":"Massachusetts","country":"United States","geoPoint":{"lat":42.35843,"lon":-71.05977}},{"facility":"1160.26.0160 Boehringer Ingelheim Investigational Site","city":"East Bridgewater","state":"Massachusetts","country":"United States","geoPoint":{"lat":42.03343,"lon":-70.95921}},{"facility":"1160.26.0443 Boehringer Ingelheim Investigational Site","city":"Haverhill","state":"Massachusetts","country":"United States","geoPoint":{"lat":42.7762,"lon":-71.07728}},{"facility":"1160.26.0452 Boehringer Ingelheim Investigational Site","city":"Haverhill","state":"Massachusetts","country":"United States","geoPoint":{"lat":42.7762,"lon":-71.07728}},{"facility":"1160.26.0029 Boehringer Ingelheim Investigational Site","city":"Natick","state":"Massachusetts","country":"United States","geoPoint":{"lat":42.28343,"lon":-71.3495}},{"facility":"1160.26.0446 Boehringer Ingelheim Investigational Site","city":"Newtown","state":"Massachusetts","country":"United States","geoPoint":{"lat":41.67178,"lon":-70.43864}},{"facility":"1160.26.0003 Boehringer Ingelheim Investigational Site","city":"North Dartmouth","state":"Massachusetts","country":"United States","geoPoint":{"lat":41.63899,"lon":-70.97032}},{"facility":"1160.26.0470 Boehringer Ingelheim Investigational Site","city":"Northborough","state":"Massachusetts","country":"United States","geoPoint":{"lat":42.31954,"lon":-71.64118}},{"facility":"1160.26.0308 Boehringer Ingelheim Investigational Site","city":"Worcester","state":"Massachusetts","country":"United States","geoPoint":{"lat":42.26259,"lon":-71.80229}},{"facility":"1160.26.0141 Boehringer Ingelheim Investigational Site","city":"Bloomfield Hills","state":"Michigan","country":"United States","geoPoint":{"lat":42.58364,"lon":-83.24549}},{"facility":"1160.26.0225 Boehringer Ingelheim Investigational Site","city":"Detroit","state":"Michigan","country":"United States","geoPoint":{"lat":42.33143,"lon":-83.04575}},{"facility":"1160.26.0154 Boehringer Ingelheim Investigational Site","city":"Grand Blanc","state":"Michigan","country":"United States","geoPoint":{"lat":42.92753,"lon":-83.62995}},{"facility":"1160.26.0030 Boehringer Ingelheim Investigational Site","city":"Grand Rapids","state":"Michigan","country":"United States","geoPoint":{"lat":42.96336,"lon":-85.66809}},{"facility":"1160.26.0171 Boehringer Ingelheim Investigational Site","city":"Kalamazoo","state":"Michigan","country":"United States","geoPoint":{"lat":42.29171,"lon":-85.58723}},{"facility":"1160.26.0205 Boehringer Ingelheim Investigational Site","city":"Lapeer","state":"Michigan","country":"United States","geoPoint":{"lat":43.05142,"lon":-83.31883}},{"facility":"1160.26.0279 Boehringer Ingelheim Investigational Site","city":"Muskegon","state":"Michigan","country":"United States","geoPoint":{"lat":43.23418,"lon":-86.24839}},{"facility":"1160.26.0445 Boehringer Ingelheim Investigational Site","city":"Petoskey","state":"Michigan","country":"United States","geoPoint":{"lat":45.37334,"lon":-84.95533}},{"facility":"1160.26.0274 Boehringer Ingelheim Investigational Site","city":"Rochester Hills","state":"Michigan","country":"United States","geoPoint":{"lat":42.65837,"lon":-83.14993}},{"facility":"1160.26.0165 Boehringer Ingelheim Investigational Site","city":"Saginaw","state":"Michigan","country":"United States","geoPoint":{"lat":43.41947,"lon":-83.95081}},{"facility":"1160.26.0020 Boehringer Ingelheim Investigational Site","city":"Troy","state":"Michigan","country":"United States","geoPoint":{"lat":42.60559,"lon":-83.14993}},{"facility":"1160.26.0188 Boehringer Ingelheim Investigational Site","city":"Ypsilanti","state":"Michigan","country":"United States","geoPoint":{"lat":42.24115,"lon":-83.61299}},{"facility":"1160.26.0131 Boehringer Ingelheim Investigational Site","city":"Minneapolis","state":"Minnesota","country":"United States","geoPoint":{"lat":44.97997,"lon":-93.26384}},{"facility":"1160.26.0421 Boehringer Ingelheim Investigational Site","city":"Minneapolis","state":"Minnesota","country":"United States","geoPoint":{"lat":44.97997,"lon":-93.26384}},{"facility":"1160.26.0202 Boehringer Ingelheim Investigational Site","city":"Robbinsdale","state":"Minnesota","country":"United States","geoPoint":{"lat":45.03219,"lon":-93.33856}},{"facility":"1160.26.0101 Boehringer Ingelheim Investigational Site","city":"Saint Paul","state":"Minnesota","country":"United States","geoPoint":{"lat":44.94441,"lon":-93.09327}},{"facility":"1160.26.0086 Boehringer Ingelheim Investigational Site","city":"Gulfport","state":"Mississippi","country":"United States","geoPoint":{"lat":30.36742,"lon":-89.09282}},{"facility":"1160.26.0119 Boehringer Ingelheim Investigational Site","city":"Tupelo","state":"Mississippi","country":"United States","geoPoint":{"lat":34.25807,"lon":-88.70464}},{"facility":"1160.26.0055 Boehringer Ingelheim Investigational Site","city":"Columbia","state":"Missouri","country":"United States","geoPoint":{"lat":38.95171,"lon":-92.33407}},{"facility":"1160.26.0172 Boehringer Ingelheim Investigational Site","city":"Columbia","state":"Missouri","country":"United States","geoPoint":{"lat":38.95171,"lon":-92.33407}},{"facility":"1160.26.0257 Boehringer Ingelheim Investigational Site","city":"Kansas City","state":"Missouri","country":"United States","geoPoint":{"lat":39.09973,"lon":-94.57857}},{"facility":"1160.26.0266 Boehringer Ingelheim Investigational Site","city":"Kansas City","state":"Missouri","country":"United States","geoPoint":{"lat":39.09973,"lon":-94.57857}},{"facility":"1160.26.0336 Boehringer Ingelheim Investigational Site","city":"Saint Charles","state":"Missouri","country":"United States","geoPoint":{"lat":38.78394,"lon":-90.48123}},{"facility":"1160.26.0249 Boehringer Ingelheim Investigational Site","city":"Saint Louis","state":"Missouri","country":"United States","geoPoint":{"lat":38.62727,"lon":-90.19789}},{"facility":"1160.26.0027 Boehringer Ingelheim Investigational Site","city":"Kalispell","state":"Montana","country":"United States","geoPoint":{"lat":48.19579,"lon":-114.31291}},{"facility":"1160.26.0128 Boehringer Ingelheim Investigational Site","city":"Alliance","state":"Nebraska","country":"United States","geoPoint":{"lat":42.10163,"lon":-102.87215}},{"facility":"1160.26.0110 Boehringer Ingelheim Investigational Site","city":"Omaha","state":"Nebraska","country":"United States","geoPoint":{"lat":41.25626,"lon":-95.94043}},{"facility":"1160.26.0355 Boehringer Ingelheim Investigational Site","city":"Papillion","state":"Nebraska","country":"United States","geoPoint":{"lat":41.15444,"lon":-96.04224}},{"facility":"1160.26.0346 Boehringer Ingelheim Investigational Site","city":"Henderson","state":"Nevada","country":"United States","geoPoint":{"lat":36.0397,"lon":-114.98194}},{"facility":"1160.26.0066 Boehringer Ingelheim Investigational Site","city":"Las Vegas","state":"Nevada","country":"United States","geoPoint":{"lat":36.17497,"lon":-115.13722}},{"facility":"1160.26.0174 Boehringer Ingelheim Investigational Site","city":"Las Vegas","state":"Nevada","country":"United States","geoPoint":{"lat":36.17497,"lon":-115.13722}},{"facility":"1160.26.0430 Boehringer Ingelheim Investigational Site","city":"Las Vegas","state":"Nevada","country":"United States","geoPoint":{"lat":36.17497,"lon":-115.13722}},{"facility":"1160.26.0190 Boehringer Ingelheim Investigational Site","city":"Lebanon","state":"New Hampshire","country":"United States","geoPoint":{"lat":43.64229,"lon":-72.25176}},{"facility":"1160.26.0142 Boehringer Ingelheim Investigational Site","city":"Browns Mills","state":"New Jersey","country":"United States","geoPoint":{"lat":39.97261,"lon":-74.58293}},{"facility":"1160.26.0125 Boehringer Ingelheim Investigational Site","city":"Cherry Hill","state":"New Jersey","country":"United States","geoPoint":{"lat":39.93484,"lon":-75.03073}},{"facility":"1160.26.0432 Boehringer Ingelheim Investigational Site","city":"Elmer","state":"New Jersey","country":"United States","geoPoint":{"lat":39.59511,"lon":-75.17018}},{"facility":"1160.26.0448 Boehringer Ingelheim Investigational Site","city":"Englewood","state":"New Jersey","country":"United States","geoPoint":{"lat":40.89288,"lon":-73.97264}},{"facility":"1160.26.0248 Boehringer Ingelheim Investigational Site","city":"Flemington","state":"New Jersey","country":"United States","geoPoint":{"lat":40.51233,"lon":-74.85933}},{"facility":"1160.26.0244 Boehringer Ingelheim Investigational Site","city":"Haddon Heights","state":"New Jersey","country":"United States","geoPoint":{"lat":39.87734,"lon":-75.06462}},{"facility":"1160.26.0243 Boehringer Ingelheim Investigational Site","city":"New Brunswick","state":"New Jersey","country":"United States","geoPoint":{"lat":40.48622,"lon":-74.45182}},{"facility":"1160.26.0478 Boehringer Ingelheim Investigational Site","city":"Oakland","state":"New Jersey","country":"United States","geoPoint":{"lat":41.01315,"lon":-74.26431}},{"facility":"1160.26.0392 Boehringer Ingelheim Investigational Site","city":"Ocean City","state":"New Jersey","country":"United States","geoPoint":{"lat":39.27762,"lon":-74.5746}},{"facility":"1160.26.0472 Boehringer Ingelheim Investigational Site","city":"Paterson","state":"New Jersey","country":"United States","geoPoint":{"lat":40.91677,"lon":-74.17181}},{"facility":"1160.26.0221 Boehringer Ingelheim Investigational Site","city":"Voorhees","state":"New Jersey","country":"United States","geoPoint":{"lat":40.48122,"lon":-74.48321}},{"facility":"1160.26.0254 Boehringer Ingelheim Investigational Site","city":"Westwood","state":"New Jersey","country":"United States","geoPoint":{"lat":40.99121,"lon":-74.03264}},{"facility":"1160.26.0127 Boehringer Ingelheim Investigational Site","city":"Albuquerque","state":"New Mexico","country":"United States","geoPoint":{"lat":35.08449,"lon":-106.65114}},{"facility":"1160.26.0423 Boehringer Ingelheim Investigational Site","city":"Albuquerque","state":"New Mexico","country":"United States","geoPoint":{"lat":35.08449,"lon":-106.65114}},{"facility":"1160.26.0476 Boehringer Ingelheim Investigational Site","city":"Albany","state":"New York","country":"United States","geoPoint":{"lat":42.65258,"lon":-73.75623}},{"facility":"1160.26.0113 Boehringer Ingelheim Investigational Site","city":"Bronx","state":"New York","country":"United States","geoPoint":{"lat":40.84985,"lon":-73.86641}},{"facility":"1160.26.0281 Boehringer Ingelheim Investigational Site","city":"Bronx","state":"New York","country":"United States","geoPoint":{"lat":40.84985,"lon":-73.86641}},{"facility":"1160.26.0063 Boehringer Ingelheim Investigational Site","city":"Buffalo","state":"New York","country":"United States","geoPoint":{"lat":42.88645,"lon":-78.87837}},{"facility":"1160.26.0044 Boehringer Ingelheim Investigational Site","city":"Cortlandt Manor","state":"New York","country":"United States","geoPoint":{"lat":41.29009,"lon":-73.92042}},{"facility":"1160.26.0373 Boehringer Ingelheim Investigational Site","city":"Flushing","state":"New York","country":"United States","geoPoint":{"lat":40.76538,"lon":-73.81736}},{"facility":"1160.26.0045 Boehringer Ingelheim Investigational Site","city":"Garden City","state":"New York","country":"United States","geoPoint":{"lat":40.72677,"lon":-73.6343}},{"facility":"1160.26.0251 Boehringer Ingelheim Investigational Site","city":"Kingston","state":"New York","country":"United States","geoPoint":{"lat":41.92704,"lon":-73.99736}},{"facility":"1160.26.0229 Boehringer Ingelheim Investigational Site","city":"Mineola","state":"New York","country":"United States","geoPoint":{"lat":40.74927,"lon":-73.64068}},{"facility":"1160.26.0451 Boehringer Ingelheim Investigational Site","city":"Mineola","state":"New York","country":"United States","geoPoint":{"lat":40.74927,"lon":-73.64068}},{"facility":"1160.26.0090 Boehringer Ingelheim Investigational Site","city":"New Hyde Park","state":"New York","country":"United States","geoPoint":{"lat":40.7351,"lon":-73.68791}},{"facility":"1160.26.0183 Boehringer Ingelheim Investigational Site","city":"New Rochelle","state":"New York","country":"United States","geoPoint":{"lat":40.91149,"lon":-73.78235}},{"facility":"1160.26.0316 Boehringer Ingelheim Investigational Site","city":"New York","state":"New York","country":"United States","geoPoint":{"lat":40.71427,"lon":-74.00597}},{"facility":"1160.26.0146 Boehringer Ingelheim Investigational Site","city":"North Massapequa","state":"New York","country":"United States","geoPoint":{"lat":40.70093,"lon":-73.46207}},{"facility":"1160.26.0210 Boehringer Ingelheim Investigational Site","city":"Northport","state":"New York","country":"United States","geoPoint":{"lat":40.90093,"lon":-73.34317}},{"facility":"1160.26.0075 Boehringer Ingelheim Investigational Site","city":"Poughkeepsie","state":"New York","country":"United States","geoPoint":{"lat":41.70037,"lon":-73.92097}},{"facility":"1160.26.0197 Boehringer Ingelheim Investigational Site","city":"Rochester","state":"New York","country":"United States","geoPoint":{"lat":43.15478,"lon":-77.61556}},{"facility":"1160.26.0320 Boehringer Ingelheim Investigational Site","city":"Rochester","state":"New York","country":"United States","geoPoint":{"lat":43.15478,"lon":-77.61556}},{"facility":"1160.26.0064 Boehringer Ingelheim Investigational Site","city":"Scarsdale","state":"New York","country":"United States","geoPoint":{"lat":41.0051,"lon":-73.78458}},{"facility":"1160.26.0414 Boehringer Ingelheim Investigational Site","city":"Troy","state":"New York","country":"United States","geoPoint":{"lat":42.72841,"lon":-73.69179}},{"facility":"1160.26.0356 Boehringer Ingelheim Investigational Site","city":"Watertown","state":"New York","country":"United States","geoPoint":{"lat":43.97478,"lon":-75.91076}},{"facility":"1160.26.0039 Boehringer Ingelheim Investigational Site","city":"Williamsville","state":"New York","country":"United States","geoPoint":{"lat":42.96395,"lon":-78.73781}},{"facility":"1160.26.0353 Boehringer Ingelheim Investigational Site","city":"Asheville","state":"North Carolina","country":"United States","geoPoint":{"lat":35.60095,"lon":-82.55402}},{"facility":"1160.26.0080 Boehringer Ingelheim Investigational Site","city":"Charlotte","state":"North Carolina","country":"United States","geoPoint":{"lat":35.22709,"lon":-80.84313}},{"facility":"1160.26.0412 Boehringer Ingelheim Investigational Site","city":"Charlotte","state":"North Carolina","country":"United States","geoPoint":{"lat":35.22709,"lon":-80.84313}},{"facility":"1160.26.0350 Boehringer Ingelheim Investigational Site","city":"Gastonia","state":"North Carolina","country":"United States","geoPoint":{"lat":35.26208,"lon":-81.1873}},{"facility":"1160.26.0322 Boehringer Ingelheim Investigational Site","city":"Greensboro","state":"North Carolina","country":"United States","geoPoint":{"lat":36.07264,"lon":-79.79198}},{"facility":"1160.26.0173 Boehringer Ingelheim Investigational Site","city":"High Point","state":"North Carolina","country":"United States","geoPoint":{"lat":35.95569,"lon":-80.00532}},{"facility":"1160.26.0108 Boehringer Ingelheim Investigational Site","city":"Lexington","state":"North Carolina","country":"United States","geoPoint":{"lat":35.82403,"lon":-80.25338}},{"facility":"1160.26.0006 Boehringer Ingelheim Investigational Site","city":"Pinehurst","state":"North Carolina","country":"United States","geoPoint":{"lat":35.19543,"lon":-79.46948}},{"facility":"1160.26.0002 Boehringer Ingelheim Investigational Site","city":"Statesville","state":"North Carolina","country":"United States","geoPoint":{"lat":35.78264,"lon":-80.8873}},{"facility":"1160.26.0069 Boehringer Ingelheim Investigational Site","city":"Statesville","state":"North Carolina","country":"United States","geoPoint":{"lat":35.78264,"lon":-80.8873}},{"facility":"1160.26.0372 Boehringer Ingelheim Investigational Site","city":"Wilmington","state":"North Carolina","country":"United States","geoPoint":{"lat":34.22573,"lon":-77.94471}},{"facility":"1160.26.0094 Boehringer Ingelheim Investigational Site","city":"Winston-Salem","state":"North Carolina","country":"United States","geoPoint":{"lat":36.09986,"lon":-80.24422}},{"facility":"1160.26.0425 Boehringer Ingelheim Investigational Site","city":"Winston-Salem","state":"North Carolina","country":"United States","geoPoint":{"lat":36.09986,"lon":-80.24422}},{"facility":"1160.26.0102 Boehringer Ingelheim Investigational Site","city":"Grand Forks","state":"North Dakota","country":"United States","geoPoint":{"lat":47.92526,"lon":-97.03285}},{"facility":"1160.26.0222 Boehringer Ingelheim Investigational Site","city":"Jamestown","state":"North Dakota","country":"United States","geoPoint":{"lat":46.91054,"lon":-98.70844}},{"facility":"1160.26.0203 Boehringer Ingelheim Investigational Site","city":"Akron","state":"Ohio","country":"United States","geoPoint":{"lat":41.08144,"lon":-81.51901}},{"facility":"1160.26.0434 Boehringer Ingelheim Investigational Site","city":"Canal Fulton","state":"Ohio","country":"United States","geoPoint":{"lat":40.88978,"lon":-81.59762}},{"facility":"1160.26.0083 Boehringer Ingelheim Investigational Site","city":"Cincinnati","state":"Ohio","country":"United States","geoPoint":{"lat":39.12713,"lon":-84.51435}},{"facility":"1160.26.0402 Boehringer Ingelheim Investigational Site","city":"Cincinnati","state":"Ohio","country":"United States","geoPoint":{"lat":39.12713,"lon":-84.51435}},{"facility":"1160.26.0426 Boehringer Ingelheim Investigational Site","city":"Cincinnati","state":"Ohio","country":"United States","geoPoint":{"lat":39.12713,"lon":-84.51435}},{"facility":"1160.26.0479 Boehringer Ingelheim Investigational Site","city":"Cincinnati","state":"Ohio","country":"United States","geoPoint":{"lat":39.12713,"lon":-84.51435}},{"facility":"1160.26.0263 Boehringer Ingelheim Investigational Site","city":"Cleveland","state":"Ohio","country":"United States","geoPoint":{"lat":41.4995,"lon":-81.69541}},{"facility":"1160.26.0480 Boehringer Ingelheim Investigational Site","city":"Cleveland","state":"Ohio","country":"United States","geoPoint":{"lat":41.4995,"lon":-81.69541}},{"facility":"1160.26.0267 Boehringer Ingelheim Investigational Site","city":"Columbus","state":"Ohio","country":"United States","geoPoint":{"lat":39.96118,"lon":-82.99879}},{"facility":"1160.26.0035 Boehringer Ingelheim Investigational Site","city":"Dayton","state":"Ohio","country":"United States","geoPoint":{"lat":39.75895,"lon":-84.19161}},{"facility":"1160.26.0150 Boehringer Ingelheim Investigational Site","city":"Fairview Park","state":"Ohio","country":"United States","geoPoint":{"lat":41.44144,"lon":-81.8643}},{"facility":"1160.26.0201 Boehringer Ingelheim Investigational Site","city":"Kettering","state":"Ohio","country":"United States","geoPoint":{"lat":39.6895,"lon":-84.16883}},{"facility":"1160.26.0223 Boehringer Ingelheim Investigational Site","city":"Lorain","state":"Ohio","country":"United States","geoPoint":{"lat":41.45282,"lon":-82.18237}},{"facility":"1160.26.0214 Boehringer Ingelheim Investigational Site","city":"Lyndhurst","state":"Ohio","country":"United States","geoPoint":{"lat":41.52005,"lon":-81.48873}},{"facility":"1160.26.0275 Boehringer Ingelheim Investigational Site","city":"Sandusky","state":"Ohio","country":"United States","geoPoint":{"lat":41.44894,"lon":-82.70796}},{"facility":"1160.26.0103 Boehringer Ingelheim Investigational Site","city":"Westlake","state":"Ohio","country":"United States","geoPoint":{"lat":41.45532,"lon":-81.91792}},{"facility":"1160.26.0155 Boehringer Ingelheim Investigational Site","city":"Bartlesville","state":"Oklahoma","country":"United States","geoPoint":{"lat":36.74731,"lon":-95.98082}},{"facility":"1160.26.0435 Boehringer Ingelheim Investigational Site","city":"Tulsa","state":"Oklahoma","country":"United States","geoPoint":{"lat":36.15398,"lon":-95.99277}},{"facility":"1160.26.0139 Boehringer Ingelheim Investigational Site","city":"Corvallis","state":"Oregon","country":"United States","geoPoint":{"lat":44.56457,"lon":-123.26204}},{"facility":"1160.26.0325 Boehringer Ingelheim Investigational Site","city":"Eugene","state":"Oregon","country":"United States","geoPoint":{"lat":44.05207,"lon":-123.08675}},{"facility":"1160.26.0078 Boehringer Ingelheim Investigational Site","city":"Hillsboro","state":"Oregon","country":"United States","geoPoint":{"lat":45.52289,"lon":-122.98983}},{"facility":"1160.26.0245 Boehringer Ingelheim Investigational Site","city":"Portland","state":"Oregon","country":"United States","geoPoint":{"lat":45.52345,"lon":-122.67621}},{"facility":"1160.26.0133 Boehringer Ingelheim Investigational Site","city":"Springfield","state":"Oregon","country":"United States","geoPoint":{"lat":44.04624,"lon":-123.02203}},{"facility":"1160.26.0301 Boehringer Ingelheim Investigational Site","city":"Allentown","state":"Pennsylvania","country":"United States","geoPoint":{"lat":40.60843,"lon":-75.49018}},{"facility":"1160.26.0454 Boehringer Ingelheim Investigational Site","city":"Altoona","state":"Pennsylvania","country":"United States","geoPoint":{"lat":40.51868,"lon":-78.39474}},{"facility":"1160.26.0295 Boehringer Ingelheim Investigational Site","city":"Camp Hill","state":"Pennsylvania","country":"United States","geoPoint":{"lat":40.23981,"lon":-76.91997}},{"facility":"1160.26.0294 Boehringer Ingelheim Investigational Site","city":"Hershey","state":"Pennsylvania","country":"United States","geoPoint":{"lat":40.28592,"lon":-76.65025}},{"facility":"1160.26.0369 Boehringer Ingelheim Investigational Site","city":"Jenkintown","state":"Pennsylvania","country":"United States","geoPoint":{"lat":40.09594,"lon":-75.12517}},{"facility":"1160.26.0303 Boehringer Ingelheim Investigational Site","city":"Jersey Shore","state":"Pennsylvania","country":"United States","geoPoint":{"lat":41.20202,"lon":-77.26442}},{"facility":"1160.26.0431 Boehringer Ingelheim Investigational Site","city":"Lancaster","state":"Pennsylvania","country":"United States","geoPoint":{"lat":40.03788,"lon":-76.30551}},{"facility":"1160.26.0168 Boehringer Ingelheim Investigational Site","city":"Langhorne","state":"Pennsylvania","country":"United States","geoPoint":{"lat":40.17455,"lon":-74.92267}},{"facility":"1160.26.0293 Boehringer Ingelheim Investigational Site","city":"Meadowbrook","state":"Pennsylvania","country":"United States","geoPoint":{"lat":40.11261,"lon":-75.07823}},{"facility":"1160.26.0025 Boehringer Ingelheim Investigational Site","city":"Newton","state":"Pennsylvania","country":"United States","geoPoint":{"lat":41.22258,"lon":-75.8952}},{"facility":"1160.26.0394 Boehringer Ingelheim Investigational Site","city":"Norristown","state":"Pennsylvania","country":"United States","geoPoint":{"lat":40.1215,"lon":-75.3399}},{"facility":"1160.26.0158 Boehringer Ingelheim Investigational Site","city":"Philadelphia","state":"Pennsylvania","country":"United States","geoPoint":{"lat":39.95233,"lon":-75.16379}},{"facility":"1160.26.0181 Boehringer Ingelheim Investigational Site","city":"Philadelphia","state":"Pennsylvania","country":"United States","geoPoint":{"lat":39.95233,"lon":-75.16379}},{"facility":"1160.26.0416 Boehringer Ingelheim Investigational Site","city":"Philadelphia","state":"Pennsylvania","country":"United States","geoPoint":{"lat":39.95233,"lon":-75.16379}},{"facility":"1160.26.0344 Boehringer Ingelheim Investigational Site","city":"Pittsburgh","state":"Pennsylvania","country":"United States","geoPoint":{"lat":40.44062,"lon":-79.99589}},{"facility":"1160.26.0466 Boehringer Ingelheim Investigational Site","city":"Pittsburgh","state":"Pennsylvania","country":"United States","geoPoint":{"lat":40.44062,"lon":-79.99589}},{"facility":"1160.26.0208 Boehringer Ingelheim Investigational Site","city":"Sellersville","state":"Pennsylvania","country":"United States","geoPoint":{"lat":40.35399,"lon":-75.3049}},{"facility":"1160.26.0465 Boehringer Ingelheim Investigational Site","city":"Uniontown","state":"Pennsylvania","country":"United States","geoPoint":{"lat":39.90008,"lon":-79.71643}},{"facility":"1160.26.0400 Boehringer Ingelheim Investigational Site","city":"Upland","state":"Pennsylvania","country":"United States","geoPoint":{"lat":39.85261,"lon":-75.38269}},{"facility":"1160.26.0032 Boehringer Ingelheim Investigational Site","city":"Wynnewood","state":"Pennsylvania","country":"United States","geoPoint":{"lat":40.00289,"lon":-75.27074}},{"facility":"1160.26.0067 Boehringer Ingelheim Investigational Site","city":"Wyomissing","state":"Pennsylvania","country":"United States","geoPoint":{"lat":40.32954,"lon":-75.96521}},{"facility":"1160.26.0212 Boehringer Ingelheim Investigational Site","city":"Pawtucket","state":"Rhode Island","country":"United States","geoPoint":{"lat":41.87871,"lon":-71.38256}},{"facility":"1160.26.0007 Boehringer Ingelheim Investigational Site","city":"Beaufort","state":"South Carolina","country":"United States","geoPoint":{"lat":32.43158,"lon":-80.66983}},{"facility":"1160.26.0383 Boehringer Ingelheim Investigational Site","city":"Charleston","state":"South Carolina","country":"United States","geoPoint":{"lat":32.77657,"lon":-79.93092}},{"facility":"1160.26.0313 Boehringer Ingelheim Investigational Site","city":"Greenville","state":"South Carolina","country":"United States","geoPoint":{"lat":34.85262,"lon":-82.39401}},{"facility":"1160.26.0450 Boehringer Ingelheim Investigational Site","city":"Mount Pleasant","state":"South Carolina","country":"United States","geoPoint":{"lat":32.79407,"lon":-79.86259}},{"facility":"1160.26.0166 Boehringer Ingelheim Investigational Site","city":"Spartanburg","state":"South Carolina","country":"United States","geoPoint":{"lat":34.94957,"lon":-81.93205}},{"facility":"1160.26.0008 Boehringer Ingelheim Investigational Site","city":"Summerville","state":"South Carolina","country":"United States","geoPoint":{"lat":33.0185,"lon":-80.17565}},{"facility":"1160.26.0468 Boehringer Ingelheim Investigational Site","city":"West Columbia","state":"South Carolina","country":"United States","geoPoint":{"lat":33.99349,"lon":-81.07398}},{"facility":"1160.26.0348 Boehringer Ingelheim Investigational Site","city":"Rapid City","state":"South Dakota","country":"United States","geoPoint":{"lat":44.08054,"lon":-103.23101}},{"facility":"1160.26.0084 Boehringer Ingelheim Investigational Site","city":"Chattanooga","state":"Tennessee","country":"United States","geoPoint":{"lat":35.04563,"lon":-85.30968}},{"facility":"1160.26.0062 Boehringer Ingelheim Investigational Site","city":"Germantown","state":"Tennessee","country":"United States","geoPoint":{"lat":35.08676,"lon":-89.81009}},{"facility":"1160.26.0370 Boehringer Ingelheim Investigational Site","city":"Johnson City","state":"Tennessee","country":"United States","geoPoint":{"lat":36.31344,"lon":-82.35347}},{"facility":"1160.26.0323 Boehringer Ingelheim Investigational Site","city":"Nashville","state":"Tennessee","country":"United States","geoPoint":{"lat":36.16589,"lon":-86.78444}},{"facility":"1160.26.0395 Boehringer Ingelheim Investigational Site","city":"Nashville","state":"Tennessee","country":"United States","geoPoint":{"lat":36.16589,"lon":-86.78444}},{"facility":"1160.26.0474 Boehringer Ingelheim Investigational Site","city":"Oak Ridge","state":"Tennessee","country":"United States","geoPoint":{"lat":36.01036,"lon":-84.26964}},{"facility":"1160.26.0129 Boehringer Ingelheim Investigational Site","city":"Austin","state":"Texas","country":"United States","geoPoint":{"lat":30.26715,"lon":-97.74306}},{"facility":"1160.26.0410 Boehringer Ingelheim Investigational Site","city":"Austin","state":"Texas","country":"United States","geoPoint":{"lat":30.26715,"lon":-97.74306}},{"facility":"1160.26.0156 Boehringer Ingelheim Investigational Site","city":"Dallas","state":"Texas","country":"United States","geoPoint":{"lat":32.78306,"lon":-96.80667}},{"facility":"1160.26.0315 Boehringer Ingelheim Investigational Site","city":"Fort Worth","state":"Texas","country":"United States","geoPoint":{"lat":32.72541,"lon":-97.32085}},{"facility":"1160.26.0444 Boehringer Ingelheim Investigational Site","city":"Fort Worth","state":"Texas","country":"United States","geoPoint":{"lat":32.72541,"lon":-97.32085}},{"facility":"1160.26.0447 Boehringer Ingelheim Investigational Site","city":"Houston","state":"Texas","country":"United States","geoPoint":{"lat":29.76328,"lon":-95.36327}},{"facility":"1160.26.0483 Boehringer Ingelheim Investigational Site","city":"Killeen","state":"Texas","country":"United States","geoPoint":{"lat":31.11712,"lon":-97.7278}},{"facility":"1160.26.0335 Boehringer Ingelheim Investigational Site","city":"Lubbock","state":"Texas","country":"United States","geoPoint":{"lat":33.57786,"lon":-101.85517}},{"facility":"1160.26.0230 Boehringer Ingelheim Investigational Site","city":"McKinney","state":"Texas","country":"United States","geoPoint":{"lat":33.19762,"lon":-96.61527}},{"facility":"1160.26.0467 Boehringer Ingelheim Investigational Site","city":"Plano","state":"Texas","country":"United States","geoPoint":{"lat":33.01984,"lon":-96.69889}},{"facility":"1160.26.0013 Boehringer Ingelheim Investigational Site","city":"San Antonio","state":"Texas","country":"United States","geoPoint":{"lat":29.42412,"lon":-98.49363}},{"facility":"1160.26.0269 Boehringer Ingelheim Investigational Site","city":"San Antonio","state":"Texas","country":"United States","geoPoint":{"lat":29.42412,"lon":-98.49363}},{"facility":"1160.26.0307 Boehringer Ingelheim Investigational Site","city":"San Antonio","state":"Texas","country":"United States","geoPoint":{"lat":29.42412,"lon":-98.49363}},{"facility":"1160.26.0285 Boehringer Ingelheim Investigational Site","city":"San Marcos","state":"Texas","country":"United States","geoPoint":{"lat":29.88327,"lon":-97.94139}},{"facility":"1160.26.0215 Boehringer Ingelheim Investigational Site","city":"Tyler","state":"Texas","country":"United States","geoPoint":{"lat":32.35126,"lon":-95.30106}},{"facility":"1160.26.0367 Boehringer Ingelheim Investigational Site","city":"Tyler","state":"Texas","country":"United States","geoPoint":{"lat":32.35126,"lon":-95.30106}},{"facility":"1160.26.0195 Boehringer Ingelheim Investigational Site","city":"Arlington","state":"Virginia","country":"United States","geoPoint":{"lat":38.88101,"lon":-77.10428}},{"facility":"1160.26.0453 Boehringer Ingelheim Investigational Site","city":"Charlottesville","state":"Virginia","country":"United States","geoPoint":{"lat":38.02931,"lon":-78.47668}},{"facility":"1160.26.0053 Boehringer Ingelheim Investigational Site","city":"Chesapeake","state":"Virginia","country":"United States","geoPoint":{"lat":36.81904,"lon":-76.27494}},{"facility":"1160.26.0098 Boehringer Ingelheim Investigational Site","city":"Danville","state":"Virginia","country":"United States","geoPoint":{"lat":36.58597,"lon":-79.39502}},{"facility":"1160.26.0386 Boehringer Ingelheim Investigational Site","city":"Falls Church","state":"Virginia","country":"United States","geoPoint":{"lat":38.88233,"lon":-77.17109}},{"facility":"1160.26.0428 Boehringer Ingelheim Investigational Site","city":"Fredericksburg","state":"Virginia","country":"United States","geoPoint":{"lat":38.30318,"lon":-77.46054}},{"facility":"1160.26.0311 Boehringer Ingelheim Investigational Site","city":"Harrisonburg","state":"Virginia","country":"United States","geoPoint":{"lat":38.44957,"lon":-78.86892}},{"facility":"1160.26.0292 Boehringer Ingelheim Investigational Site","city":"Newport News","state":"Virginia","country":"United States","geoPoint":{"lat":37.08339,"lon":-76.46965}},{"facility":"1160.26.0224 Boehringer Ingelheim Investigational Site","city":"Norfolk","state":"Virginia","country":"United States","geoPoint":{"lat":36.84681,"lon":-76.28522}},{"facility":"1160.26.0220 Boehringer Ingelheim Investigational Site","city":"Salem","state":"Virginia","country":"United States","geoPoint":{"lat":37.29347,"lon":-80.05476}},{"facility":"1160.26.0317 Boehringer Ingelheim Investigational Site","city":"Winchester","state":"Virginia","country":"United States","geoPoint":{"lat":39.18566,"lon":-78.16333}},{"facility":"1160.26.0287 Boehringer Ingelheim Investigational Site","city":"Bellevue","state":"Washington","country":"United States","geoPoint":{"lat":47.61038,"lon":-122.20068}},{"facility":"1160.26.0050 Boehringer Ingelheim Investigational Site","city":"Bellingham","state":"Washington","country":"United States","geoPoint":{"lat":48.75955,"lon":-122.48822}},{"facility":"1160.26.0040 Boehringer Ingelheim Investigational Site","city":"Burien","state":"Washington","country":"United States","geoPoint":{"lat":47.47038,"lon":-122.34679}},{"facility":"1160.26.0298 Boehringer Ingelheim Investigational Site","city":"Olympia","state":"Washington","country":"United States","geoPoint":{"lat":47.03787,"lon":-122.9007}},{"facility":"1160.26.0250 Boehringer Ingelheim Investigational Site","city":"Spokane","state":"Washington","country":"United States","geoPoint":{"lat":47.65966,"lon":-117.42908}},{"facility":"1160.26.0256 Boehringer Ingelheim Investigational Site","city":"Tacoma","state":"Washington","country":"United States","geoPoint":{"lat":47.25288,"lon":-122.44429}},{"facility":"1160.26.0024 Boehringer Ingelheim Investigational Site","city":"Wenatchee","state":"Washington","country":"United States","geoPoint":{"lat":47.42346,"lon":-120.31035}},{"facility":"1160.26.0193 Boehringer Ingelheim Investigational Site","city":"Charleston","state":"West Virginia","country":"United States","geoPoint":{"lat":38.34982,"lon":-81.63262}},{"facility":"1160.26.0169 Boehringer Ingelheim Investigational Site","city":"Clarksburg","state":"West Virginia","country":"United States","geoPoint":{"lat":39.28065,"lon":-80.34453}},{"facility":"1160.26.0365 Boehringer Ingelheim Investigational Site","city":"Huntington","state":"West Virginia","country":"United States","geoPoint":{"lat":38.41925,"lon":-82.44515}},{"facility":"1160.26.0072 Boehringer Ingelheim Investigational Site","city":"Elkhorn","state":"Wisconsin","country":"United States","geoPoint":{"lat":42.67279,"lon":-88.54454}},{"facility":"1160.26.0234 Boehringer Ingelheim Investigational Site","city":"Green Bay","state":"Wisconsin","country":"United States","geoPoint":{"lat":44.51916,"lon":-88.01983}},{"facility":"1160.26.0099 Boehringer Ingelheim Investigational Site","city":"Madison","state":"Wisconsin","country":"United States","geoPoint":{"lat":43.07305,"lon":-89.40123}},{"facility":"1160.26.0242 Boehringer Ingelheim Investigational Site","city":"Madison","state":"Wisconsin","country":"United States","geoPoint":{"lat":43.07305,"lon":-89.40123}},{"facility":"1160.26.0359 Boehringer Ingelheim Investigational Site","city":"Marshfield","state":"Wisconsin","country":"United States","geoPoint":{"lat":44.66885,"lon":-90.1718}},{"facility":"1160.26.0461 Boehringer Ingelheim Investigational Site","city":"Milwaukee","state":"Wisconsin","country":"United States","geoPoint":{"lat":43.0389,"lon":-87.90647}},{"facility":"1160.26.0523 Boehringer Ingelheim Investigational Site","city":"Baha Blanca","country":"Argentina","geoPoint":{"lat":-38.71959,"lon":-62.27243}},{"facility":"1160.26.0524 Boehringer Ingelheim Investigational Site","city":"Capital Federal","country":"Argentina","geoPoint":{"lat":-34.61315,"lon":-58.37723}},{"facility":"1160.26.0533 Boehringer Ingelheim Investigational Site","city":"Capital Federal","country":"Argentina","geoPoint":{"lat":-34.61315,"lon":-58.37723}},{"facility":"1160.26.0526 Boehringer Ingelheim Investigational Site","city":"Cipolletti","country":"Argentina","geoPoint":{"lat":-38.93392,"lon":-67.99032}},{"facility":"1160.26.0529 Boehringer Ingelheim Investigational Site","city":"Coronel Surez","country":"Argentina","geoPoint":{"lat":-37.45467,"lon":-61.93343}},{"facility":"1160.26.0531 Boehringer Ingelheim Investigational Site","city":"Crdoba","country":"Argentina","geoPoint":{"lat":-31.4135,"lon":-64.18105}},{"facility":"1160.26.0530 Boehringer Ingelheim Investigational Site","city":"La Plata","country":"Argentina","geoPoint":{"lat":-34.92145,"lon":-57.95453}},{"facility":"1160.26.0527 Boehringer Ingelheim Investigational Site","city":"Mar del Plata","country":"Argentina","geoPoint":{"lat":-38.00228,"lon":-57.55754}},{"facility":"1160.26.0532 Boehringer Ingelheim Investigational Site","city":"Mar del Plata","country":"Argentina","geoPoint":{"lat":-38.00228,"lon":-57.55754}},{"facility":"1160.26.0525 Boehringer Ingelheim Investigational Site","city":"Quilmes","country":"Argentina","geoPoint":{"lat":-34.72904,"lon":-58.26374}},{"facility":"1160.26.0521 Boehringer Ingelheim Investigational Site","city":"Rosario","country":"Argentina","geoPoint":{"lat":-32.94682,"lon":-60.63932}},{"facility":"1160.26.0528 Boehringer Ingelheim Investigational Site","city":"Salta","country":"Argentina","geoPoint":{"lat":-24.7859,"lon":-65.41166}},{"facility":"1160.26.0522 Boehringer Ingelheim Investigational Site","city":"Santa Fe","country":"Argentina","geoPoint":{"lat":-31.63333,"lon":-60.7}},{"facility":"1160.26.0508 Boehringer Ingelheim Investigational Site","city":"Coffs Harbour","state":"New South Wales","country":"Australia","geoPoint":{"lat":-30.29626,"lon":153.11351}},{"facility":"1160.26.0510 Boehringer Ingelheim Investigational Site","city":"Gosford","state":"New South Wales","country":"Australia","geoPoint":{"lat":-33.4244,"lon":151.34399}},{"facility":"1160.26.0505 Boehringer Ingelheim Investigational Site","city":"Herston","state":"Queensland","country":"Australia","geoPoint":{"lat":-27.44453,"lon":153.01852}},{"facility":"1160.26.0506 Boehringer Ingelheim Investigational Site","city":"Milton","state":"Queensland","country":"Australia","geoPoint":{"lat":-35.31644,"lon":150.4361}},{"facility":"1160.26.0509 Boehringer Ingelheim Investigational Site","city":"Ashford","state":"South Australia","country":"Australia","geoPoint":{"lat":-29.32191,"lon":151.09308}},{"facility":"1160.26.0507 Boehringer Ingelheim Investigational Site","city":"Launceston","state":"Tasmania","country":"Australia","geoPoint":{"lat":-41.43876,"lon":147.13467}},{"facility":"1160.26.0504 Boehringer Ingelheim Investigational Site","city":"Box Hill","state":"Victoria","country":"Australia","geoPoint":{"lat":-37.81887,"lon":145.12545}},{"facility":"1160.26.0501 Boehringer Ingelheim Investigational Site","city":"Geelong","state":"Victoria","country":"Australia","geoPoint":{"lat":-38.14711,"lon":144.36069}},{"facility":"1160.26.0502 Boehringer Ingelheim Investigational Site","city":"Parkville","state":"Victoria","country":"Australia","geoPoint":{"lat":-37.78333,"lon":144.95}},{"facility":"1160.26.0503 Boehringer Ingelheim Investigational Site","city":"Prahran","state":"Victoria","country":"Australia","geoPoint":{"lat":-37.85114,"lon":144.99318}},{"facility":"1160.26.0543 Boehringer Ingelheim Investigational Site","city":"Graz","country":"Austria","geoPoint":{"lat":47.06667,"lon":15.45}},{"facility":"1160.26.0549 Boehringer Ingelheim Investigational Site","city":"Linz","country":"Austria","geoPoint":{"lat":48.30639,"lon":14.28611}},{"facility":"1160.26.0546 Boehringer Ingelheim Investigational Site","city":"Wels","country":"Austria","geoPoint":{"lat":48.16667,"lon":14.03333}},{"facility":"1160.26.0541 Boehringer Ingelheim Investigational Site","city":"Wien","country":"Austria","geoPoint":{"lat":48.20849,"lon":16.37208}},{"facility":"1160.26.0542 Boehringer Ingelheim Investigational Site","city":"Wien","country":"Austria","geoPoint":{"lat":48.20849,"lon":16.37208}},{"facility":"1160.26.0544 Boehringer Ingelheim Investigational Site","city":"Wien","country":"Austria","geoPoint":{"lat":48.20849,"lon":16.37208}},{"facility":"1160.26.0545 Boehringer Ingelheim Investigational Site","city":"Wien","country":"Austria","geoPoint":{"lat":48.20849,"lon":16.37208}},{"facility":"1160.26.0547 Boehringer Ingelheim Investigational Site","city":"Wien","country":"Austria","geoPoint":{"lat":48.20849,"lon":16.37208}},{"facility":"1160.26.0548 Boehringer Ingelheim Investigational Site","city":"Wien","country":"Austria","geoPoint":{"lat":48.20849,"lon":16.37208}},{"facility":"1160.26.0550 Boehringer Ingelheim Investigational Site","city":"Wr. Neustadt","country":"Austria","geoPoint":{"lat":47.80484,"lon":16.23201}},{"facility":"1160.26.0564 Boehringer Ingelheim Investigational Site","city":"Aalst","country":"Belgium","geoPoint":{"lat":50.93604,"lon":4.0355}},{"facility":"1160.26.0573 Boehringer Ingelheim Investigational Site","city":"Antwerpen","country":"Belgium","geoPoint":{"lat":51.21989,"lon":4.40346}},{"facility":"1160.26.0575 Boehringer Ingelheim Investigational Site","city":"Antwerpen","country":"Belgium","geoPoint":{"lat":51.21989,"lon":4.40346}},{"facility":"1160.26.0572 Boehringer Ingelheim Investigational Site","city":"Brasschaat","country":"Belgium","geoPoint":{"lat":51.2912,"lon":4.49182}},{"facility":"1160.26.0577 Boehringer Ingelheim Investigational Site","city":"Brugge","country":"Belgium","geoPoint":{"lat":51.20892,"lon":3.22424}},{"facility":"1160.26.0571 Boehringer Ingelheim Investigational Site","city":"Brussels","country":"Belgium","geoPoint":{"lat":50.85045,"lon":4.34878}},{"facility":"1160.26.0581 Boehringer Ingelheim Investigational Site","city":"Bruxelles","country":"Belgium","geoPoint":{"lat":50.85045,"lon":4.34878}},{"facility":"1160.26.0585 Boehringer Ingelheim Investigational Site","city":"Bruxelles","country":"Belgium","geoPoint":{"lat":50.85045,"lon":4.34878}},{"facility":"1160.26.0586 Boehringer Ingelheim Investigational Site","city":"Bruxelles","country":"Belgium","geoPoint":{"lat":50.85045,"lon":4.34878}},{"facility":"1160.26.0563 Boehringer Ingelheim Investigational Site","city":"Edegem","country":"Belgium","geoPoint":{"lat":51.15662,"lon":4.44504}},{"facility":"1160.26.0578 Boehringer Ingelheim Investigational Site","city":"Genk","country":"Belgium","geoPoint":{"lat":50.965,"lon":5.50082}},{"facility":"1160.26.0587 Boehringer Ingelheim Investigational Site","city":"Genk","country":"Belgium","geoPoint":{"lat":50.965,"lon":5.50082}},{"facility":"1160.26.0574 Boehringer Ingelheim Investigational Site","city":"Gent","country":"Belgium","geoPoint":{"lat":51.05,"lon":3.71667}},{"facility":"1160.26.0588 Boehringer Ingelheim Investigational Site","city":"Gilly","country":"Belgium","geoPoint":{"lat":50.42449,"lon":4.4789}},{"facility":"1160.26.0580 Boehringer Ingelheim Investigational Site","city":"Haine-St.-Paul","country":"Belgium","geoPoint":{"lat":50.46185,"lon":4.1767}},{"facility":"1160.26.0568 Boehringer Ingelheim Investigational Site","city":"Hasselt","country":"Belgium","geoPoint":{"lat":50.93106,"lon":5.33781}},{"facility":"1160.26.0569 Boehringer Ingelheim Investigational Site","city":"Kortrijk","country":"Belgium","geoPoint":{"lat":50.82803,"lon":3.26487}},{"facility":"1160.26.0561 Boehringer Ingelheim Investigational Site","city":"Leuven","country":"Belgium","geoPoint":{"lat":50.87959,"lon":4.70093}},{"facility":"1160.26.0579 Boehringer Ingelheim Investigational Site","city":"Lige","country":"Belgium","geoPoint":{"lat":50.63373,"lon":5.56749}},{"facility":"1160.26.0583 Boehringer Ingelheim Investigational Site","city":"Lige","country":"Belgium","geoPoint":{"lat":50.63373,"lon":5.56749}},{"facility":"1160.26.0589 Boehringer Ingelheim Investigational Site","city":"Mol","country":"Belgium","geoPoint":{"lat":51.19188,"lon":5.11662}},{"facility":"1160.26.0567 Boehringer Ingelheim Investigational Site","city":"Oostende","country":"Belgium","geoPoint":{"lat":51.21551,"lon":2.927}},{"facility":"1160.26.0570 Boehringer Ingelheim Investigational Site","city":"Roeselare","country":"Belgium","geoPoint":{"lat":50.94653,"lon":3.12269}},{"facility":"1160.26.0566 Boehringer Ingelheim Investigational Site","city":"Tienen","country":"Belgium","geoPoint":{"lat":50.80745,"lon":4.9378}},{"facility":"1160.26.0562 Boehringer Ingelheim Investigational Site","city":"Turnhout","country":"Belgium","geoPoint":{"lat":51.32254,"lon":4.94471}},{"facility":"1160.26.550648 Boehringer Ingelheim Investigational Site","city":"Belo Horizonte","country":"Brazil","geoPoint":{"lat":-19.92083,"lon":-43.93778}},{"facility":"1160.26.550654 Boehringer Ingelheim Investigational Site","city":"Blumenau","country":"Brazil","geoPoint":{"lat":-26.91944,"lon":-49.06611}},{"facility":"1160.26.550644 Boehringer Ingelheim Investigational Site","city":"Campinas","country":"Brazil","geoPoint":{"lat":-22.90556,"lon":-47.06083}},{"facility":"1160.26.550650 Boehringer Ingelheim Investigational Site","city":"Curitiba","country":"Brazil","geoPoint":{"lat":-25.42778,"lon":-49.27306}},{"facility":"1160.26.550651 Boehringer Ingelheim Investigational Site","city":"Curitiba","country":"Brazil","geoPoint":{"lat":-25.42778,"lon":-49.27306}},{"facility":"1160.26.550653 Boehringer Ingelheim Investigational Site","city":"Curitiba","country":"Brazil","geoPoint":{"lat":-25.42778,"lon":-49.27306}},{"facility":"1160.26.550652 Boehringer Ingelheim Investigational Site","city":"Goiania","country":"Brazil","geoPoint":{"lat":-16.67861,"lon":-49.25389}},{"facility":"1160.26.550645 Boehringer Ingelheim Investigational Site","city":"Marlia","country":"Brazil","geoPoint":{"lat":-22.21389,"lon":-49.94583}},{"facility":"1160.26.550646 Boehringer Ingelheim Investigational Site","city":"So Jos do Rio Preto","country":"Brazil","geoPoint":{"lat":-20.81972,"lon":-49.37944}},{"facility":"1160.26.550647 Boehringer Ingelheim Investigational Site","city":"So Jos do Rio Preto","country":"Brazil","geoPoint":{"lat":-20.81972,"lon":-49.37944}},{"facility":"1160.26.550641 Boehringer Ingelheim Investigational Site","city":"So Paulo","country":"Brazil","geoPoint":{"lat":-23.5475,"lon":-46.63611}},{"facility":"1160.26.550642 Boehringer Ingelheim Investigational Site","city":"So Paulo","country":"Brazil","geoPoint":{"lat":-23.5475,"lon":-46.63611}},{"facility":"1160.26.550643 Boehringer Ingelheim Investigational Site","city":"So Paulo","country":"Brazil","geoPoint":{"lat":-23.5475,"lon":-46.63611}},{"facility":"1160.26.550649 Boehringer Ingelheim Investigational Site","city":"Uberaba","country":"Brazil","geoPoint":{"lat":-19.74833,"lon":-47.93194}},{"facility":"1160.26.0620 Boehringer Ingelheim Investigational Site","city":"Pleven","country":"Bulgaria","geoPoint":{"lat":43.41667,"lon":24.61667}},{"facility":"1160.26.0611 Boehringer Ingelheim Investigational Site","city":"Sofia","country":"Bulgaria","geoPoint":{"lat":42.69751,"lon":23.32415}},{"facility":"1160.26.0612 Boehringer Ingelheim Investigational Site","city":"Sofia","country":"Bulgaria","geoPoint":{"lat":42.69751,"lon":23.32415}},{"facility":"1160.26.0613 Boehringer Ingelheim Investigational Site","city":"Sofia","country":"Bulgaria","geoPoint":{"lat":42.69751,"lon":23.32415}},{"facility":"1160.26.0614 Boehringer Ingelheim Investigational Site","city":"Sofia","country":"Bulgaria","geoPoint":{"lat":42.69751,"lon":23.32415}},{"facility":"1160.26.0615 Boehringer Ingelheim Investigational Site","city":"Sofia","country":"Bulgaria","geoPoint":{"lat":42.69751,"lon":23.32415}},{"facility":"1160.26.0616 Boehringer Ingelheim Investigational Site","city":"Sofia","country":"Bulgaria","geoPoint":{"lat":42.69751,"lon":23.32415}},{"facility":"1160.26.0617 Boehringer Ingelheim Investigational Site","city":"Sofia","country":"Bulgaria","geoPoint":{"lat":42.69751,"lon":23.32415}},{"facility":"1160.26.0618 Boehringer Ingelheim Investigational Site","city":"Sofia","country":"Bulgaria","geoPoint":{"lat":42.69751,"lon":23.32415}},{"facility":"1160.26.0622 Boehringer Ingelheim Investigational Site","city":"Sofia","country":"Bulgaria","geoPoint":{"lat":42.69751,"lon":23.32415}},{"facility":"1160.26.0623 Boehringer Ingelheim Investigational Site","city":"Sofia","country":"Bulgaria","geoPoint":{"lat":42.69751,"lon":23.32415}},{"facility":"1160.26.0624 Boehringer Ingelheim Investigational Site","city":"Sofia","country":"Bulgaria","geoPoint":{"lat":42.69751,"lon":23.32415}},{"facility":"1160.26.0625 Boehringer Ingelheim Investigational Site","city":"Sofia","country":"Bulgaria","geoPoint":{"lat":42.69751,"lon":23.32415}},{"facility":"1160.26.0626 Boehringer Ingelheim Investigational Site","city":"Stara Zagora","country":"Bulgaria","geoPoint":{"lat":42.43278,"lon":25.64194}},{"facility":"1160.26.0621 Boehringer Ingelheim Investigational Site","city":"Varna","country":"Bulgaria","geoPoint":{"lat":43.21667,"lon":27.91667}},{"facility":"1160.26.0694 Boehringer Ingelheim Investigational Site","city":"Calgary","state":"Alberta","country":"Canada","geoPoint":{"lat":51.05011,"lon":-114.08529}},{"facility":"1160.26.0696 Boehringer Ingelheim Investigational Site","city":"Calgary","state":"Alberta","country":"Canada","geoPoint":{"lat":51.05011,"lon":-114.08529}},{"facility":"1160.26.0680 Boehringer Ingelheim Investigational Site","city":"Coquitlam","state":"British Columbia","country":"Canada","geoPoint":{"lat":49.28297,"lon":-122.75262}},{"facility":"1160.26.0712 Boehringer Ingelheim Investigational Site","city":"Coquitlam","state":"British Columbia","country":"Canada","geoPoint":{"lat":49.28297,"lon":-122.75262}},{"facility":"1160.26.0706 Boehringer Ingelheim Investigational Site","city":"Kelowna","state":"British Columbia","country":"Canada","geoPoint":{"lat":49.88307,"lon":-119.48568}},{"facility":"1160.26.0725 Boehringer Ingelheim Investigational Site","city":"Nanaimo","state":"British Columbia","country":"Canada","geoPoint":{"lat":49.16638,"lon":-123.94003}},{"facility":"1160.26.0691 Boehringer Ingelheim Investigational Site","city":"New Westminster","state":"British Columbia","country":"Canada","geoPoint":{"lat":49.20678,"lon":-122.91092}},{"facility":"1160.26.0714 Boehringer Ingelheim Investigational Site","city":"Victoria","state":"British Columbia","country":"Canada","geoPoint":{"lat":48.43294,"lon":-123.3693}},{"facility":"1160.26.0701 Boehringer Ingelheim Investigational Site","city":"Portage la Prairie","state":"Manitoba","country":"Canada","geoPoint":{"lat":49.97282,"lon":-98.29263}},{"facility":"1160.26.0698 Boehringer Ingelheim Investigational Site","city":"Winnipeg","state":"Manitoba","country":"Canada","geoPoint":{"lat":49.8844,"lon":-97.14704}},{"facility":"1160.26.0707 Boehringer Ingelheim Investigational Site","city":"Bay Roberts","state":"Newfoundland and Labrador","country":"Canada","geoPoint":{"lat":47.59989,"lon":-53.26478}},{"facility":"1160.26.0676 Boehringer Ingelheim Investigational Site","city":"Antigonish","state":"Nova Scotia","country":"Canada","geoPoint":{"lat":45.61685,"lon":-61.99858}},{"facility":"1160.26.0703 Boehringer Ingelheim Investigational Site","city":"Halifax","state":"Nova Scotia","country":"Canada","geoPoint":{"lat":44.64533,"lon":-63.57239}},{"facility":"1160.26.0679 Boehringer Ingelheim Investigational Site","city":"Ajax","state":"Ontario","country":"Canada","geoPoint":{"lat":43.85012,"lon":-79.03288}},{"facility":"1160.26.0677 Boehringer Ingelheim Investigational Site","city":"Brampton","state":"Ontario","country":"Canada","geoPoint":{"lat":43.68341,"lon":-79.76633}},{"facility":"1160.26.0674 Boehringer Ingelheim Investigational Site","city":"Burlington","state":"Ontario","country":"Canada","geoPoint":{"lat":43.38621,"lon":-79.83713}},{"facility":"1160.26.0702 Boehringer Ingelheim Investigational Site","city":"Cambridge","state":"Ontario","country":"Canada","geoPoint":{"lat":43.3601,"lon":-80.31269}},{"facility":"1160.26.0720 Boehringer Ingelheim Investigational Site","city":"Cambridge","state":"Ontario","country":"Canada","geoPoint":{"lat":43.3601,"lon":-80.31269}},{"facility":"1160.26.0671 Clinical Research & Diagnostic Solutions Inc.","city":"Etobicoke","state":"Ontario","country":"Canada","geoPoint":{"lat":43.65421,"lon":-79.56711}},{"facility":"1160.26.0692 Boehringer Ingelheim Investigational Site","city":"Grimsby","state":"Ontario","country":"Canada","geoPoint":{"lat":43.20011,"lon":-79.56631}},{"facility":"1160.26.0685 Boehringer Ingelheim Investigational Site","city":"Hamilton","state":"Ontario","country":"Canada","geoPoint":{"lat":43.25011,"lon":-79.84963}},{"facility":"1160.26.0697 Boehringer Ingelheim Investigational Site","city":"Hamilton","state":"Ontario","country":"Canada","geoPoint":{"lat":43.25011,"lon":-79.84963}},{"facility":"1160.26.0710 Boehringer Ingelheim Investigational Site","city":"Hamilton","state":"Ontario","country":"Canada","geoPoint":{"lat":43.25011,"lon":-79.84963}},{"facility":"1160.26.0719 Boehringer Ingelheim Investigational Site","city":"Hamilton","state":"Ontario","country":"Canada","geoPoint":{"lat":43.25011,"lon":-79.84963}},{"facility":"1160.26.0721 Boehringer Ingelheim Investigational Site","city":"Hamilton","state":"Ontario","country":"Canada","geoPoint":{"lat":43.25011,"lon":-79.84963}},{"facility":"1160.26.0689 Boehringer Ingelheim Investigational Site","city":"Kitchener","state":"Ontario","country":"Canada","geoPoint":{"lat":43.42537,"lon":-80.5112}},{"facility":"1160.26.0695 Boehringer Ingelheim Investigational Site","city":"Mississauga","state":"Ontario","country":"Canada","geoPoint":{"lat":43.5789,"lon":-79.6583}},{"facility":"1160.26.0708 Boehringer Ingelheim Investigational Site","city":"Mississauga","state":"Ontario","country":"Canada","geoPoint":{"lat":43.5789,"lon":-79.6583}},{"facility":"1160.26.0724 Boehringer Ingelheim Investigational Site","city":"Mississauga","state":"Ontario","country":"Canada","geoPoint":{"lat":43.5789,"lon":-79.6583}},{"facility":"1160.26.0688 Boehringer Ingelheim Investigational Site","city":"Newmarket","state":"Ontario","country":"Canada","geoPoint":{"lat":44.05011,"lon":-79.46631}},{"facility":"1160.26.0672 Boehringer Ingelheim Investigational Site","city":"Oshawa","state":"Ontario","country":"Canada","geoPoint":{"lat":43.90012,"lon":-78.84957}},{"facility":"1160.26.0687 Boehringer Ingelheim Investigational Site","city":"Ottawa","state":"Ontario","country":"Canada","geoPoint":{"lat":45.41117,"lon":-75.69812}},{"facility":"1160.26.0723 Boehringer Ingelheim Investigational Site","city":"Scarborough","state":"Ontario","country":"Canada","geoPoint":{"lat":43.77223,"lon":-79.25666}},{"facility":"1160.26.0715 Boehringer Ingelheim Investigational Site","city":"Sudbury","state":"Ontario","country":"Canada","geoPoint":{"lat":46.49,"lon":-80.99001}},{"facility":"1160.26.0690 Boehringer Ingelheim Investigational Site","city":"Thunder Bay","state":"Ontario","country":"Canada","geoPoint":{"lat":48.38202,"lon":-89.25018}},{"facility":"1160.26.0684 Boehringer Ingelheim Investigational Site","city":"Toronto","state":"Ontario","country":"Canada","geoPoint":{"lat":43.70011,"lon":-79.4163}},{"facility":"1160.26.0718 Boehringer Ingelheim Investigational Site","city":"Toronto","state":"Ontario","country":"Canada","geoPoint":{"lat":43.70011,"lon":-79.4163}},{"facility":"1160.26.0711 Boehringer Ingelheim Investigational Site","city":"Waterloo","state":"Ontario","country":"Canada","geoPoint":{"lat":43.4668,"lon":-80.51639}},{"facility":"1160.26.0686 Boehringer Ingelheim Investigational Site","city":"Windsor","state":"Ontario","country":"Canada","geoPoint":{"lat":42.30008,"lon":-83.01654}},{"facility":"1160.26.0693 Boehringer Ingelheim Investigational Site","city":"Longueuil","state":"Quebec","country":"Canada","geoPoint":{"lat":45.53121,"lon":-73.51806}},{"facility":"1160.26.0681 Boehringer Ingelheim Investigational Site","city":"Montreal","state":"Quebec","country":"Canada","geoPoint":{"lat":45.50884,"lon":-73.58781}},{"facility":"1160.26.0683 Boehringer Ingelheim Investigational Site","city":"Montreal","state":"Quebec","country":"Canada","geoPoint":{"lat":45.50884,"lon":-73.58781}},{"facility":"1160.26.0705 Boehringer Ingelheim Investigational Site","city":"Montreal","state":"Quebec","country":"Canada","geoPoint":{"lat":45.50884,"lon":-73.58781}},{"facility":"1160.26.0709 Boehringer Ingelheim Investigational Site","city":"Montreal","state":"Quebec","country":"Canada","geoPoint":{"lat":45.50884,"lon":-73.58781}},{"facility":"1160.26.0716 Boehringer Ingelheim Investigational Site","city":"Montreal","state":"Quebec","country":"Canada","geoPoint":{"lat":45.50884,"lon":-73.58781}},{"facility":"1160.26.0717 Boehringer Ingelheim Investigational Site","city":"Quebec City","state":"Quebec","country":"Canada","geoPoint":{"lat":46.81228,"lon":-71.21454}},{"facility":"1160.26.0713 Boehringer Ingelheim Investigational Site","city":"Saint George-de-Beauce","state":"Quebec","country":"Canada"},{"facility":"1160.26.0704 Boehringer Ingelheim Investigational Site","city":"Saint Jerome","state":"Quebec","country":"Canada","geoPoint":{"lat":45.78036,"lon":-74.00365}},{"facility":"1160.26.0699 Boehringer Ingelheim Investigational Site","city":"St. Charles-Borromee","state":"Quebec","country":"Canada","geoPoint":{"lat":46.05007,"lon":-73.46586}},{"facility":"1160.26.0675 Boehringer Ingelheim Investigational Site","city":"St. Hyacinthe","state":"Quebec","country":"Canada","geoPoint":{"lat":45.63076,"lon":-72.95699}},{"facility":"1160.26.0700 Boehringer Ingelheim Investigational Site","city":"Ste-Foy","state":"Quebec","country":"Canada","geoPoint":{"lat":46.75615,"lon":-71.29543}},{"facility":"1160.26.0682 Boehringer Ingelheim Investigational Site","city":"Terrebonne (Lachenaie)","state":"Quebec","country":"Canada"},{"facility":"1160.26.0673 Boehringer Ingelheim Investigational Site","city":"Saskatoon","state":"Saskatchewan","country":"Canada","geoPoint":{"lat":52.13238,"lon":-106.66892}},{"facility":"1160.26.0678 Boehringer Ingelheim Investigational Site","city":"Saskatoon","state":"Saskatchewan","country":"Canada","geoPoint":{"lat":52.13238,"lon":-106.66892}},{"facility":"1160.26.0771 Boehringer Ingelheim Investigational Site","city":"Beijing","country":"China","geoPoint":{"lat":39.9075,"lon":116.39723}},{"facility":"1160.26.0772 Boehringer Ingelheim Investigational Site","city":"Beijing","country":"China","geoPoint":{"lat":39.9075,"lon":116.39723}},{"facility":"1160.26.0773 Boehringer Ingelheim Investigational Site","city":"Beijing","country":"China","geoPoint":{"lat":39.9075,"lon":116.39723}},{"facility":"1160.26.0774 Boehringer Ingelheim Investigational Site","city":"Beijing","country":"China","geoPoint":{"lat":39.9075,"lon":116.39723}},{"facility":"1160.26.0775 Boehringer Ingelheim Investigational Site","city":"Beijing","country":"China","geoPoint":{"lat":39.9075,"lon":116.39723}},{"facility":"1160.26.0783 Boehringer Ingelheim Investigational Site","city":"Beijing","country":"China","geoPoint":{"lat":39.9075,"lon":116.39723}},{"facility":"1160.26.0784 Boehringer Ingelheim Investigational Site","city":"Hangzhou","country":"China","geoPoint":{"lat":30.29365,"lon":120.16142}},{"facility":"1160.26.0776 Boehringer Ingelheim Investigational Site","city":"Harbin","country":"China","geoPoint":{"lat":45.75,"lon":126.65}},{"facility":"1160.26.0778 Boehringer Ingelheim Investigational Site","city":"QingDao","country":"China","geoPoint":{"lat":36.06488,"lon":120.38042}},{"facility":"1160.26.0781 Boehringer Ingelheim Investigational Site","city":"Shanghai","country":"China","geoPoint":{"lat":31.22222,"lon":121.45806}},{"facility":"1160.26.0782 Boehringer Ingelheim Investigational Site","city":"Shanghai","country":"China","geoPoint":{"lat":31.22222,"lon":121.45806}},{"facility":"1160.26.0777 Boehringer Ingelheim Investigational Site","city":"Shenyang","country":"China","geoPoint":{"lat":41.79222,"lon":123.43278}},{"facility":"1160.26.0780 Boehringer Ingelheim Investigational Site","city":"Shijiazhuang","country":"China","geoPoint":{"lat":38.04139,"lon":114.47861}},{"facility":"1160.26.0801 Boehringer Ingelheim Investigational Site","city":"Bogot","country":"Colombia","geoPoint":{"lat":4.60971,"lon":-74.08175}},{"facility":"1160.26.0802 Boehringer Ingelheim Investigational Site","city":"Bogot","country":"Colombia","geoPoint":{"lat":4.60971,"lon":-74.08175}},{"facility":"1160.26.0803 Boehringer Ingelheim Investigational Site","city":"Bogot","country":"Colombia","geoPoint":{"lat":4.60971,"lon":-74.08175}},{"facility":"1160.26.0815 Boehringer Ingelheim Investigational Site","city":"Brno","country":"Czechia","geoPoint":{"lat":49.19522,"lon":16.60796}},{"facility":"1160.26.0816 Boehringer Ingelheim Investigational Site","city":"Brno","country":"Czechia","geoPoint":{"lat":49.19522,"lon":16.60796}},{"facility":"1160.26.0820 Boehringer Ingelheim Investigational Site","city":"Ostrava 1","country":"Czechia","geoPoint":{"lat":49.83465,"lon":18.28204}},{"facility":"1160.26.0818 Boehringer Ingelheim Investigational Site","city":"Pardubice","country":"Czechia","geoPoint":{"lat":50.04075,"lon":15.77659}},