{"protocolSection":{"identificationModule":{"nctId":"NCT04226547","orgStudyIdInfo":{"id":"10310"},"organization":{"fullName":"Abbott Medical Devices","class":"INDUSTRY"},"briefTitle":"Amplatzer Amulet LAAO vs. NOAC","officialTitle":"Clinical Trial of Atrial Fibrillation Patients Comparing Left Atrial Appendage Occlusion Therapy to Non-vitamin K Antagonist Oral Anticoagulants","acronym":"CATALYST"},"statusModule":{"statusVerifiedDate":"2024-01","overallStatus":"RECRUITING","expandedAccessInfo":{"hasExpandedAccess":false},"startDateStruct":{"date":"2020-07-07","type":"ACTUAL"},"primaryCompletionDateStruct":{"date":"2024-12","type":"ESTIMATED"},"completionDateStruct":{"date":"2029-04","type":"ESTIMATED"},"studyFirstSubmitDate":"2020-01-09","studyFirstSubmitQcDate":"2020-01-10","studyFirstPostDateStruct":{"date":"2020-01-13","type":"ACTUAL"},"lastUpdateSubmitDate":"2024-01-11","lastUpdatePostDateStruct":{"date":"2024-01-16","type":"ACTUAL"}},"sponsorCollaboratorsModule":{"responsibleParty":{"type":"SPONSOR"},"leadSponsor":{"name":"Abbott Medical Devices","class":"INDUSTRY"}},"oversightModule":{"oversightHasDmc":true,"isFdaRegulatedDrug":false,"isFdaRegulatedDevice":true,"isUnapprovedDevice":true},"descriptionModule":{"briefSummary":"The objective of this trial is to evaluate the safety and effectiveness of the Amulet LAA occluder compared to NOAC therapy in patients with non-valvular AF at increased risk for ischemic stroke and who are recommended for long-term NOAC therapy.\n\nThe clinical investigation is a prospective, randomized, multicenter active control worldwide trial. Subjects will be randomized in a 1:1 ratio between the Amulet LAA occlusion device (\"Device Group\") and a commercially available NOAC medication (\"Control Group\"). The choice of NOAC in the Control Group will be left to study physician discretion."},"conditionsModule":{"conditions":["Atrial Fibrillation","Stroke","Bleeding"]},"designModule":{"studyType":"INTERVENTIONAL","phases":["NA"],"designInfo":{"allocation":"RANDOMIZED","interventionModel":"PARALLEL","primaryPurpose":"TREATMENT","maskingInfo":{"masking":"SINGLE","whoMasked":["OUTCOMES_ASSESSOR"]}},"enrollmentInfo":{"count":2650,"type":"ESTIMATED"}},"armsInterventionsModule":{"armGroups":[{"label":"Device Group","type":"EXPERIMENTAL","description":"Randomized to Amplatzer Amulet LAA occluder","interventionNames":["Device: Left Atrial Appendage Occlusion (Amplatzer Amulet LAA Occluder)"]},{"label":"Control Group","type":"ACTIVE_COMPARATOR","description":"Randomized to NOAC","interventionNames":["Drug: Non-Vitamin K Oral Antagonists"]}],"interventions":[{"type":"DEVICE","name":"Left Atrial Appendage Occlusion (Amplatzer Amulet LAA Occluder)","description":"Implantation of an Amplatzer Amulet left atrial appendage occluder","armGroupLabels":["Device Group"],"otherNames":["Amplatzer Amulet LAA Occluder"]},{"type":"DRUG","name":"Non-Vitamin K Oral Antagonists","description":"Initiation or continuation of a NOAC drug","armGroupLabels":["Control Group"],"otherNames":["NOAC"]}]},"outcomesModule":{"primaryOutcomes":[{"measure":"Composite of ischemic stroke, systemic embolism, or cardiovascular (CV) mortality","description":"non-inferiority","timeFrame":"2 years"},{"measure":"Major bleeding or clinically relevant non-major bleeding (CRNMB) events, excluding procedure related events","description":"superiority","timeFrame":"2 years"},{"measure":"Composite of ischemic stroke or systemic embolism","description":"non-inferiority","timeFrame":"3 years"}],"secondaryOutcomes":[{"measure":"Major bleeding or CRNMB events","description":"non-inferiority","timeFrame":"2 years"},{"measure":"Major bleeding or CRNMB events","description":"superiority","timeFrame":"2 years"},{"measure":"Disabling or fatal strokes","description":"superiority","timeFrame":"2 years"}]},"eligibilityModule":{"eligibilityCriteria":"Inclusion Criteria:\n\n* Documented paroxysmal, persistent, or permanent non-valvular AF (documentation must include an electrocardiogram, Holter, or event recorder)\n* At high risk of stroke or systemic embolism, defined as a CHA2DS2-VASc score of ≥ 3\n* Eligible for long-term NOAC therapy\n* Able to comply with the required NOAC medication regimen if randomized to the Control Group\n* Able to comply with the required medication regimen post-device implant if subject is randomized to the Device Group or subject is a Roll-in\n* Able to understand, and is willing to provide, written informed consent to participate in the trial, prior to any clinical investigation related procedure or assessment\n* 18 years of age or older, or the age of legal consent\n* Able and willing to return for required follow-up visits and assessments\n\nExclusion Criteria:\n\n* Requires long-term OAC therapy for a condition other than AF\n* Planned cardiac intervention or surgery, which is invasive or requires sedation or anesthesia, within 3 months following randomization, other than study-related procedures such as LAAO and cardiac imaging (if applicable)\n* Known contraindication to, or allergic to, aspirin, clopidogrel, or OAC medication use\n* Indicated for P2Y12 platelet inhibitor for \\>1 year post-randomization\n* In the opinion of the investigator, is considered at high risk for general anesthesia and general anesthesia is planned for the study procedure\n* Has undergone atrial septal defect (ASD) repair or has an ASD closure device present\n* Has undergone patent foramen ovale (PFO) repair or has a PFO closure device implanted\n* Is implanted with a mechanical valve prosthesis\n* Is implanted with an inferior vena cava filter\n* History of rheumatic or congenital mitral valve heart disease\n* Has any of the customary contraindications for a percutaneous catheterization procedure (e.g. subject is too small to accommodate the ICE probe (if planned) or required catheters, or subject has active infection or bleeding disorder)\n* Customary contraindications for TEE/TOE (e.g., presence of esophageal varices, esophageal stricture, or history of esophageal cancer)\n* Experienced stroke or transient ischemic attack (TIA) within 90 days prior to randomization or implant procedure (as applicable)\n* Underwent any cardiac or non-cardiac intervention or surgery within 30 days prior to randomization\n* Underwent catheter ablation for AF or atrial flutter within 60 days prior to randomization\n* Experienced myocardial infarction within 90 days prior to randomization\n* New York Heart Association Class IV Congestive Heart Failure\n* Left ventricular ejection fraction ≤ 30% (per most recent assessment)\n* Symptomatic carotid disease (defined as \\> 50% lumen diameter narrowing on CTA, MRA, or TCD with symptoms of ipsilateral transient or visual TIA evidenced by amaurosis fugax, ipsilateral hemispheric TIAs or ipsilateral stroke); if subject has a history of carotid stent or endarterectomy the subject is eligible if there is \\< 50% lumen diameter narrowing\n* Has known intracranial atherosclerosis and/or intracranial small vessel disease (defined as 6 points on the Fazekas Scale)\n* Reversible cause of AF (i.e., secondary to thyroid disorders, acute alcohol intoxication, trauma, recent major surgical procedures)\n* History of idiopathic or recurrent venous thromboembolism\n* LAA is obliterated or surgically ligated\n* Thrombocytopenia (defined as \\< 50,000 platelets per microliter (\\<50 x 10\\^9 /L)or anemia (defined as hemoglobin \\< 10 g/dL) requiring transfusions\n* Hypersensitivity to any portion of the device material or individual components of the Amulet LAA occluder device (e.g., nickel allergy)\n* Actively enrolled in, or plans to enroll in, a concurrent clinical study in which the active treatment arm may confound the results of this trial\n* Is pregnant or breastfeeding, or pregnancy is planned during the course of the investigation\n* Active endocarditis or other infection producing bacteremia\n* Transient case of AF (i.e., never previously detected, provoked/induced by surgical or catheter manipulations, etc.)\n* Severe renal failure (estimated glomerular filtration rate \\<30 ml/min/1.73m2), but not on dialysis\n* Life expectancy is less than 2 years in the opinion of the Investigator\n* Presence of other anatomic or comorbid conditions, or other medical, social, or psychological conditions that, in the Investigator's opinion, could limit the subject's ability to participate in the clinical investigation or to comply with follow up requirements, or impact the scientific soundness of the clinical investigation results.","healthyVolunteers":false,"sex":"ALL","minimumAge":"18 Years","stdAges":["ADULT","OLDER_ADULT"]},"contactsLocationsModule":{"centralContacts":[{"name":"CATALYST Study Team","role":"CONTACT","phone":"(408) 845-0536","email":"catalyststudy@abbott.com"}],"overallOfficials":[{"name":"Vivek Reddy, MD","affiliation":"Mt. Sinai Medical Center","role":"PRINCIPAL_INVESTIGATOR"}],"locations":[{"facility":"University Hospital - Univ. of Alabama at Birmingham (UAB)","status":"RECRUITING","city":"Birmingham","state":"Alabama","zip":"35249","country":"United States","contacts":[{"name":"Dorothy Nieters","role":"CONTACT","phone":"205-975-4387","email":"dnieters@uabmc.edu"},{"name":"Mustafa Ahmed, MD","role":"PRINCIPAL_INVESTIGATOR"}],"geoPoint":{"lat":33.52066,"lon":-86.80249}},{"facility":"Heart Center Research, LLC","status":"RECRUITING","city":"Huntsville","state":"Alabama","zip":"35801","country":"United States","contacts":[{"name":"Cindy Abath","role":"CONTACT","phone":"256-519-8235","email":"cabath@theheartcenter.md"},{"name":"Scott Allison, MD","role":"PRINCIPAL_INVESTIGATOR"}],"geoPoint":{"lat":34.7304,"lon":-86.58594}},{"facility":"Arizona Cardiovascular Research Center","status":"RECRUITING","city":"Phoenix","state":"Arizona","zip":"85016","country":"United States","contacts":[{"name":"Revathy Vilasan","role":"CONTACT","email":"rvilasan@azheartrhythm.com"},{"name":"Vijendra Swarup, MD","role":"PRINCIPAL_INVESTIGATOR"}],"geoPoint":{"lat":33.44838,"lon":-112.07404}},{"facility":"Tucson Medical Center","status":"RECRUITING","city":"Tucson","state":"Arizona","zip":"85712","country":"United States","contacts":[{"name":"Mary Marsh","role":"CONTACT","phone":"520-324-4143","email":"Mary.Marsh@tmcaz.com"},{"name":"Thomas Waggoner, MD","role":"PRINCIPAL_INVESTIGATOR"}],"geoPoint":{"lat":32.22174,"lon":-110.92648}},{"facility":"Arrhythmia Research Group","status":"RECRUITING","city":"Jonesboro","state":"Arkansas","zip":"72401","country":"United States","contacts":[{"name":"Kayla Rubino","role":"CONTACT","phone":"870-935-6729","email":"krubino@dnairresearch.com"},{"name":"Devi Nair, MD","role":"PRINCIPAL_INVESTIGATOR"}],"geoPoint":{"lat":35.8423,"lon":-90.70428}},{"facility":"UAMS Medical Center","status":"ACTIVE_NOT_RECRUITING","city":"Little Rock","state":"Arkansas","zip":"72205","country":"United States","geoPoint":{"lat":34.74648,"lon":-92.28959}},{"facility":"Scripps Health","status":"RECRUITING","city":"La Jolla","state":"California","zip":"92037","country":"United States","contacts":[{"name":"Christina Nava","role":"CONTACT","phone":"858-824-5244","email":"Nava.Christina@scrippshealth.org"},{"name":"Matthew Price, MD","role":"PRINCIPAL_INVESTIGATOR"}],"geoPoint":{"lat":32.84727,"lon":-117.2742}},{"facility":"Kaiser Permanente Los Angeles Medical Center","status":"RECRUITING","city":"Los Angeles","state":"California","zip":"90027","country":"United States","contacts":[{"name":"Angeline Wong","role":"CONTACT","phone":"323-783-5081","email":"angeline.a.wong@kp.org"},{"name":"Nigel Gupta, MD","role":"PRINCIPAL_INVESTIGATOR"},{"name":"Somjot Brar, MD","role":"PRINCIPAL_INVESTIGATOR"}],"geoPoint":{"lat":34.05223,"lon":-118.24368}},{"facility":"Huntington Memorial Hospital","status":"RECRUITING","city":"Pasadena","state":"California","zip":"91109","country":"United States","contacts":[{"name":"Sadie Seto","role":"CONTACT","phone":"626-397-3882","email":"sadie.seto@huntingtonhospital.com"},{"name":"Mayer Rashtian, MD","role":"PRINCIPAL_INVESTIGATOR"}],"geoPoint":{"lat":34.14778,"lon":-118.14452}},{"facility":"Mercy Medical Group - Cardiology","status":"RECRUITING","city":"Sacramento","state":"California","zip":"95819","country":"United States","contacts":[{"name":"Svetlana Brazhnikova","role":"CONTACT","phone":"916-733-6290","email":"svetlana.brazhnikova@commonspirit.org"},{"name":"Arash Aryana, MD","role":"PRINCIPAL_INVESTIGATOR"}],"geoPoint":{"lat":38.58157,"lon":-121.4944}},{"facility":"University of California at San Diego (UCSD) Medical Center","status":"RECRUITING","city":"San Diego","state":"California","zip":"92103","country":"United States","contacts":[{"name":"Taylor Buchalla","role":"CONTACT","email":"tmbuchalla@health.ucsd.edu"},{"name":"Ryan Reeves, MD","role":"PRINCIPAL_INVESTIGATOR"}],"geoPoint":{"lat":32.71533,"lon":-117.15726}},{"facility":"South Denver Cardiology Associates PC","status":"ACTIVE_NOT_RECRUITING","city":"Littleton","state":"Colorado","zip":"80120","country":"United States","geoPoint":{"lat":39.61332,"lon":-105.01665}},{"facility":"MedStar Washington Hospital Center","status":"RECRUITING","city":"Washington","state":"District of Columbia","zip":"20010","country":"United States","contacts":[{"name":"Nebu Alexander","role":"CONTACT","phone":"202-877-0805","email":"Nebu.Alexander@medstar.net"},{"name":"John Wang, MD","role":"PRINCIPAL_INVESTIGATOR"}],"geoPoint":{"lat":38.89511,"lon":-77.03637}},{"facility":"AdventHealth Florida Cardiology - Altamonte Springs","status":"RECRUITING","city":"Altamonte Springs","state":"Florida","zip":"32701","country":"United States","contacts":[{"name":"Adrienne Diaz","role":"CONTACT","phone":"417-543-4000","email":"adrienne.diaz2@adventhealth.com"},{"name":"Nipun Arora, MD","role":"PRINCIPAL_INVESTIGATOR"}],"geoPoint":{"lat":28.66111,"lon":-81.36562}},{"facility":"St. Vincent's Medical Center","status":"RECRUITING","city":"Jacksonville","state":"Florida","zip":"32204","country":"United States","contacts":[{"name":"Nicole Neal","role":"CONTACT","phone":"904-308-1229","email":"nicole.magnes@ascension.org"},{"name":"Saumil Oza, MD","role":"PRINCIPAL_INVESTIGATOR"}],"geoPoint":{"lat":30.33218,"lon":-81.65565}},{"facility":"Baptist Medical Center","status":"RECRUITING","city":"Jacksonville","state":"Florida","zip":"32207","country":"United States","contacts":[{"name":"Doran Cassidy","role":"CONTACT","phone":"904-202-7218","email":"doran.cassidy@bmcjax.com"},{"name":"Pamela Rama, MD","role":"PRINCIPAL_INVESTIGATOR"}],"geoPoint":{"lat":30.33218,"lon":-81.65565}},{"facility":"AdventHealth Florida Cardiology - Lake Mary","status":"RECRUITING","city":"Lake Mary","state":"Florida","zip":"32746","country":"United States","contacts":[{"name":"Adrienne Diaz","role":"CONTACT","phone":"417-543-4000","email":"adrienne.diaz2@adventhealth.com"},{"name":"Nipun Arora, MD","role":"PRINCIPAL_INVESTIGATOR"}],"geoPoint":{"lat":28.75888,"lon":-81.31784}},{"facility":"NCH Healthcare System","status":"RECRUITING","city":"Naples","state":"Florida","zip":"34102","country":"United States","contacts":[{"name":"Linda Pastorius","role":"CONTACT","email":"linda.pastorius@nchmd.org"},{"name":"Dinesh Sharma, MD","role":"PRINCIPAL_INVESTIGATOR"}],"geoPoint":{"lat":26.14234,"lon":-81.79596}},{"facility":"AdventHealth Orlando","status":"RECRUITING","city":"Orlando","state":"Florida","zip":"32803","country":"United States","contacts":[{"name":"Adrienne Diaz","role":"CONTACT","phone":"417-543-4000","email":"adrienne.diaz2@adventhealth.com"},{"name":"Nipun Arora, MD","role":"PRINCIPAL_INVESTIGATOR"}],"geoPoint":{"lat":28.53834,"lon":-81.37924}},{"facility":"AdventHealth Florida Cardiology - Oviedo","status":"RECRUITING","city":"Oviedo","state":"Florida","zip":"32765","country":"United States","contacts":[{"name":"Adrienne Diaz","role":"CONTACT","phone":"417-543-4000","email":"adrienne.diaz2@adventhealth.com"},{"name":"Nipun Arora, MD","role":"PRINCIPAL_INVESTIGATOR"}],"geoPoint":{"lat":28.67,"lon":-81.20812}},{"facility":"Sarasota Memorial Hospital","status":"RECRUITING","city":"Sarasota","state":"Florida","zip":"34239","country":"United States","contacts":[{"name":"Colleen Lindner","role":"CONTACT","phone":"941-917-1669","email":"colleen-lindner@smh.com"},{"name":"Rajesh Malik, MD","role":"PRINCIPAL_INVESTIGATOR"}],"geoPoint":{"lat":27.33643,"lon":-82.53065}},{"facility":"Piedmont Heart Institute","status":"RECRUITING","city":"Atlanta","state":"Georgia","zip":"30309","country":"United States","contacts":[{"name":"Megan Kopp","role":"CONTACT","email":"megan.kopp@piedmont.org"},{"name":"Sandeep Goyal, MD","role":"PRINCIPAL_INVESTIGATOR"}],"geoPoint":{"lat":33.749,"lon":-84.38798}},{"facility":"Emory University Hospital","status":"RECRUITING","city":"Atlanta","state":"Georgia","zip":"30322","country":"United States","contacts":[{"name":"Cindy Barnes","role":"CONTACT","phone":"678-843-6093","email":"cynthia.barnes@emory.edu"},{"name":"David DeLurgio, MD","role":"PRINCIPAL_INVESTIGATOR"}],"geoPoint":{"lat":33.749,"lon":-84.38798}},{"facility":"Northside Hospital","status":"RECRUITING","city":"Atlanta","state":"Georgia","zip":"30342","country":"United States","contacts":[{"name":"Tamara Wakhisi","role":"CONTACT","phone":"404-236-8322","email":"tamara.wakhisi@northside.com"},{"name":"Alok Gambhir, MD","role":"PRINCIPAL_INVESTIGATOR"}],"geoPoint":{"lat":33.749,"lon":-84.38798}},{"facility":"Northside Hospital (CardioVascular Group Lawrenceville)","status":"RECRUITING","city":"Lawrenceville","state":"Georgia","zip":"30045","country":"United States","contacts":[{"name":"Tamara Wakhisi","role":"CONTACT","phone":"404-236-8322","email":"tamara.wakhisi@northside.com"},{"name":"Alok Gambhir, MD","role":"PRINCIPAL_INVESTIGATOR"}],"geoPoint":{"lat":33.95621,"lon":-83.98796}},{"facility":"Northwestern Memorial Hospital","status":"RECRUITING","city":"Chicago","state":"Illinois","zip":"60611","country":"United States","contacts":[{"name":"Amy Carswell","role":"CONTACT","phone":"312-926-7554","email":"amy.carswell@nm.org"},{"name":"Bradley Knight, MD","role":"PRINCIPAL_INVESTIGATOR"}],"geoPoint":{"lat":41.85003,"lon":-87.65005}},{"facility":"Rush University Medical Center","status":"RECRUITING","city":"Chicago","state":"Illinois","zip":"60612","country":"United States","contacts":[{"name":"Nusrat Jahan","role":"CONTACT","phone":"312-942-1630","email":"Nusrat_Jahan@rush.edu"},{"name":"Henry Huang, MD","role":"PRINCIPAL_INVESTIGATOR"}],"geoPoint":{"lat":41.85003,"lon":-87.65005}},{"facility":"Central DuPage Hospital","status":"RECRUITING","city":"Winfield","state":"Illinois","zip":"60190","country":"United States","contacts":[{"name":"Shameela Othman","role":"CONTACT","phone":"630-938-2995","email":"shameela.khan@nm.org"},{"name":"Bradley Knight, MD","role":"PRINCIPAL_INVESTIGATOR"}],"geoPoint":{"lat":41.8617,"lon":-88.1609}},{"facility":"Lutheran Hospital of Indiana","status":"RECRUITING","city":"Fort Wayne","state":"Indiana","zip":"46801","country":"United States","contacts":[{"name":"Terrie Ross","role":"CONTACT","phone":"260-458-3580","email":"tross2@lhn.net"},{"name":"Vijay Chilakamarri, MD","role":"PRINCIPAL_INVESTIGATOR"}],"geoPoint":{"lat":41.1306,"lon":-85.12886}},{"facility":"St. Vincent Hospital","status":"RECRUITING","city":"Indianapolis","state":"Indiana","zip":"46240","country":"United States","contacts":[{"name":"Elias Reisman","role":"CONTACT","phone":"317-583-6114","email":"elias.reisman@ascension.org"},{"name":"Jeffrey Olson, MD","role":"PRINCIPAL_INVESTIGATOR"}],"geoPoint":{"lat":39.76838,"lon":-86.15804}},{"facility":"Kansas University Medical Center","status":"RECRUITING","city":"Kansas City","state":"Kansas","zip":"66160","country":"United States","contacts":[{"name":"Denetta Nelson","role":"CONTACT","phone":"913-588-9679","email":"dnelson14@kumc.edu"},{"name":"Raghuveer Dendi, MD","role":"PRINCIPAL_INVESTIGATOR"}],"geoPoint":{"lat":39.11417,"lon":-94.62746}},{"facility":"Kansas City Cardiac Arrhythmia Research Foundation","status":"RECRUITING","city":"Overland Park","state":"Kansas","zip":"66211","country":"United States","contacts":[{"name":"Donita Atkins","role":"CONTACT","phone":"913-253-3064","email":"Donita.atkins@hcahealthcare.com"},{"name":"James Marcum, MD","role":"PRINCIPAL_INVESTIGATOR"}],"geoPoint":{"lat":38.98223,"lon":-94.67079}},{"facility":"Cardiovascular Research Institute of Kansas","status":"RECRUITING","city":"Wichita","state":"Kansas","zip":"67226","country":"United States","contacts":[{"name":"Meredith Thunberg","role":"CONTACT","phone":"316-219-4112","email":"Meredith.thunberg@cckheart.com"},{"name":"Aziz Maksoud, MD","role":"PRINCIPAL_INVESTIGATOR"}],"geoPoint":{"lat":37.69224,"lon":-97.33754}},{"facility":"Baptist Health Lexington","status":"RECRUITING","city":"Lexington","state":"Kentucky","zip":"40503","country":"United States","contacts":[{"name":"Julie Ayers","role":"CONTACT","phone":"859-260-4484","email":"julie.ayers@bhsi.com"},{"name":"Gery Tomassoni, MD","role":"PRINCIPAL_INVESTIGATOR"}],"geoPoint":{"lat":37.98869,"lon":-84.47772}},{"facility":"Louisiana Cardiology Associates","status":"RECRUITING","city":"Baton Rouge","state":"Louisiana","zip":"70808","country":"United States","contacts":[{"name":"Gretchen Figarola","role":"CONTACT","phone":"225-765-7659","email":"Gretchen.Figarola@fmolhs.org"},{"name":"Jorge Castellanos, MD","role":"PRINCIPAL_INVESTIGATOR"}],"geoPoint":{"lat":30.45075,"lon":-91.15455}},{"facility":"Cardiovascular Institute of the South","status":"RECRUITING","city":"Houma","state":"Louisiana","zip":"70361","country":"United States","contacts":[{"name":"Jennifer Aucoin","role":"CONTACT","phone":"985-873-5037","email":"jennifer.aucoin@cardio.com"},{"name":"Peter Fail, MD","role":"PRINCIPAL_INVESTIGATOR"}],"geoPoint":{"lat":29.59577,"lon":-90.71953}},{"facility":"MedStar Union Memorial Hospital","status":"RECRUITING","city":"Baltimore","state":"Maryland","zip":"21218","country":"United States","contacts":[{"name":"Keith Moyer","role":"CONTACT","phone":"443-278-9170","email":"keith.t.moyer@medstar.net"},{"name":"John Wang, MD","role":"PRINCIPAL_INVESTIGATOR"}],"geoPoint":{"lat":39.29038,"lon":-76.61219}},{"facility":"Tufts Medical Center","status":"RECRUITING","city":"Boston","state":"Massachusetts","zip":"02111","country":"United States","contacts":[{"name":"Jamie Rubinstein, MD","role":"CONTACT","phone":"617-636-7537","email":"jamie.rubinstein@tuftsmedicine.org"},{"name":"Carey Kimmelstiel, MD","role":"PRINCIPAL_INVESTIGATOR"}],"geoPoint":{"lat":42.35843,"lon":-71.05977}},{"facility":"Beth Israel Deaconess Medical Center","status":"RECRUITING","city":"Boston","state":"Massachusetts","zip":"02215","country":"United States","contacts":[{"name":"Jenifer Kaufman","role":"CONTACT","phone":"617-632-8956","email":"jmkaufma@bidmc.harvard.edu"},{"name":"Andre d'Avila, MD","role":"PRINCIPAL_INVESTIGATOR"}],"geoPoint":{"lat":42.35843,"lon":-71.05977}},{"facility":"Spectrum Health Butterworth Hospital","status":"RECRUITING","city":"Grand Rapids","state":"Michigan","zip":"49503","country":"United States","contacts":[{"name":"Elizabeth Helm","role":"CONTACT","phone":"616-486-2080","email":"elizabeth.helm@spectrumhealth.org"},{"name":"Duane Berkompas, MD","role":"PRINCIPAL_INVESTIGATOR"}],"geoPoint":{"lat":42.96336,"lon":-85.66809}},{"facility":"VA Medical Center Minneapolis","status":"RECRUITING","city":"Minneapolis","state":"Minnesota","zip":"55417","country":"United States","contacts":[{"name":"Jill Morgan","role":"CONTACT","phone":"612-467-2455","email":"Jill.Morgan2@va.gov"},{"name":"Venkatakrishna Tholakanahalli, MD","role":"PRINCIPAL_INVESTIGATOR"}],"geoPoint":{"lat":44.97997,"lon":-93.26384}},{"facility":"St. Cloud Hospital - Central MN Heart Clinic","status":"RECRUITING","city":"Saint Cloud","state":"Minnesota","zip":"56303","country":"United States","contacts":[{"name":"Peggy Dahl","role":"CONTACT","phone":"320-251-2700","email":"dahlp@centracare.com"},{"name":"Ben Johnson, MD","role":"PRINCIPAL_INVESTIGATOR"}],"geoPoint":{"lat":45.5608,"lon":-94.16249}},{"facility":"Jackson Heart Clinic","status":"RECRUITING","city":"Jackson","state":"Mississippi","zip":"39216","country":"United States","contacts":[{"name":"Jamie Neal","role":"CONTACT","phone":"601-982-7850","email":"jneal@jacksonheart.com"},{"name":"William Crowder, MD","role":"PRINCIPAL_INVESTIGATOR"}],"geoPoint":{"lat":32.29876,"lon":-90.18481}},{"facility":"CHI Health Creighton University Medical Center-Bergan Mercy","status":"RECRUITING","city":"Omaha","state":"Nebraska","zip":"68124","country":"United States","contacts":[{"name":"Mel Romsa","role":"CONTACT","phone":"402-343-8535","email":"mel.romsa@chihealth.com"},{"name":"Himanshu Agarwal, MD","role":"PRINCIPAL_INVESTIGATOR"}],"geoPoint":{"lat":41.25626,"lon":-95.94043}},{"facility":"Cooper University Hospital","status":"RECRUITING","city":"Camden","state":"New Jersey","zip":"08103","country":"United States","contacts":[{"name":"Claire Fisher","role":"CONTACT","phone":"856-342-2000","phoneExt":"10","email":"fisher-claire@CooperHealth.edu"},{"name":"Sajjad Sabir, MD","role":"PRINCIPAL_INVESTIGATOR"}],"geoPoint":{"lat":39.92595,"lon":-75.11962}},{"facility":"New Mexico Heart Institute","status":"RECRUITING","city":"Albuquerque","state":"New Mexico","zip":"87102","country":"United States","contacts":[{"name":"Alexandra Ortiz","role":"CONTACT","email":"Alexandra.Ortiz@lovelace.com"},{"name":"Michael Bestawros, MD","role":"PRINCIPAL_INVESTIGATOR"}],"geoPoint":{"lat":35.08449,"lon":-106.65114}},{"facility":"Buffalo General Hospital","status":"RECRUITING","city":"Buffalo","state":"New York","zip":"14203","country":"United States","contacts":[{"name":"Courtney Bishop","role":"CONTACT","phone":"716-888-4839","email":"cabishop@buffalo.edu"},{"name":"Vijay Iyer, MD","role":"PRINCIPAL_INVESTIGATOR"}],"geoPoint":{"lat":42.88645,"lon":-78.87837}},{"facility":"Mount Sinai Hospital","status":"RECRUITING","city":"New York","state":"New York","zip":"10019","country":"United States","contacts":[{"name":"Carla Perdomo Silva","role":"CONTACT","phone":"212-241-5214","email":"Carla.perdomosilva@mountsinai.org"},{"name":"Sean Kotkin, MD","role":"PRINCIPAL_INVESTIGATOR"}],"geoPoint":{"lat":40.71427,"lon":-74.00597}},{"facility":"New York Presbyterian Hospital/Cornell University","status":"RECRUITING","city":"New York","state":"New York","zip":"10021","country":"United States","contacts":[{"name":"Rose Spuhler","role":"CONTACT","phone":"212-746-4620","email":"ros4026@med.cornell.edu"},{"name":"Geoffrey Bergman, MD","role":"PRINCIPAL_INVESTIGATOR"}],"geoPoint":{"lat":40.71427,"lon":-74.00597}},{"facility":"Mission Health & Hospitals","status":"RECRUITING","city":"Asheville","state":"North Carolina","zip":"28801","country":"United States","contacts":[{"name":"Olivia Lim","role":"CONTACT","phone":"828-274-6000","email":"Olivia.Lim@HCAHealthcare.com"},{"name":"Johnathan Davidson, MD","role":"PRINCIPAL_INVESTIGATOR"}],"geoPoint":{"lat":35.60095,"lon":-82.55402}},{"facility":"NC Heart & Vascular Research","status":"RECRUITING","city":"Raleigh","state":"North Carolina","zip":"27607","country":"United States","contacts":[{"name":"Penny Robinson","role":"CONTACT","phone":"919-784-3476","email":"penny.robinson@unchealth.unc.edu"},{"name":"Willis Wu, MD","role":"PRINCIPAL_INVESTIGATOR"}],"geoPoint":{"lat":35.7721,"lon":-78.63861}},{"facility":"TriHealth Bethesda North Hospital","status":"RECRUITING","city":"Cincinnati","state":"Ohio","zip":"45242","country":"United States","contacts":[{"name":"Laurie Freel","role":"CONTACT","phone":"513-865-1148","email":"Laurie_Freel@trihealth.com"},{"name":"Gaurang Gandhi, MD","role":"PRINCIPAL_INVESTIGATOR"}],"geoPoint":{"lat":39.12713,"lon":-84.51435}},{"facility":"The Cleveland Clinic Foundation","status":"RECRUITING","city":"Cleveland","state":"Ohio","zip":"44195","country":"United States","contacts":[{"name":"Kathleen Davey","role":"CONTACT","email":"daveyk@ccf.org"},{"name":"Wael Jaber, MD","role":"PRINCIPAL_INVESTIGATOR"}],"geoPoint":{"lat":41.4995,"lon":-81.69541}},{"facility":"Hightower Clinical","status":"RECRUITING","city":"Oklahoma City","state":"Oklahoma","zip":"73102","country":"United States","contacts":[{"name":"Lily Bobbitt","role":"CONTACT","phone":"405-479-8331","email":"lily@hightowerclinical.com"},{"name":"John Summers, MD","role":"PRINCIPAL_INVESTIGATOR"}],"geoPoint":{"lat":35.46756,"lon":-97.51643}},{"facility":"Integris Baptist Medical Center","status":"WITHDRAWN","city":"Oklahoma City","state":"Oklahoma","zip":"73112","country":"United States","geoPoint":{"lat":35.46756,"lon":-97.51643}},{"facility":"Oklahoma Heart Institute at Utica","status":"RECRUITING","city":"Tulsa","state":"Oklahoma","zip":"74104","country":"United States","contacts":[{"name":"Lynette Tramell","role":"CONTACT","email":"Lynette.Tramell@oklahomaheart.com"},{"name":"Frank Gaffney, MD","role":"PRINCIPAL_INVESTIGATOR"}],"geoPoint":{"lat":36.15398,"lon":-95.99277}},{"facility":"Pinnacle Health System","status":"RECRUITING","city":"Harrisburg","state":"Pennsylvania","zip":"17105","country":"United States","contacts":[{"name":"Matthew Rutt","role":"CONTACT","phone":"717-531-8521","email":"ruttmd4@upmc.edu"},{"name":"Hemal Gada, MD","role":"PRINCIPAL_INVESTIGATOR"}],"geoPoint":{"lat":40.2737,"lon":-76.88442}},{"facility":"University of Pittsburgh Medical Center","status":"RECRUITING","city":"Pittsburgh","state":"Pennsylvania","zip":"15213","country":"United States","contacts":[{"name":"Susan Sweeny","role":"CONTACT","phone":"412-864-1420","email":"sweenysm@upmc.edu"},{"name":"Samir Saba, MD","role":"PRINCIPAL_INVESTIGATOR"}],"geoPoint":{"lat":40.44062,"lon":-79.99589}},{"facility":"WellSpan Health","status":"RECRUITING","city":"York","state":"Pennsylvania","zip":"17403","country":"United States","contacts":[{"name":"Christine Shaeffer","role":"CONTACT","phone":"717-851-3905","email":"cshaeffer@wellspan.org"},{"name":"Brian Schuler, MD","role":"PRINCIPAL_INVESTIGATOR"}],"geoPoint":{"lat":39.9626,"lon":-76.72774}},{"facility":"Roper Hospital","status":"RECRUITING","city":"Charleston","state":"South Carolina","zip":"29401","country":"United States","contacts":[{"name":"Zachary Lynett","role":"CONTACT","phone":"513-295-2875","email":"zachary.lynett@accellacare.com"},{"name":"Matthew O'Steen, MD","role":"PRINCIPAL_INVESTIGATOR"}],"geoPoint":{"lat":32.77657,"lon":-79.93092}},{"facility":"Sanford USD Medical Center","status":"RECRUITING","city":"Sioux Falls","state":"South Dakota","zip":"57117","country":"United States","contacts":[{"name":"Ashley Puetz","role":"CONTACT","phone":"605-328-1379","email":"ashley.puetz@sanfordhealth.org"},{"name":"Tomasz Stys, MD","role":"PRINCIPAL_INVESTIGATOR"}],"geoPoint":{"lat":43.54997,"lon":-96.70033}},{"facility":"Erlanger Medical Center","status":"RECRUITING","city":"Chattanooga","state":"Tennessee","zip":"37403","country":"United States","contacts":[{"name":"Parvathikumari Kasa","role":"CONTACT","phone":"423-208-0106","email":"Parvathikumari.Kasa@erlanger.org"},{"name":"Megan Coylewright, MD","role":"PRINCIPAL_INVESTIGATOR"}],"geoPoint":{"lat":35.04563,"lon":-85.30968}},{"facility":"Tennova Healthcare-Turkey Creek Medical Center","status":"RECRUITING","city":"Knoxville","state":"Tennessee","zip":"37920","country":"United States","contacts":[{"name":"Beth Polk","role":"CONTACT","phone":"865-218-7535","email":"beth.polk@tennova.com"},{"name":"Malcolm Foster, MD","role":"PRINCIPAL_INVESTIGATOR"}],"geoPoint":{"lat":35.96064,"lon":-83.92074}},{"facility":"Vanderbilt Heart & Vascular Institute","status":"RECRUITING","city":"Nashville","state":"Tennessee","zip":"37232","country":"United States","contacts":[{"name":"Jaime Rich","role":"CONTACT","email":"jaime.rich@vumc.org"},{"name":"Michael Baker, MD","role":"PRINCIPAL_INVESTIGATOR"}],"geoPoint":{"lat":36.16589,"lon":-86.78444}},{"facility":"Texas Cardiac Arrhythmia","status":"RECRUITING","city":"Austin","state":"Texas","zip":"78705","country":"United States","contacts":[{"name":"Deb Cardinal","role":"CONTACT","phone":"512-522-9410","email":"dscardinal@austinheartbeat.com"},{"name":"Rodney Horton, MD","role":"PRINCIPAL_INVESTIGATOR"}],"geoPoint":{"lat":30.26715,"lon":-97.74306}},{"facility":"Baylor All Saints Medical Center at Fort Worth","status":"RECRUITING","city":"Fort Worth","state":"Texas","zip":"76104","country":"United States","contacts":[{"name":"Kristina Perez","role":"CONTACT","phone":"817-922-2570","email":"kristina.perez@bswhealth.org"},{"name":"Scott Ewing, DO","role":"PRINCIPAL_INVESTIGATOR"}],"geoPoint":{"lat":32.72541,"lon":-97.32085}},{"facility":"Park Plaza Hospital","status":"RECRUITING","city":"Houston","state":"Texas","zip":"77004","country":"United States","contacts":[{"name":"Brianna De Roche","role":"CONTACT","phone":"713-416-2070","email":"Brianna.DeRoche@hcahealthcare.com"},{"name":"Pranav Loyalka, MD","role":"PRINCIPAL_INVESTIGATOR"}],"geoPoint":{"lat":29.76328,"lon":-95.36327}},{"facility":"CHI St. Luke's Health Baylor College of Medicine Med. Ctr.","status":"RECRUITING","city":"Houston","state":"Texas","zip":"77030","country":"United States","contacts":[{"name":"Stephen Harold","role":"CONTACT","email":"harold@bcm.edu"},{"name":"Abdi Rasekh, MD","role":"PRINCIPAL_INVESTIGATOR"}],"geoPoint":{"lat":29.76328,"lon":-95.36327}},{"facility":"Memorial Hermann Hospital","status":"RECRUITING","city":"Houston","state":"Texas","zip":"77030","country":"United States","contacts":[{"name":"Anna Menezes","role":"CONTACT","phone":"713-500-6569","email":"Anna.M.Menezes@uth.tmc.edu"},{"name":"Abhijeet Dhoble, MD","role":"PRINCIPAL_INVESTIGATOR"}],"geoPoint":{"lat":29.76328,"lon":-95.36327}},{"facility":"The Methodist Hospital","status":"RECRUITING","city":"Houston","state":"Texas","zip":"77030","country":"United States","contacts":[{"name":"Chinwe Ngumezi","role":"CONTACT","phone":"346-238-0290","email":"ccngumezi@houstonmethodist.org"},{"name":"Miguel Valderrabano, MD","role":"PRINCIPAL_INVESTIGATOR"}],"geoPoint":{"lat":29.76328,"lon":-95.36327}},{"facility":"Memorial Katy Cardiology Associates","status":"RECRUITING","city":"Houston","state":"Texas","zip":"77094","country":"United States","contacts":[{"name":"Madeline Peek","role":"CONTACT","email":"mpeek@practice-leadership.com"},{"name":"Amir Kashani, MD","role":"PRINCIPAL_INVESTIGATOR"}],"geoPoint":{"lat":29.76328,"lon":-95.36327}},{"facility":"The Heart Hospital Baylor Plano","status":"RECRUITING","city":"Plano","state":"Texas","zip":"75093","country":"United States","contacts":[{"name":"Lucy Knight","role":"CONTACT","phone":"469-814-4727","email":"Lucy.Knight@BSWHealth.org"},{"name":"Srinivasa Potluri, MD","role":"PRINCIPAL_INVESTIGATOR"}],"geoPoint":{"lat":33.01984,"lon":-96.69889}},{"facility":"Methodist Texsan Hospital","status":"RECRUITING","city":"San Antonio","state":"Texas","zip":"78201","country":"United States","contacts":[{"name":"Jayla Hatcher","role":"CONTACT","phone":"254-423-4059","email":"jayla.hatcher@hcahealthcare.com"},{"name":"Javier Roman-Gonzalez, MD","role":"PRINCIPAL_INVESTIGATOR"}],"geoPoint":{"lat":29.42412,"lon":-98.49363}},{"facility":"Heart Rhythm Associates","status":"NOT_YET_RECRUITING","city":"Shenandoah","state":"Texas","zip":"77380","country":"United States","contacts":[{"name":"Jessica Riddle","role":"CONTACT","phone":"936-537-8088","email":"jriddle@woodlandshra.com"},{"name":"George Manoukian, MD","role":"PRINCIPAL_INVESTIGATOR"}],"geoPoint":{"lat":30.18022,"lon":-95.45577}},{"facility":"Sentara Norfolk General Hospital","status":"RECRUITING","city":"Norfolk","state":"Virginia","zip":"23507","country":"United States","contacts":[{"name":"Linette Klevan","role":"CONTACT","phone":"757-434-4286","email":"Lrklevan@sentara.com"},{"name":"Venkat Iyer, MD","role":"PRINCIPAL_INVESTIGATOR"}],"geoPoint":{"lat":36.84681,"lon":-76.28522}},{"facility":"Medical College of Wisconsin","status":"RECRUITING","city":"Milwaukee","state":"Wisconsin","zip":"53226","country":"United States","contacts":[{"name":"Elizabeth Jeanes","role":"CONTACT","phone":"414-955-6901","email":"ejeanes@mcw.edu"},{"name":"James Oujiri, MD","role":"PRINCIPAL_INVESTIGATOR"}],"geoPoint":{"lat":43.0389,"lon":-87.90647}},{"facility":"Royal Adelaide Hospital","status":"RECRUITING","city":"Adelaide","state":"South Australia","zip":"5000","country":"Australia","contacts":[{"name":"Kate Thring","role":"CONTACT","phone":"61882026653","email":"kate.thring@advaraheartcare.com"},{"name":"Jamie Morton, MD","role":"PRINCIPAL_INVESTIGATOR"},{"name":"Glenn Young, Prof","role":"PRINCIPAL_INVESTIGATOR"}],"geoPoint":{"lat":-34.92866,"lon":138.59863}},{"facility":"Fiona Stanley Hospital","status":"RECRUITING","city":"Murdoch","state":"Western Australia","zip":"6150","country":"Australia","contacts":[{"name":"Gill Tulloch","role":"CONTACT","phone":"61861526604","email":"gill.tulloch@health.wa.gov.au"},{"name":"Vincent Paul, MD","role":"PRINCIPAL_INVESTIGATOR"}],"geoPoint":{"lat":-32.06987,"lon":115.83757}},{"facility":"Royal Melbourne Hospital - City Campus","status":"WITHDRAWN","city":"Parkville","zip":"3050","country":"Australia","geoPoint":{"lat":-37.78333,"lon":144.95}},{"facility":"Ottawa Heart Institute","status":"RECRUITING","city":"Ottawa","state":"Ontario","zip":"K1Y 4W7","country":"Canada","contacts":[{"name":"Lisa Robinson","role":"CONTACT","phone":"(613) 696-7000","email":"LiRobinson@ottawaheart.ca"},{"name":"Marino Labinaz, MD","role":"PRINCIPAL_INVESTIGATOR"}],"geoPoint":{"lat":45.41117,"lon":-75.69812}},{"facility":"Institut de Cardiologie de Montreal (Montreal Heart Inst.)","status":"RECRUITING","city":"Montréal","zip":"H1T 1C8","country":"Canada","contacts":[{"name":"Sophie Robichaud","role":"CONTACT","phone":"(514) 376-3330","email":"Sophie.Robichaud@icm-mhi.org"},{"name":"Reda Ibrahim, MD","role":"PRINCIPAL_INVESTIGATOR"}],"geoPoint":{"lat":45.50884,"lon":-73.58781}},{"facility":"CHUM","status":"RECRUITING","city":"Montréal","zip":"H2X 3E4","country":"Canada","contacts":[{"name":"Isabelle Denis","role":"CONTACT","phone":"(514) 890-8000","email":"isabelle.denis.chum@ssss.gouv.qc.ca"},{"name":"JeanBernard Masson, MD","role":"PRINCIPAL_INVESTIGATOR"}],"geoPoint":{"lat":45.50884,"lon":-73.58781}},{"facility":"Vancouver General Hospital (U of BC)","status":"RECRUITING","city":"Vancouver","zip":"V5Z 1M9","country":"Canada","contacts":[{"name":"Naomi Uchida","role":"CONTACT","phone":"(604) 875-4521","email":"naomi.uchida@ubc.ca"},{"name":"Jacqueline Saw, MD","role":"PRINCIPAL_INVESTIGATOR"}],"geoPoint":{"lat":49.24966,"lon":-123.11934}},{"facility":"Fakultni nemocnice Kralovske Vinohrady","status":"RECRUITING","city":"Prague","zip":"100 34","country":"Czechia","contacts":[{"name":"Lucie Znojilova","role":"CONTACT","email":"lucie.znojilova@fnkv.cz"},{"name":"Pavel Osmancik, MUDr.","role":"PRINCIPAL_INVESTIGATOR"}],"geoPoint":{"lat":50.08804,"lon":14.42076}},{"facility":"Nemocnice Na Homolce","status":"RECRUITING","city":"Prague","zip":"150 30","country":"Czechia","contacts":[{"name":"Maria Novotna","role":"CONTACT","email":"maria.novotna@homolka.cz"},{"name":"Petr Neuzil, MD","role":"PRINCIPAL_INVESTIGATOR"}],"geoPoint":{"lat":50.08804,"lon":14.42076}},{"facility":"Skejby University Hospital","status":"RECRUITING","city":"Arhus","zip":"8200","country":"Denmark","contacts":[{"name":"Dorte Frydendahl","role":"CONTACT","phone":"(454) 014-1636","email":"dortemoe@rm.dk"},{"name":"Jens Erik Nielsen-Kudsk, Pr","role":"PRINCIPAL_INVESTIGATOR"}],"geoPoint":{"lat":56.15674,"lon":10.21076}},{"facility":"Rigshospitalet","status":"RECRUITING","city":"Copenhagen","zip":"2100","country":"Denmark","contacts":[{"name":"Bente Brodersen","role":"CONTACT","phone":"(453) 545-4743","email":"bente.birgitte.brodersen@regionh.dk"},{"name":"Lia Evi Bang, MD","role":"PRINCIPAL_INVESTIGATOR"}],"geoPoint":{"lat":55.67594,"lon":12.56553}},{"facility":"CHU Gabriel Montpied","status":"ACTIVE_NOT_RECRUITING","city":"Clermont-Ferrand","zip":"63003","country":"France","geoPoint":{"lat":45.77966,"lon":3.08628}},{"facility":"Hopital Henri Mondor","status":"WITHDRAWN","city":"Créteil","zip":"94010","country":"France","geoPoint":{"lat":48.78333,"lon":2.46667}},{"facility":"Institute Cardio. Paris-Sud - Institut Jacques Cartier","status":"RECRUITING","city":"Massy","zip":"91300","country":"France","contacts":[{"name":"Severine Roger","role":"CONTACT","phone":"33169205850","email":"s.roger@icps.com.fr"},{"name":"Philippe Garot, Dr","role":"PRINCIPAL_INVESTIGATOR"}],"geoPoint":{"lat":48.72692,"lon":2.28301}},{"facility":"Mutualiste Montsouris","status":"RECRUITING","city":"Paris","zip":"75014","country":"France","contacts":[{"name":"Silvia Burbassi","role":"CONTACT","email":"silvia.burbassi@imm.fr"},{"name":"Nicolas Amabile, Dr","role":"PRINCIPAL_INVESTIGATOR"}],"geoPoint":{"lat":48.85341,"lon":2.3488}},{"facility":"Hopital Haut Leveque","status":"RECRUITING","city":"Pessac","zip":"33604","country":"France","contacts":[{"name":"Amandine Ruissel","role":"CONTACT","phone":"0033557623229","email":"amandine.ruissel@chu-bordeaux.fr"},{"name":"Xavier Iriart, Dr","role":"PRINCIPAL_INVESTIGATOR"}],"geoPoint":{"lat":44.81011,"lon":-0.64129}},{"facility":"Universitätsmedizin Berlin - Campus Benjamin Franklin (CBF)","status":"RECRUITING","city":"Berlin","state":"Brandenburg","zip":"12203","country":"Germany","contacts":[{"name":"Grit Nater","role":"CONTACT","email":"grit.nater@dhzc-charite.de"},{"name":"Ulf Landmesser, Prof Dr med","role":"PRINCIPAL_INVESTIGATOR"}],"geoPoint":{"lat":52.52437,"lon":13.41053}},{"facility":"Universitätsklinikum Schleswig-Holstein - Campus Lübeck","status":"RECRUITING","city":"Lübeck","state":"Schleswig-Holstein","zip":"23562","country":"Germany","contacts":[{"name":"Katrin Schoenhoff","role":"CONTACT","phone":"49451500","email":"Katrin.schoenhoff@uksh.de"},{"name":"Ingo Eitel, Prof Dr Med","role":"PRINCIPAL_INVESTIGATOR"}],"geoPoint":{"lat":53.86893,"lon":10.68729}},{"facility":"Segeberger Kliniken GmbH","status":"ACTIVE_NOT_RECRUITING","city":"Bad Segeberg","zip":"23795","country":"Germany","geoPoint":{"lat":53.94313,"lon":10.30215}},{"facility":"St. Marien-Hospital-Bonn","status":"RECRUITING","city":"Bonn","zip":"53115","country":"Germany","contacts":[{"name":"Christiane Lieberz","role":"CONTACT","email":"Christiane.Lieberz@gfo-kliniken-bonn.de"},{"name":"Heyder Omran, Prof Dr med","role":"PRINCIPAL_INVESTIGATOR"}],"geoPoint":{"lat":50.73438,"lon":7.09549}},{"facility":"Cardioangiologisches Centrum am Bethanien Krankenhaus","status":"RECRUITING","city":"Frankfurt","zip":"60389","country":"Germany","contacts":[{"name":"Negin Azimi Hashemi, Dr.phil.nat.","role":"CONTACT","email":"n.azimi-hashemi@ccb.de"},{"name":"Stefano Bordignon, Dr.med.","role":"PRINCIPAL_INVESTIGATOR"}],"geoPoint":{"lat":50.11552,"lon":8.68417}},{"facility":"Klinikum der Justus-Liebig-Universität","status":"RECRUITING","city":"Gießen","zip":"35392","country":"Germany","contacts":[{"name":"Anne Drewenka","role":"CONTACT","email":"anne.drewenka@innere.med.uni-giessen.de"},{"name":"Oliver Doerr, Dr.","role":"PRINCIPAL_INVESTIGATOR"}],"geoPoint":{"lat":50.58727,"lon":8.67554}},{"facility":"Universitätsmedizin der Johannes Gutenberg-Universität Mainz","status":"RECRUITING","city":"Mainz","zip":"55131","country":"Germany","contacts":[{"name":"Lea Frohnweiler","role":"CONTACT","email":"lea.frohnweiler@unimedizin-mainz.de"},{"name":"Ralph Stephan von Bardeleben, Dr. med.","role":"PRINCIPAL_INVESTIGATOR"}],"geoPoint":{"lat":49.98419,"lon":8.2791}},{"facility":"Internistisches Klinikum München SUD","status":"RECRUITING","city":"Munich","zip":"81379","country":"Germany","contacts":[{"name":"Katrin Hafner","role":"CONTACT","email":"studienzentrale@ikms.de"},{"name":"Thorsten Lewalter, Prof Dr med","role":"PRINCIPAL_INVESTIGATOR"}],"geoPoint":{"lat":48.13743,"lon":11.57549}},{"facility":"Helios Klinikum Siegburg","status":"RECRUITING","city":"Siegburg","zip":"53721","country":"Germany","contacts":[{"name":"Tino Maudrich","role":"CONTACT","email":"tino.maudrich@helios-gesundheit.de"},{"name":"Harald Beucher, Dr. med","role":"PRINCIPAL_INVESTIGATOR"}],"geoPoint":{"lat":50.80019,"lon":7.20769}},{"facility":"Prince of Wales Hospital","status":"RECRUITING","city":"Hong Kong","zip":"999077","country":"Hong Kong","contacts":[{"name":"Wai Chun Samantha Li","role":"CONTACT","phone":"350517518","email":"waichunli@cuhk.edu.hk"},{"name":"Chin Pang Chan, Dr","role":"PRINCIPAL_INVESTIGATOR"}],"geoPoint":{"lat":22.27832,"lon":114.17469}},{"facility":"Queen Elizabeth Hospital","status":"RECRUITING","city":"Hong Kong","country":"Hong Kong","contacts":[{"name":"Miu Ching Cecilia Chan","role":"CONTACT","phone":"35066124","email":"cc91chan@gmail.com"},{"name":"Shing Fung Chui, Dr","role":"PRINCIPAL_INVESTIGATOR"}],"geoPoint":{"lat":22.27832,"lon":114.17469}},{"facility":"The University of Hong Kong (Queen Mary Hospital)","status":"RECRUITING","city":"Hong Kong","country":"Hong Kong","contacts":[{"name":"Sze Nga Hung","role":"CONTACT","phone":"22553943","email":"Nga98@hku.hk"},{"name":"Cheung Chi Simon Lam, Dr","role":"PRINCIPAL_INVESTIGATOR"}],"geoPoint":{"lat":22.27832,"lon":114.17469}},{"facility":"Fondazione Toscana Gabriele Monasterio","status":"RECRUITING","city":"Massa","zip":"54100","country":"Italy","contacts":[{"name":"Alessandra Parlanti","role":"CONTACT","phone":"390585493675","email":"alessandra.parlanti@ftgm.it"},{"name":"Sergio Berti, MD","role":"PRINCIPAL_INVESTIGATOR"}],"geoPoint":{"lat":44.03541,"lon":10.13927}},{"facility":"Ospedale San Raffaele","status":"ACTIVE_NOT_RECRUITING","city":"Milano","zip":"20132","country":"Italy","geoPoint":{"lat":45.46427,"lon":9.18951}},{"facility":"Toyohashi Heart Center","status":"RECRUITING","city":"Toyohashi","state":"Aichi","zip":"441-8530","country":"Japan","contacts":[{"name":"Akiko Ito","role":"CONTACT","email":"akito@heart-center.or.jp"},{"name":"Masanori Yamamoto, MD","role":"PRINCIPAL_INVESTIGATOR"}],"geoPoint":{"lat":34.76667,"lon":137.38333}},{"facility":"Chiba University","status":"RECRUITING","city":"Chiba-shi","state":"Chiba","zip":"260-8677","country":"Japan","contacts":[{"name":"Chiho Watanabe","role":"CONTACT","email":"zrx-chiho@chiba-u.jp"},{"name":"Yusuke Kondo, MD","role":"PRINCIPAL_INVESTIGATOR"}],"geoPoint":{"lat":35.6,"lon":140.11667}},{"facility":"Kokura Memorial Hospital","status":"RECRUITING","city":"Kitakyushu","state":"Fukuoka","zip":"802-8555","country":"Japan","contacts":[{"name":"Saori Uno","role":"CONTACT","phone":"81935113284","phoneExt":"81935113284","email":"uno-s@kokurakinen.or.jp"},{"name":"Kenji Ando, MD","role":"PRINCIPAL_INVESTIGATOR"}],"geoPoint":{"lat":33.85181,"lon":130.85034}},{"facility":"University of Tsukuba Hospital","status":"RECRUITING","city":"Tsukuba","state":"Ibaraki","zip":"305-8576","country":"Japan","contacts":[{"name":"Aoi Tamai","role":"CONTACT","email":"aoi-tamai@cmicgroup.com"},{"name":"Hiro Yamasaki, MD","role":"PRINCIPAL_INVESTIGATOR"}],"geoPoint":{"lat":36.2,"lon":140.1}},{"facility":"Shonan Kamakura General Hospital","status":"RECRUITING","city":"Kamakura","state":"Kanagawa","zip":"247-8533","country":"Japan","contacts":[{"name":"Misayo Arima","role":"CONTACT","email":"m_arima@shonankamakura.or.jp"},{"name":"Shigeru Saito, MD","role":"PRINCIPAL_INVESTIGATOR"}],"geoPoint":{"lat":35.30889,"lon":139.55028}},{"facility":"Sendai Kousei Hospital","status":"RECRUITING","city":"Sendai","state":"Miyagi","zip":"980-0973","country":"Japan","contacts":[{"name":"Moyumi Honta","role":"CONTACT","email":"m.honta@csnt.co.jp"},{"name":"Norio Tada, MD","role":"PRINCIPAL_INVESTIGATOR"}],"geoPoint":{"lat":38.26667,"lon":140.86667}},{"facility":"Kurashiki Central Hospital","status":"RECRUITING","city":"Kurashiki-shi","state":"Okayama","country":"Japan","contacts":[{"name":"Maki Nakashima","role":"CONTACT","email":"mn14255@kchnet.or.jp"},{"name":"Kazushige Kadota, MD","role":"PRINCIPAL_INVESTIGATOR"}],"geoPoint":{"lat":34.58333,"lon":133.76667}},{"facility":"Toho University Ohashi Medical Center","status":"RECRUITING","city":"Meguro-ku","state":"Tokyo","zip":"153-8515","country":"Japan","contacts":[{"name":"Mami Tsukada","role":"CONTACT","email":"mami.tsukada@smo-msr.co.jp"},{"name":"Hidehiko Hara, MD","role":"PRINCIPAL_INVESTIGATOR"}],"geoPoint":{"lat":42.12755,"lon":143.31736}},{"facility":"Tokyo Medical and Dental University Hospital of Medicine","status":"RECRUITING","city":"Tokyo","zip":"113-8519","country":"Japan","contacts":[{"name":"Satomi Tsuyuki","role":"CONTACT","email":"s.tsuyuki.mnrs@tmd.ac.jp"},{"name":"Tomoyuki Umemoto, MD","role":"PRINCIPAL_INVESTIGATOR"}],"geoPoint":{"lat":35.6895,"lon":139.69171}},{"facility":"Vilnius University Hospital Santariskiu Klinikos","status":"RECRUITING","city":"Vilnius","zip":"08661","country":"Lithuania","contacts":[{"name":"Kristina Scerbakovaite","role":"CONTACT","phone":"37065626747","email":"kristina.scerbakovaite@santa.lt"},{"name":"Gediminas Rackauskas, MD","role":"PRINCIPAL_INVESTIGATOR"}],"geoPoint":{"lat":54.68916,"lon":25.2798}},{"facility":"St. Antonius Ziekenhuis","status":"RECRUITING","city":"Nieuwegein","zip":"3435 CM","country":"Netherlands","contacts":[{"name":"Conny Feirabend","role":"CONTACT","phone":"31883200900","email":"c.feirabend@antoniusziekenhuis.nl"},{"name":"Lucas Boersma, MD","role":"PRINCIPAL_INVESTIGATOR"}],"geoPoint":{"lat":52.02917,"lon":5.08056}},{"facility":"Slaskie Centrum Chorob Serca","status":"RECRUITING","city":"Zabrze","zip":"41-800","country":"Poland","contacts":[{"name":"Monika Koziel","role":"CONTACT","email":"kozielmonika@poczta.fm"},{"name":"Witold Streb, MD","role":"PRINCIPAL_INVESTIGATOR"}],"geoPoint":{"lat":50.32492,"lon":18.78576}},{"facility":"Centralny Szpital Kliniczny Uniwersytetu Medycznego w Lodzi","status":"RECRUITING","city":"Łódź","zip":"92-213","country":"Poland","contacts":[{"name":"Bozena Urbanek","role":"CONTACT","phone":"+48606276699","email":"bozena_urbanek@op.pl"},{"name":"Krzysztof Kaczmarek","role":"PRINCIPAL_INVESTIGATOR"}],"geoPoint":{"lat":51.75,"lon":19.46667}},{"facility":"Hospital Clinico San Carlos","status":"RECRUITING","city":"Madrid","state":"Community Of Madrid","country":"Spain","contacts":[{"name":"Esther Bernardo","role":"CONTACT","email":"esther.bernardo@salud.madrid.org"},{"name":"David Vivas, Dr","role":"PRINCIPAL_INVESTIGATOR"}],"geoPoint":{"lat":40.4165,"lon":-3.70256}},{"facility":"Hospital de la Santa Creu I Sant Pau","status":"RECRUITING","city":"Barcelona","zip":"08025","country":"Spain","contacts":[{"name":"Elana Jimenez Xarrie","role":"CONTACT","email":"EJimenezX@santpau.cat"},{"name":"Dabit Arzamendi Aizpurua, Dr","role":"PRINCIPAL_INVESTIGATOR"}],"geoPoint":{"lat":41.38879,"lon":2.15899}},{"facility":"Hospital Clinic I Provincial de Barcelona","status":"RECRUITING","city":"Barcelona","zip":"08036","country":"Spain","contacts":[{"name":"Anna Campos","role":"CONTACT","phone":"0034934518746","email":"acampos@clinic.cat"},{"name":"Xavier Freixa Rofastes, Dr","role":"PRINCIPAL_INVESTIGATOR"},{"name":"Eduard Guasch, Dr","role":"PRINCIPAL_INVESTIGATOR"}],"geoPoint":{"lat":41.38879,"lon":2.15899}},{"facility":"Hospital Universitario de Salamanca","status":"RECRUITING","city":"Salamanca","zip":"37007","country":"Spain","contacts":[{"name":"Nuria Sanchez Barbero","role":"CONTACT","phone":"34923291100","email":"nsanchezb@saludcastillayleon.es"},{"name":"Jesus Herrero Garibi, Dr","role":"PRINCIPAL_INVESTIGATOR"}],"geoPoint":{"lat":40.96882,"lon":-5.66388}},{"facility":"Center Inselspital Bern","status":"RECRUITING","city":"Bern","zip":"3010","country":"Switzerland","contacts":[{"name":"Christoph Tegtmeier","role":"CONTACT","email":"christoph.tegtmeier@insel.ch"},{"name":"Lorenz Raeber, Prof Dr med","role":"PRINCIPAL_INVESTIGATOR"}],"geoPoint":{"lat":46.94809,"lon":7.44744}},{"facility":"Stadtspital Triemli","status":"RECRUITING","city":"Zürich","zip":"8063","country":"Switzerland","contacts":[{"name":"Claudia Liedtke","role":"CONTACT","phone":"0041444163420","email":"claudia.liedtke@triemli.zuerich.ch"},{"name":"David Kurz, Dr","role":"PRINCIPAL_INVESTIGATOR"}],"geoPoint":{"lat":47.36667,"lon":8.54999}},{"facility":"The Royal Sussex County Hospital","status":"RECRUITING","city":"Brighton","zip":"BN25BE","country":"United Kingdom","contacts":[{"name":"Nicola Skipper","role":"CONTACT","phone":"01273696955","email":"nicola.skipper@nhs.net"},{"name":"David Hildick-Smith, Dr","role":"PRINCIPAL_INVESTIGATOR"}],"geoPoint":{"lat":50.82838,"lon":-0.13947}}]},"ipdSharingStatementModule":{"ipdSharing":"NO"}},"derivedSection":{"miscInfoModule":{"versionHolder":"2024-02-14"},"conditionBrowseModule":{"meshes":[{"id":"D000001281","term":"Atrial Fibrillation"}],"ancestors":[{"id":"D000001145","term":"Arrhythmias, Cardiac"},{"id":"D000006331","term":"Heart Diseases"},{"id":"D000002318","term":"Cardiovascular Diseases"},{"id":"D000010335","term":"Pathologic Processes"}],"browseLeaves":[{"id":"M21996","name":"Stroke","relevance":"LOW"},{"id":"M9246","name":"Hemorrhage","relevance":"LOW"},{"id":"M4276","name":"Atrial Fibrillation","asFound":"Atrial Fibrillation","relevance":"HIGH"},{"id":"M4143","name":"Arrhythmias, Cardiac","relevance":"LOW"},{"id":"M9109","name":"Heart Diseases","relevance":"LOW"}],"browseBranches":[{"abbrev":"BC10","name":"Nervous System Diseases"},{"abbrev":"BC14","name":"Heart and Blood Diseases"},{"abbrev":"All","name":"All Conditions"},{"abbrev":"BC23","name":"Symptoms and General Pathology"}]},"interventionBrowseModule":{"browseLeaves":[{"id":"M3934","name":"Anticoagulants","relevance":"LOW"}],"browseBranches":[{"abbrev":"AnCoag","name":"Anticoagulants"},{"abbrev":"All","name":"All Drugs and Chemicals"}]}},"hasResults":false}