{"protocolSection":{"identificationModule":{"nctId":"NCT02586233","orgStudyIdInfo":{"id":"DS1040-A-U103"},"secondaryIdInfos":[{"id":"2015-001824-43","type":"EUDRACT_NUMBER"}],"organization":{"fullName":"Daiichi Sankyo, Inc.","class":"INDUSTRY"},"briefTitle":"Study to Assess the Safety, Pharmacokinetics, and Pharmacodynamics of DS-1040b in Subjects With Acute Ischemic Stroke","officialTitle":"A Phase 1b/2, Multi-Center, Double-Blind (Principal Investigators and Study Subjects Blinded, Sponsor Unblinded), Placebo-Controlled, Randomized, Single-Ascending Dose Study to Assess the Safety, Pharmacokinetics, and Pharmacodynamics of DS-1040b in Subjects With Acute Ischemic Stroke","acronym":"ASSENT"},"statusModule":{"statusVerifiedDate":"2020-08","overallStatus":"COMPLETED","expandedAccessInfo":{"hasExpandedAccess":false},"startDateStruct":{"date":"2015-09","type":"ACTUAL"},"primaryCompletionDateStruct":{"date":"2019-08-13","type":"ACTUAL"},"completionDateStruct":{"date":"2019-08-13","type":"ACTUAL"},"studyFirstSubmitDate":"2015-10-21","studyFirstSubmitQcDate":"2015-10-23","studyFirstPostDateStruct":{"date":"2015-10-26","type":"ESTIMATED"},"resultsFirstSubmitDate":"2020-07-10","resultsFirstSubmitQcDate":"2020-08-21","resultsFirstPostDateStruct":{"date":"2020-09-09","type":"ACTUAL"},"lastUpdateSubmitDate":"2020-08-21","lastUpdatePostDateStruct":{"date":"2020-09-09","type":"ACTUAL"}},"sponsorCollaboratorsModule":{"responsibleParty":{"type":"SPONSOR"},"leadSponsor":{"name":"Daiichi Sankyo, Inc.","class":"INDUSTRY"}},"oversightModule":{"oversightHasDmc":false,"isFdaRegulatedDrug":true,"isFdaRegulatedDevice":false},"descriptionModule":{"briefSummary":"This is a Phase 1b/2, double-blind (study participants and Investigators), placebo-controlled, randomized, single-ascending dose, multi-center study to assess the safety, tolerability, pharmacokinetics (PK), and pharmacodynamics (PD) of DS-1040b in participants with Acute Ischemic Stroke (AIS)."},"conditionsModule":{"conditions":["Acute Ischemic Stroke","Thrombotic Disease"],"keywords":["Acute Ischemic Stroke","Thrombotic disease","DS-1040b"]},"designModule":{"studyType":"INTERVENTIONAL","phases":["PHASE1","PHASE2"],"designInfo":{"allocation":"RANDOMIZED","interventionModel":"SINGLE_GROUP","primaryPurpose":"TREATMENT","maskingInfo":{"masking":"DOUBLE","whoMasked":["PARTICIPANT","INVESTIGATOR"]}},"enrollmentInfo":{"count":106,"type":"ACTUAL"}},"armsInterventionsModule":{"armGroups":[{"label":"DS-1040b","type":"EXPERIMENTAL","description":"Participants who will be randomized to receive intravenous (IV) infusion of DS-1040b ranging from 0.6 mg to 9.6 mg.","interventionNames":["Drug: DS-1040b"]},{"label":"Placebo","type":"PLACEBO_COMPARATOR","description":"Participants who will be randomized to receive intravenous (IV) infusion of placebo.","interventionNames":["Drug: Placebo"]}],"interventions":[{"type":"DRUG","name":"DS-1040b","description":"DS-1040b for IV infusion (0.6 mg to 9.6 mg) over 6-hour period","armGroupLabels":["DS-1040b"],"otherNames":["Experimental product"]},{"type":"DRUG","name":"Placebo","description":"0.9% sodium chloride (placebo comparator) for IV infusion over 6-hour period","armGroupLabels":["Placebo"]}]},"outcomesModule":{"primaryOutcomes":[{"measure":"Summary of Treatment-Emergent Adverse Event Reported by >10% of Participants Following Ascending Doses of DS-1040b and a Placebo in Participants With Acute Ischemic Stroke","description":"Treatment-emergent adverse event (TEAE) is defined as an adverse event that emerges during the treatment period (from first dose date until 30 days after the last dosing date), having been absent at predose; or reemerges during treatment, having been present at baseline but stopped prior to treatment; or worsens in severity after starting treatment relative to the pre-dose state, when the adverse event is continuous.","timeFrame":"Baseline up to 90 days post last dose, up to 3 years 11 months"}],"secondaryOutcomes":[{"measure":"Summary of Pharmacokinetic (PK) Parameter Maximum (Peak) Observed Plasma Concentration (Cmax) of DS-1040b Following Ascending Doses in Participants With Acute Ischemic Stroke","description":"The PK parameter of Maximum (Peak) Observed Plasma Concentration (Cmax) of DS-1040b was calculated from the plasma concentrations of DS-1040b using non-compartmental analysis","timeFrame":"Predose, 0.5, 3, 6, 9, 12, 24, 48, 72, and 96 hours postdose"},{"measure":"Summary of Pharmacokinetic Parameter Area Under the Concentration Versus Time Curve From Zero to Last Quantifiable Concentration Sampling Point (AUClast) of DS-1040b Following Ascending Doses in Participants With Acute Ischemic Stroke","description":"The PK parameter of Area Under the Concentration Versus Time Curve from Zero to Last Quantifiable Concentration Sampling Point of DS-1040b was calculated from the plasma concentrations of DS-1040b using non-compartmental analysis","timeFrame":"Predose, 0.5, 3, 6, 9, 12, 24, 48, 72, and 96 hours postdose"},{"measure":"Summary of Pharmacokinetic Parameter Terminal Half-life (t1/2) of DS-1040b Following Ascending Doses in Participants With Acute Ischemic Stroke","description":"The PK parameter of Terminal Half-life of DS-1040b was calculated from the plasma concentrations of DS-1040b using non-compartmental analysis in patients with available sample for the analysis.","timeFrame":"Pre-dose, 0.5, 3, 6, 9, 12, 24, 48, 72, and 96 hours post-dose"},{"measure":"Summary of Activated Form of Thrombin-activatable Fibrinolysis Inhibitor (TAFIa) Following Ascending Doses of DS-1040b and a Placebo in Participants With Acute Ischemic Stroke","description":"The enzymatic activity of thrombin-activatable fibrinolysis inhibitor was assessed using the Stago Coagulation Analyzer.","timeFrame":"Baseline and 6 hours postdose"},{"measure":"Summary of Changes From Baseline at Day 30 in National Institute of Health Stroke Scale (NIHSS) Score Following Ascending Doses of DS-1040b and a Placebo in Participants With Acute Ischemic Stroke","description":"The National Institute of Health Stroke Scale (NIHSS) quantifies stroke severity based on weighted evaluation findings. The score for each ability is a number between 0 and 4, with 0 being normal functioning and 4 being completely impaired. The patient's NIHSS score is calculated by adding the number for each element of the scale; 42 is the highest score possible. In the NIHSS, the higher the score indicates more impairment (worse outcome) in a stroke patient.","timeFrame":"30 days post dose"},{"measure":"Percentage of Participants With a Modified Rankin Scale (mRS) Score of 0 to 2 Following Ascending Doses of DS-1040b and a Placebo in Participants With Acute Ischemic Stroke","description":"The modified Rankin scale (mRS) is a commonly used disability scale derived from the Rankin scale that is used to measure the degree of disability or dependence in the daily activities of people who have suffered a stroke or other causes of neurological disability. The level of disability following a stroke is assessed via a scale from 0 to 6, where 0 is no symptoms at all and 6 indicates death. Higher scores indicate worse outcome. The percentage of participants with an mRS score of 0 to 2 at Day 5 (baseline) and Day 90 is being reported.","timeFrame":"Day 5 (baseline) and Day 90 post dose"}]},"eligibilityModule":{"eligibilityCriteria":"Inclusion Criteria:\n\n* Has a clinical diagnosis of acute ischemic stroke (including lacunar stroke/infarct) supported by computed topography or magnetic resonance imaging to rule out alternative cause for presenting symptoms\n* Has onset of stroke symptoms within 4.5 to 12 hours before initiation of study drug administration - for subjects with a stroke upon waking, time of symptom onset is the last time the subject was known to be well\n* Has a NIHSS score of ≥ 2 (for Cohorts 1-5) and ≥ 5 (for Cohort 6)\n* Has Low dose heparin or low molecular weight heparin at a preventive dose are allowed from 24 hours after treatment start completion and after confirmation of no intracranial bleeding on the 24-hours repeat brain imaging.\n* Is a Cohort 6 participant who is treated or anticipated to be treated with intra-arterial therapy (IAT) for ischemic stroke at the time of randomization (for enrollment in the IAT subgroup)\n* Has given written informed consent to participate in the study prior to participating in any study-related procedures - depending on country-specific practice, written informed consent may be acceptable from legally authorized representative\n* Has given a separate written informed consent for collecting a blood sample for genotyping\n\nExclusion Criteria:\n\n* Is a Cohort 1-5 participant who has been treated or is going to be treated with tissue plasminogen activator (tPA) and/or endovascular thrombectomy during current stroke\n* Is a Cohort 6 participant treated or anticipated to be treated with tPA during current stroke\n* Has evidence of intracranial hemorrhage on non-contrast computed tomography (CT/CAT) scan or magnetic resonance imaging (MRI)\n* Has symptoms of subarachnoid hemorrhage, even with normal imaging\n* Has an Alberta Stroke Program Early CT Score (ASPECTS) \\<6\n* Has prior non-traumatic intracranial hemorrhage (excluding microhemorrhages observed in imaging)\n* Has known arteriovenous malformation or aneurysm\n* Has evidence of active bleeding\n* Has platelet count less than 100,000\n* Has International Normalized Ratio greater than 1.7\n* Has used unfractionated heparin within 24 hours prior to treatment and has an elevated partial thromboplastin time\n* Has used a non-vitamin K antagonist oral anticoagulant such as dabigatran, rivaroxaban, apixaban, or other factor Xa inhibitors within 24 hours before treatment\n* Has used fondaparinux or low molecular weight heparin at an anticoagulation dose within 24 hours prior to treatment\n* Has anticipated use of an anticoagulation dose of heparin, or fondaparinux or low molecular weight heparin, or nonvitamin K antagonist oral anticoagulant such as dabigatran, rivaroxaban, apixaban, or other factor Xa inhibitors within 48 hours after completion of study drug treatment (low dose heparin or low molecular weight heparin at a preventive dose are allowed from 24 hours after treatment completion and after confirmation of no intracranial bleeding on the 24 hours repeat brain imaging. In Cohort 6, heparin treatment associated with IAT is allowed.)\n* Has blood pressure \\> 185/110 mmHg, or requires aggressive medication to maintain blood pressure below this limit (routine medical treatment including IV drug treatment is allowed to lower the blood pressure below this limit)\n* Has had intracranial surgery, clinically significant head trauma (in the opinion of Principal Investigator), Alteplase treatment, or a previous stroke within 1 month\n* Has had major surgery within 14 days\n* Has had gastrointestinal or genitourinary bleeding in the last 21 days\n* Has had a lumbar puncture (or epidural steroid injection) within 14 days\n* Has had a preexisting disability classified by modified Rankin Scale (mRS) \\> 2\n* Has an estimated glomerular filtration rate \\< 60 mL/min/1.73 m\\^2\n* Has baseline hemoglobin \\< 10.5 g/dL\n* Has a positive pregnancy test\n* Is currently participating in another investigational study or has participated in an investigational drug study within 30 days or 5 half-lives of that investigational drug prior to administration of the study drug\n* Is an employee or an immediate family member of an employee of the Sponsor, the Contract Research Organization (CRO), or the Site\n* Has any other condition the investigator determines would preclude participation in the study","healthyVolunteers":false,"sex":"ALL","minimumAge":"18 Years","stdAges":["ADULT","OLDER_ADULT"]},"contactsLocationsModule":{"overallOfficials":[{"name":"Global Clinical Leader","affiliation":"Daiichi Sankyo, Inc.","role":"STUDY_DIRECTOR"}],"locations":[{"facility":"University of South Alabama USA Health System","city":"Mobile","state":"Alabama","zip":"36604","country":"United States","geoPoint":{"lat":30.69436,"lon":-88.04305}},{"facility":"UCLA Medical Center Stroke Network","city":"Los Angeles","state":"California","zip":"90024","country":"United States","geoPoint":{"lat":34.05223,"lon":-118.24368}},{"facility":"UC Health Memorial Hospital","city":"Colorado Springs","state":"Colorado","zip":"80909","country":"United States","geoPoint":{"lat":38.83388,"lon":-104.82136}},{"facility":"Rush University Medical Center","city":"Chicago","state":"Illinois","zip":"60612","country":"United States","geoPoint":{"lat":41.85003,"lon":-87.65005}},{"facility":"University of Kentucky Chandler Medical Center","city":"Lexington","state":"Kentucky","zip":"40536","country":"United States","geoPoint":{"lat":37.98869,"lon":-84.47772}},{"facility":"University of Louisville","city":"Louisville","state":"Kentucky","zip":"40202","country":"United States","geoPoint":{"lat":38.25424,"lon":-85.75941}},{"facility":"Henry Ford Health System","city":"Detroit","state":"Michigan","zip":"48202","country":"United States","geoPoint":{"lat":42.33143,"lon":-83.04575}},{"facility":"JFK Neuroscience Institute","city":"Edison","state":"New Jersey","zip":"08820","country":"United States","geoPoint":{"lat":40.51872,"lon":-74.4121}},{"facility":"Icahn School Medicine at Mount Sinai","city":"New York","state":"New York","zip":"10029","country":"United States","geoPoint":{"lat":40.71427,"lon":-74.00597}},{"facility":"Duke University Health System","city":"Durham","state":"North Carolina","zip":"27710","country":"United States","geoPoint":{"lat":35.99403,"lon":-78.89862}},{"facility":"OSU - Wexner Medical Center","city":"Columbus","state":"Ohio","zip":"43210","country":"United States","geoPoint":{"lat":39.96118,"lon":-82.99879}},{"facility":"Oregon Health Sciences University Hospital","city":"Portland","state":"Oregon","zip":"97239","country":"United States","geoPoint":{"lat":45.52345,"lon":-122.67621}},{"facility":"Penn State Milton S. Hershey Medical Center","city":"Hershey","state":"Pennsylvania","zip":"17033","country":"United States","geoPoint":{"lat":40.28592,"lon":-76.65025}},{"facility":"Palmetto Health, USC School of Medicine","city":"Columbia","state":"South Carolina","zip":"29203","country":"United States","geoPoint":{"lat":34.00071,"lon":-81.03481}},{"facility":"Chattanooga Center for Neurologic Research","city":"Chattanooga","state":"Tennessee","zip":"37403","country":"United States","geoPoint":{"lat":35.04563,"lon":-85.30968}},{"facility":"Houston Methodist","city":"Houston","state":"Texas","zip":"77030","country":"United States","geoPoint":{"lat":29.76328,"lon":-95.36327}},{"facility":"Royal North Shore Hospital","city":"Sydney","state":"New South Wales","zip":"2065","country":"Australia","geoPoint":{"lat":-33.86785,"lon":151.20732}},{"facility":"Royal Adelaide Hospital Neurology Dept.","city":"Adelaide","state":"South Australia","zip":"5000","country":"Australia","geoPoint":{"lat":-34.92866,"lon":138.59863}},{"facility":"Monash Health","city":"Clayton","state":"Victoria","zip":"3168","country":"Australia","geoPoint":{"lat":-37.91667,"lon":145.11667}},{"facility":"Royal Melbourne Hospital","city":"Parkville","state":"Victoria","zip":"3050","country":"Australia","geoPoint":{"lat":-37.78333,"lon":144.95}},{"facility":"St. Annes University Hospital","city":"Brno","country":"Czechia","geoPoint":{"lat":49.19522,"lon":16.60796}},{"facility":"Vitkovicka nemocnice a.s. Zaluzanskeho","city":"Ostrava Vitkovice","country":"Czechia","geoPoint":{"lat":49.83465,"lon":18.28204}},{"facility":"CHRU Besançon - Hôpital Jean Minjoz","city":"Besançon","zip":"25000","country":"France","geoPoint":{"lat":47.24878,"lon":6.01815}},{"facility":"Hôpital Pellegrin - CHU Bordeaux","city":"Bordeaux","zip":"33000","country":"France","geoPoint":{"lat":44.84044,"lon":-0.5805}},{"facility":"CHRU Lille - Hôpital Roger Salengro","city":"Lille","zip":"59037","country":"France","geoPoint":{"lat":50.63297,"lon":3.05858}},{"facility":"Klinikum Altenburger Land","city":"Altenburg","zip":"04600","country":"Germany","geoPoint":{"lat":50.98763,"lon":12.43684}},{"facility":"Universittsklinikum Essen AR Klinik fr Neurologie","city":"Essen","country":"Germany","geoPoint":{"lat":51.45657,"lon":7.01228}},{"facility":"Klinikum der Johann Wolfgang Goethe-Universitat","city":"Frankfurt am Main","country":"Germany","geoPoint":{"lat":50.11552,"lon":8.68417}},{"facility":"Ospedale di Citta di Castello","city":"Città di Castello","zip":"06018","country":"Italy","geoPoint":{"lat":43.46556,"lon":12.2375}},{"facility":"Ospedale di Branca Largo Unita d'Italia","city":"Gubbio","zip":"06024","country":"Italy","geoPoint":{"lat":43.34996,"lon":12.57309}},{"facility":"Ospedale Guglielmo da Saliceto Via Taverna","city":"Piacenza","zip":"29121","country":"Italy","geoPoint":{"lat":45.05242,"lon":9.69342}},{"facility":"Ospedaliero di Albenga - Pietra Ligure Dept Neurology","city":"Pietra Ligure","zip":"17027","country":"Italy","geoPoint":{"lat":44.1492,"lon":8.28206}},{"facility":"Azienda Ospedaliero Universitaria","city":"Pisa","zip":"56126","country":"Italy","geoPoint":{"lat":43.70853,"lon":10.4036}},{"facility":"Ospedale Borgo Trento","city":"Verona","zip":"37121","country":"Italy","geoPoint":{"lat":45.4299,"lon":10.98444}},{"facility":"Pusan National University Hospital","city":"Busan","country":"Korea, Republic of","geoPoint":{"lat":35.10278,"lon":129.04028}},{"facility":"Seoul National University Bundang Hospital","city":"Seongnam-si","country":"Korea, Republic of","geoPoint":{"lat":37.43861,"lon":127.13778}},{"facility":"Samsung Medical Center","city":"Seoul","country":"Korea, Republic of","geoPoint":{"lat":37.566,"lon":126.9784}},{"facility":"Svet zdravia a.s.,Vseobecna nemocnica Rimavska Sobota","city":"Rimavská Sobota","country":"Slovakia","geoPoint":{"lat":48.38284,"lon":20.02239}},{"facility":"NsP Spisska Nova Ves","city":"Spišská Nová Ves","country":"Slovakia","geoPoint":{"lat":48.94464,"lon":20.56153}},{"facility":"Hospital de la santa creu i sant pau C","city":"Barcelona","country":"Spain","geoPoint":{"lat":41.38879,"lon":2.15899}},{"facility":"Vall d'Hebron Hospital","city":"Barcelona","country":"Spain","geoPoint":{"lat":41.38879,"lon":2.15899}},{"facility":"Hospital Universitario La Paz","city":"Madrid","country":"Spain","geoPoint":{"lat":40.4165,"lon":-3.70256}},{"facility":"Hospital Clínico Universitario de Santiago de Compostela","city":"Santiago de Compostela","country":"Spain","geoPoint":{"lat":42.88052,"lon":-8.54569}},{"facility":"Hospital Universitario Virgen Macarena","city":"Sevilla","country":"Spain","geoPoint":{"lat":37.38283,"lon":-5.97317}},{"facility":"Hospital Virgen del Rocio","city":"Sevilla","country":"Spain","geoPoint":{"lat":37.38283,"lon":-5.97317}},{"facility":"Hospital Clinico Universitario de Valladolid","city":"Valladolid","country":"Spain","geoPoint":{"lat":41.65518,"lon":-4.72372}},{"facility":"Hospital Clinico Universitario Lozano Blesa de Zaragoza","city":"Zaragoza","country":"Spain","geoPoint":{"lat":41.65606,"lon":-0.87734}},{"facility":"Chang Gung Memorial Hospital-Linkou Branch","city":"Taoyuan","state":"Hsien","country":"Taiwan","geoPoint":{"lat":24.95233,"lon":121.20193}},{"facility":"China Medical University Hospital","city":"Taichung","country":"Taiwan","geoPoint":{"lat":24.1469,"lon":120.6839}},{"facility":"National Cheng Kung University Hospital","city":"Tainan","country":"Taiwan","geoPoint":{"lat":22.99083,"lon":120.21333}},{"facility":"National Taiwan University Hospital","city":"Taipei","country":"Taiwan","geoPoint":{"lat":25.04776,"lon":121.53185}},{"facility":"University College Hospitals NHS Foundation Trust","city":"London","state":"England","country":"United Kingdom","geoPoint":{"lat":51.50853,"lon":-0.12574}},{"facility":"Queen Elizabeth University Hospital","city":"Glasgow","state":"Scotland","country":"United Kingdom","geoPoint":{"lat":55.86515,"lon":-4.25763}},{"facility":"Salford Royal Hospital","city":"Salford","country":"United Kingdom","geoPoint":{"lat":53.48771,"lon":-2.29042}},{"facility":"Royal Stoke University Hospital","city":"Stoke-on-Trent","country":"United Kingdom","geoPoint":{"lat":53.00415,"lon":-2.18538}}]},"ipdSharingStatementModule":{"ipdSharing":"YES","description":"De-identified individual participant data (IPD) and applicable supporting clinical trial documents may be available upon request at https://vivli.org/. In cases where clinical trial data and supporting documents are provided pursuant to our company policies and procedures, Daiichi Sankyo will continue to protect the privacy of our clinical trial participants. Details on data sharing criteria and the procedure for requesting access can be found at this web address: https://vivli.org/ourmember/daiichi-sankyo/","infoTypes":["STUDY_PROTOCOL","SAP","CSR"],"timeFrame":"Studies for which the medicine and indication have received European Union (EU) and United States (US), and/or Japan (JP) marketing approval on or after 01 January 2014 or by the US or EU or JP Health Authorities when regulatory submissions in all regions are not planned and after the primary study results have been accepted for publication.","accessCriteria":"Formal request from qualified scientific and medical researchers on IPD and clinical study documents from clinical trials supporting products submitted and licensed in the United States, the European Union and/or Japan from 01 January 2014 and beyond for the purpose of conducting legitimate research. This must be consistent with the principle of safeguarding study participants' privacy and consistent with provision of informed consent.","url":"https://vivli.org/ourmember/daiichi-sankyo/"}},"resultsSection":{"participantFlowModule":{"preAssignmentDetails":"The study consisted of 6, sequential, ascending-dose cohorts. Participants were randomized to either DS-1040b or placebo in a 3:1 ratio.","recruitmentDetails":"A total of 106 participants who met all inclusion criteria and no exclusion criteria were randomized to treatment at a total of 78 clinic sites (46 in Europe, 19 in the United States, 7 in Asia, 5 in Australia, and 1 in Canada). Of the 106 participants randomized, 101 participants received treatment.","groups":[{"id":"FG000","title":"Cohort 1: DS-1040b 0.6 mg","description":"Participants who received a single intravenous infusion of DS-1040b 0.6 mg."},{"id":"FG001","title":"Cohort 2: DS-1040b 1.2 mg","description":"Participants who received a single intravenous infusion of DS-1040b 1.2 mg."},{"id":"FG002","title":"Cohort 3: DS-1040b 2.4 mg","description":"Participants who received a single intravenous infusion of DS-1040b 2.4 mg."},{"id":"FG003","title":"Cohort 4: DS-1040b 4.8 mg","description":"Participants who received a single intravenous infusion of DS-1040b 4.8 mg."},{"id":"FG004","title":"Cohort 5: DS-1040b 7.2 mg","description":"Participants who received a single intravenous infusion of DS-1040b 7.2 mg."},{"id":"FG005","title":"Cohort 6: DS-1040b 9.6 mg","description":"Participants who received a single intravenous infusion of DS-1040b 9.6 mg."},{"id":"FG006","title":"Placebo","description":"Participants who received a single intravenous infusion of placebo."}],"periods":[{"title":"Overall Study","milestones":[{"type":"STARTED","achievements":[{"groupId":"FG000","numSubjects":"7"},{"groupId":"FG001","numSubjects":"7"},{"groupId":"FG002","numSubjects":"13"},{"groupId":"FG003","numSubjects":"17"},{"groupId":"FG004","numSubjects":"18"},{"groupId":"FG005","numSubjects":"18"},{"groupId":"FG006","numSubjects":"26"}]},{"type":"COMPLETED","achievements":[{"groupId":"FG000","numSubjects":"7"},{"groupId":"FG001","numSubjects":"5"},{"groupId":"FG002","numSubjects":"13"},{"groupId":"FG003","numSubjects":"17"},{"groupId":"FG004","numSubjects":"16"},{"groupId":"FG005","numSubjects":"16"},{"groupId":"FG006","numSubjects":"24"}]},{"type":"NOT COMPLETED","achievements":[{"groupId":"FG000","numSubjects":"0"},{"groupId":"FG001","numSubjects":"2"},{"groupId":"FG002","numSubjects":"0"},{"groupId":"FG003","numSubjects":"0"},{"groupId":"FG004","numSubjects":"2"},{"groupId":"FG005","numSubjects":"2"},{"groupId":"FG006","numSubjects":"2"}]}],"dropWithdraws":[{"type":"Randomized but did not receive treatment","reasons":[{"groupId":"FG000","numSubjects":"0"},{"groupId":"FG001","numSubjects":"1"},{"groupId":"FG002","numSubjects":"0"},{"groupId":"FG003","numSubjects":"0"},{"groupId":"FG004","numSubjects":"0"},{"groupId":"FG005","numSubjects":"2"},{"groupId":"FG006","numSubjects":"2"}]},{"type":"Death","reasons":[{"groupId":"FG000","numSubjects":"0"},{"groupId":"FG001","numSubjects":"1"},{"groupId":"FG002","numSubjects":"0"},{"groupId":"FG003","numSubjects":"0"},{"groupId":"FG004","numSubjects":"2"},{"groupId":"FG005","numSubjects":"0"},{"groupId":"FG006","numSubjects":"0"}]}]}]},"baselineCharacteristicsModule":{"populationDescription":"Demographics and baseline characteristics were assessed in the Safety Analysis Set.","groups":[{"id":"BG000","title":"Cohort 1: DS-1040b 0.6 mg","description":"Participants who received a single intravenous infusion of DS-1040b 0.6 mg."},{"id":"BG001","title":"Cohort 2: DS-1040b 1.2 mg","description":"Participants who received a single intravenous infusion of DS-1040b 1.2 mg."},{"id":"BG002","title":"Cohort 3: DS-1040b 2.4 mg","description":"Participants who received a single intravenous infusion of DS-1040b 2.4 mg."},{"id":"BG003","title":"Cohort 4: DS-1040b 4.8 mg","description":"Participants who received a single intravenous infusion of DS-1040b 4.8 mg."},{"id":"BG004","title":"Cohort 5: DS-1040b 7.2 mg","description":"Participants who received a single intravenous infusion of DS-1040b 7.2 mg."},{"id":"BG005","title":"Cohort 6: DS-1040b 9.6 mg","description":"Participants who received a single intravenous infusion of DS-1040b 9.6 mg."},{"id":"BG006","title":"Placebo","description":"Participants who received a single intravenous infusion of placebo."},{"id":"BG007","title":"Total","description":"Total of all reporting groups"}],"denoms":[{"units":"Participants","counts":[{"groupId":"BG000","value":"7"},{"groupId":"BG001","value":"6"},{"groupId":"BG002","value":"13"},{"groupId":"BG003","value":"17"},{"groupId":"BG004","value":"18"},{"groupId":"BG005","value":"16"},{"groupId":"BG006","value":"24"},{"groupId":"BG007","value":"101"}]}],"measures":[{"title":"Age, Categorical","populationDescription":"Age data were missing for participants in some cohorts.","paramType":"COUNT_OF_PARTICIPANTS","unitOfMeasure":"Participants","classes":[{"denoms":[{"units":"Participants","counts":[{"groupId":"BG000","value":"6"},{"groupId":"BG001","value":"6"},{"groupId":"BG002","value":"12"},{"groupId":"BG003","value":"15"},{"groupId":"BG004","value":"17"},{"groupId":"BG005","value":"16"},{"groupId":"BG006","value":"23"},{"groupId":"BG007","value":"95"}]}],"categories":[{"title":"<=18 years","measurements":[{"groupId":"BG000","value":"0"},{"groupId":"BG001","value":"0"},{"groupId":"BG002","value":"0"},{"groupId":"BG003","value":"0"},{"groupId":"BG004","value":"0"},{"groupId":"BG005","value":"0"},{"groupId":"BG006","value":"0"},{"groupId":"BG007","value":"0"}]},{"title":"Between 18 and 65 years","measurements":[{"groupId":"BG000","value":"2"},{"groupId":"BG001","value":"3"},{"groupId":"BG002","value":"8"},{"groupId":"BG003","value":"8"},{"groupId":"BG004","value":"9"},{"groupId":"BG005","value":"9"},{"groupId":"BG006","value":"13"},{"groupId":"BG007","value":"52"}]},{"title":">=65 years","measurements":[{"groupId":"BG000","value":"4"},{"groupId":"BG001","value":"3"},{"groupId":"BG002","value":"4"},{"groupId":"BG003","value":"7"},{"groupId":"BG004","value":"8"},{"groupId":"BG005","value":"7"},{"groupId":"BG006","value":"10"},{"groupId":"BG007","value":"43"}]}]}]},{"title":"Age, Continuous","populationDescription":"Age data were missing for participants in some cohorts.","paramType":"MEAN","dispersionType":"STANDARD_DEVIATION","unitOfMeasure":"years","classes":[{"denoms":[{"units":"Participants","counts":[{"groupId":"BG000","value":"6"},{"groupId":"BG001","value":"6"},{"groupId":"BG002","value":"12"},{"groupId":"BG003","value":"15"},{"groupId":"BG004","value":"17"},{"groupId":"BG005","value":"16"},{"groupId":"BG006","value":"23"},{"groupId":"BG007","value":"95"}]}],"categories":[{"measurements":[{"groupId":"BG000","value":"68.2","spread":"7.8"},{"groupId":"BG001","value":"68.2","spread":"10.2"},{"groupId":"BG002","value":"62.7","spread":"9.7"},{"groupId":"BG003","value":"69.1","spread":"11.1"},{"groupId":"BG004","value":"65.8","spread":"11.7"},{"groupId":"BG005","value":"64.8","spread":"12.8"},{"groupId":"BG006","value":"62.2","spread":"12.3"},{"groupId":"BG007","value":"65.2","spread":"11.4"}]}]}]},{"title":"Sex: Female, Male","paramType":"COUNT_OF_PARTICIPANTS","unitOfMeasure":"Participants","classes":[{"denoms":[{"units":"Participants","counts":[{"groupId":"BG000","value":"7"},{"groupId":"BG001","value":"6"},{"groupId":"BG002","value":"13"},{"groupId":"BG003","value":"17"},{"groupId":"BG004","value":"18"},{"groupId":"BG005","value":"16"},{"groupId":"BG006","value":"24"},{"groupId":"BG007","value":"101"}]}],"categories":[{"title":"Female","measurements":[{"groupId":"BG000","value":"3"},{"groupId":"BG001","value":"2"},{"groupId":"BG002","value":"5"},{"groupId":"BG003","value":"6"},{"groupId":"BG004","value":"8"},{"groupId":"BG005","value":"6"},{"groupId":"BG006","value":"11"},{"groupId":"BG007","value":"41"}]},{"title":"Male","measurements":[{"groupId":"BG000","value":"4"},{"groupId":"BG001","value":"4"},{"groupId":"BG002","value":"8"},{"groupId":"BG003","value":"11"},{"groupId":"BG004","value":"10"},{"groupId":"BG005","value":"10"},{"groupId":"BG006","value":"13"},{"groupId":"BG007","value":"60"}]}]}]},{"title":"Race (NIH/OMB)","paramType":"COUNT_OF_PARTICIPANTS","unitOfMeasure":"Participants","classes":[{"denoms":[{"units":"Participants","counts":[{"groupId":"BG000","value":"7"},{"groupId":"BG001","value":"6"},{"groupId":"BG002","value":"13"},{"groupId":"BG003","value":"17"},{"groupId":"BG004","value":"18"},{"groupId":"BG005","value":"16"},{"groupId":"BG006","value":"24"},{"groupId":"BG007","value":"101"}]}],"categories":[{"title":"American Indian or Alaska Native","measurements":[{"groupId":"BG000","value":"0"},{"groupId":"BG001","value":"0"},{"groupId":"BG002","value":"0"},{"groupId":"BG003","value":"0"},{"groupId":"BG004","value":"0"},{"groupId":"BG005","value":"0"},{"groupId":"BG006","value":"0"},{"groupId":"BG007","value":"0"}]},{"title":"Asian","measurements":[{"groupId":"BG000","value":"0"},{"groupId":"BG001","value":"0"},{"groupId":"BG002","value":"0"},{"groupId":"BG003","value":"4"},{"groupId":"BG004","value":"8"},{"groupId":"BG005","value":"2"},{"groupId":"BG006","value":"3"},{"groupId":"BG007","value":"17"}]},{"title":"Native Hawaiian or Other Pacific Islander","measurements":[{"groupId":"BG000","value":"0"},{"groupId":"BG001","value":"0"},{"groupId":"BG002","value":"0"},{"groupId":"BG003","value":"0"},{"groupId":"BG004","value":"0"},{"groupId":"BG005","value":"0"},{"groupId":"BG006","value":"0"},{"groupId":"BG007","value":"0"}]},{"title":"Black or African American","measurements":[{"groupId":"BG000","value":"1"},{"groupId":"BG001","value":"1"},{"groupId":"BG002","value":"1"},{"groupId":"BG003","value":"2"},{"groupId":"BG004","value":"0"},{"groupId":"BG005","value":"1"},{"groupId":"BG006","value":"4"},{"groupId":"BG007","value":"10"}]},{"title":"White","measurements":[{"groupId":"BG000","value":"6"},{"groupId":"BG001","value":"4"},{"groupId":"BG002","value":"11"},{"groupId":"BG003","value":"11"},{"groupId":"BG004","value":"10"},{"groupId":"BG005","value":"13"},{"groupId":"BG006","value":"17"},{"groupId":"BG007","value":"72"}]},{"title":"More than one race","measurements":[{"groupId":"BG000","value":"0"},{"groupId":"BG001","value":"1"},{"groupId":"BG002","value":"1"},{"groupId":"BG003","value":"0"},{"groupId":"BG004","value":"0"},{"groupId":"BG005","value":"0"},{"groupId":"BG006","value":"0"},{"groupId":"BG007","value":"2"}]},{"title":"Unknown or Not Reported","measurements":[{"groupId":"BG000","value":"0"},{"groupId":"BG001","value":"0"},{"groupId":"BG002","value":"0"},{"groupId":"BG003","value":"0"},{"groupId":"BG004","value":"0"},{"groupId":"BG005","value":"0"},{"groupId":"BG006","value":"0"},{"groupId":"BG007","value":"0"}]}]}]}]},"outcomeMeasuresModule":{"outcomeMeasures":[{"type":"PRIMARY","title":"Summary of Treatment-Emergent Adverse Event Reported by >10% of Participants Following Ascending Doses of DS-1040b and a Placebo in Participants With Acute Ischemic Stroke","description":"Treatment-emergent adverse event (TEAE) is defined as an adverse event that emerges during the treatment period (from first dose date until 30 days after the last dosing date), having been absent at predose; or reemerges during treatment, having been present at baseline but stopped prior to treatment; or worsens in severity after starting treatment relative to the pre-dose state, when the adverse event is continuous.","populationDescription":"Treatment-emergent adverse events were assessed in the Safety Analysis Set.","reportingStatus":"POSTED","paramType":"COUNT_OF_PARTICIPANTS","unitOfMeasure":"Participants","timeFrame":"Baseline up to 90 days post last dose, up to 3 years 11 months","groups":[{"id":"OG000","title":"Cohort 1: DS-1040b 0.6 mg","description":"Participants who received a single intravenous infusion of DS-1040b 0.6 mg."},{"id":"OG001","title":"Cohort 2: DS-1040b 1.2 mg","description":"Participants who received a single intravenous infusion of DS-1040b 1.2 mg."},{"id":"OG002","title":"Cohort 3: DS-1040b 2.4 mg","description":"Participants who received a single intravenous infusion of DS-1040b 2.4 mg."},{"id":"OG003","title":"Cohort 4: DS-1040b 4.8 mg","description":"Participants who received a single intravenous infusion of DS-1040b 4.8 mg."},{"id":"OG004","title":"Cohort 5: DS-1040b 7.2 mg","description":"Participants who received a single intravenous infusion of DS-1040b 7.2 mg."},{"id":"OG005","title":"Cohort 6: DS-1040b 9.6 mg","description":"Participants who received a single intravenous infusion of DS-1040b 9.6 mg."},{"id":"OG006","title":"All DS-1040b","description":"All participants who received a single intravenous infusion of DS-1040b."},{"id":"OG007","title":"Placebo","description":"Participants who received a single intravenous infusion of placebo."}],"denoms":[{"units":"Participants","counts":[{"groupId":"OG000","value":"7"},{"groupId":"OG001","value":"6"},{"groupId":"OG002","value":"13"},{"groupId":"OG003","value":"17"},{"groupId":"OG004","value":"18"},{"groupId":"OG005","value":"16"},{"groupId":"OG006","value":"77"},{"groupId":"OG007","value":"24"}]}],"classes":[{"title":"Any TEAE","categories":[{"measurements":[{"groupId":"OG000","value":"5"},{"groupId":"OG001","value":"5"},{"groupId":"OG002","value":"10"},{"groupId":"OG003","value":"15"},{"groupId":"OG004","value":"14"},{"groupId":"OG005","value":"14"},{"groupId":"OG006","value":"63"},{"groupId":"OG007","value":"18"}]}]},{"title":"Hypokalaemia","categories":[{"measurements":[{"groupId":"OG000","value":"1"},{"groupId":"OG001","value":"2"},{"groupId":"OG002","value":"2"},{"groupId":"OG003","value":"0"},{"groupId":"OG004","value":"2"},{"groupId":"OG005","value":"2"},{"groupId":"OG006","value":"9"},{"groupId":"OG007","value":"6"}]}]},{"title":"Constipation","categories":[{"measurements":[{"groupId":"OG000","value":"1"},{"groupId":"OG001","value":"2"},{"groupId":"OG002","value":"3"},{"groupId":"OG003","value":"1"},{"groupId":"OG004","value":"5"},{"groupId":"OG005","value":"2"},{"groupId":"OG006","value":"14"},{"groupId":"OG007","value":"5"}]}]},{"title":"Insomnia","categories":[{"measurements":[{"groupId":"OG000","value":"0"},{"groupId":"OG001","value":"0"},{"groupId":"OG002","value":"1"},{"groupId":"OG003","value":"0"},{"groupId":"OG004","value":"1"},{"groupId":"OG005","value":"3"},{"groupId":"OG006","value":"5"},{"groupId":"OG007","value":"5"}]}]},{"title":"Hypertension","categories":[{"measurements":[{"groupId":"OG000","value":"0"},{"groupId":"OG001","value":"0"},{"groupId":"OG002","value":"1"},{"groupId":"OG003","value":"3"},{"groupId":"OG004","value":"1"},{"groupId":"OG005","value":"0"},{"groupId":"OG006","value":"5"},{"groupId":"OG007","value":"3"}]}]},{"title":"Anxiety","categories":[{"measurements":[{"groupId":"OG000","value":"0"},{"groupId":"OG001","value":"1"},{"groupId":"OG002","value":"0"},{"groupId":"OG003","value":"0"},{"groupId":"OG004","value":"0"},{"groupId":"OG005","value":"2"},{"groupId":"OG006","value":"3"},{"groupId":"OG007","value":"3"}]}]},{"title":"Hyperglycaemia","categories":[{"measurements":[{"groupId":"OG000","value":"0"},{"groupId":"OG001","value":"0"},{"groupId":"OG002","value":"0"},{"groupId":"OG003","value":"1"},{"groupId":"OG004","value":"1"},{"groupId":"OG005","value":"0"},{"groupId":"OG006","value":"2"},{"groupId":"OG007","value":"3"}]}]},{"title":"Dyslipidaemia","categories":[{"measurements":[{"groupId":"OG000","value":"0"},{"groupId":"OG001","value":"0"},{"groupId":"OG002","value":"0"},{"groupId":"OG003","value":"0"},{"groupId":"OG004","value":"1"},{"groupId":"OG005","value":"1"},{"groupId":"OG006","value":"2"},{"groupId":"OG007","value":"3"}]}]},{"title":"Thrombocytopenia","categories":[{"measurements":[{"groupId":"OG000","value":"0"},{"groupId":"OG001","value":"1"},{"groupId":"OG002","value":"0"},{"groupId":"OG003","value":"0"},{"groupId":"OG004","value":"0"},{"groupId":"OG005","value":"0"},{"groupId":"OG006","value":"1"},{"groupId":"OG007","value":"3"}]}]},{"title":"Vomiting","categories":[{"measurements":[{"groupId":"OG000","value":"0"},{"groupId":"OG001","value":"1"},{"groupId":"OG002","value":"0"},{"groupId":"OG003","value":"0"},{"groupId":"OG004","value":"0"},{"groupId":"OG005","value":"0"},{"groupId":"OG006","value":"1"},{"groupId":"OG007","value":"3"}]}]},{"title":"Pyrexia","categories":[{"measurements":[{"groupId":"OG000","value":"0"},{"groupId":"OG001","value":"0"},{"groupId":"OG002","value":"0"},{"groupId":"OG003","value":"1"},{"groupId":"OG004","value":"0"},{"groupId":"OG005","value":"0"},{"groupId":"OG006","value":"1"},{"groupId":"OG007","value":"3"}]}]},{"title":"Vitamin B12 deficiency","categories":[{"measurements":[{"groupId":"OG000","value":"0"},{"groupId":"OG001","value":"0"},{"groupId":"OG002","value":"0"},{"groupId":"OG003","value":"0"},{"groupId":"OG004","value":"0"},{"groupId":"OG005","value":"0"},{"groupId":"OG006","value":"0"},{"groupId":"OG007","value":"3"}]}]},{"title":"Headache","categories":[{"measurements":[{"groupId":"OG000","value":"3"},{"groupId":"OG001","value":"1"},{"groupId":"OG002","value":"2"},{"groupId":"OG003","value":"2"},{"groupId":"OG004","value":"1"},{"groupId":"OG005","value":"4"},{"groupId":"OG006","value":"13"},{"groupId":"OG007","value":"2"}]}]}]},{"type":"SECONDARY","title":"Summary of Pharmacokinetic (PK) Parameter Maximum (Peak) Observed Plasma Concentration (Cmax) of DS-1040b Following Ascending Doses in Participants With Acute Ischemic Stroke","description":"The PK parameter of Maximum (Peak) Observed Plasma Concentration (Cmax) of DS-1040b was calculated from the plasma concentrations of DS-1040b using non-compartmental analysis","populationDescription":"Pharmacokinetic parameters were assessed in the Pharmacokinetic Analysis Set.","reportingStatus":"POSTED","paramType":"MEAN","dispersionType":"Standard Deviation","unitOfMeasure":"ng/mL","timeFrame":"Predose, 0.5, 3, 6, 9, 12, 24, 48, 72, and 96 hours postdose","groups":[{"id":"OG000","title":"Cohort 1: DS-1040b 0.6 mg","description":"Participants who received a single intravenous infusion of DS-1040b 0.6 mg."},{"id":"OG001","title":"Cohort 2: DS-1040b 1.2 mg","description":"Participants who received a single intravenous infusion of DS-1040b 1.2 mg."},{"id":"OG002","title":"Cohort 3: DS-1040b 2.4 mg","description":"Participants who received a single intravenous infusion of DS-1040b 2.4 mg."},{"id":"OG003","title":"Cohort 4: DS-1040b 4.8 mg","description":"Participants who received a single intravenous infusion of DS-1040b 4.8 mg."},{"id":"OG004","title":"Cohort 5: DS-1040b 7.2 mg","description":"Participants who received a single intravenous infusion of DS-1040b 7.2 mg."},{"id":"OG005","title":"Cohort 6: DS-1040b 9.6 mg","description":"Participants who received a single intravenous infusion of DS-1040b 9.6 mg."}],"denoms":[{"units":"Participants","counts":[{"groupId":"OG000","value":"5"},{"groupId":"OG001","value":"6"},{"groupId":"OG002","value":"13"},{"groupId":"OG003","value":"16"},{"groupId":"OG004","value":"17"},{"groupId":"OG005","value":"10"}]}],"classes":[{"categories":[{"measurements":[{"groupId":"OG000","value":"10.09","spread":"3.26"},{"groupId":"OG001","value":"26.95","spread":"9.39"},{"groupId":"OG002","value":"61.28","spread":"35.67"},{"groupId":"OG003","value":"729.76","spread":"1661.06"},{"groupId":"OG004","value":"191.06","spread":"59.60"},{"groupId":"OG005","value":"203.70","spread":"41.49"}]}]}]},{"type":"SECONDARY","title":"Summary of Pharmacokinetic Parameter Area Under the Concentration Versus Time Curve From Zero to Last Quantifiable Concentration Sampling Point (AUClast) of DS-1040b Following Ascending Doses in Participants With Acute Ischemic Stroke","description":"The PK parameter of Area Under the Concentration Versus Time Curve from Zero to Last Quantifiable Concentration Sampling Point of DS-1040b was calculated from the plasma concentrations of DS-1040b using non-compartmental analysis","populationDescription":"Pharmacokinetic parameters were assessed in the Pharmacokinetic Analysis Set.","reportingStatus":"POSTED","paramType":"MEAN","dispersionType":"Standard Deviation","unitOfMeasure":"ng*h/mL","timeFrame":"Predose, 0.5, 3, 6, 9, 12, 24, 48, 72, and 96 hours postdose","groups":[{"id":"OG000","title":"Cohort 1: DS-1040b 0.6 mg","description":"Participants who received a single intravenous infusion of DS-1040b 0.6 mg."},{"id":"OG001","title":"Cohort 2: DS-1040b 1.2 mg","description":"Participants who received a single intravenous infusion of DS-1040b 1.2 mg."},{"id":"OG002","title":"Cohort 3: DS-1040b 2.4 mg","description":"Participants who received a single intravenous infusion of DS-1040b 2.4 mg."},{"id":"OG003","title":"Cohort 4: DS-1040b 4.8 mg","description":"Participants who received a single intravenous infusion of DS-1040b 4.8 mg."},{"id":"OG004","title":"Cohort 5: DS-1040b 7.2 mg","description":"Participants who received a single intravenous infusion of DS-1040b 7.2 mg."},{"id":"OG005","title":"Cohort 6: DS-1040b 9.6 mg","description":"Participants who received a single intravenous infusion of DS-1040b 9.6 mg."}],"denoms":[{"units":"Participants","counts":[{"groupId":"OG000","value":"5"},{"groupId":"OG001","value":"6"},{"groupId":"OG002","value":"13"},{"groupId":"OG003","value":"16"},{"groupId":"OG004","value":"17"},{"groupId":"OG005","value":"10"}]}],"classes":[{"categories":[{"measurements":[{"groupId":"OG000","value":"69.74","spread":"16.19"},{"groupId":"OG001","value":"219.83","spread":"95.16"},{"groupId":"OG002","value":"447.75","spread":"199.97"},{"groupId":"OG003","value":"2611.87","spread":"4471.65"},{"groupId":"OG004","value":"1489.21","spread":"460.78"},{"groupId":"OG005","value":"1700.24","spread":"346.43"}]}]}]},{"type":"SECONDARY","title":"Summary of Pharmacokinetic Parameter Terminal Half-life (t1/2) of DS-1040b Following Ascending Doses in Participants With Acute Ischemic Stroke","description":"The PK parameter of Terminal Half-life of DS-1040b was calculated from the plasma concentrations of DS-1040b using non-compartmental analysis in patients with available sample for the analysis.","populationDescription":"Pharmacokinetic parameters were assessed in the Pharmacokinetic Analysis Set, except for terminal half-life which was assessed in patients with available sample for the analysis.","reportingStatus":"POSTED","paramType":"MEAN","dispersionType":"Standard Deviation","unitOfMeasure":"h","timeFrame":"Pre-dose, 0.5, 3, 6, 9, 12, 24, 48, 72, and 96 hours post-dose","groups":[{"id":"OG000","title":"Cohort 1: DS-1040b 0.6 mg","description":"Participants who received a single intravenous infusion of DS-1040b 0.6 mg."},{"id":"OG001","title":"Cohort 2: DS-1040b 1.2 mg","description":"Participants who received a single intravenous infusion of DS-1040b 1.2 mg."},{"id":"OG002","title":"Cohort 3: DS-1040b 2.4 mg","description":"Participants who received a single intravenous infusion of DS-1040b 2.4 mg."},{"id":"OG003","title":"Cohort 4: DS-1040b 4.8 mg","description":"Participants who received a single intravenous infusion of DS-1040b 4.8 mg."},{"id":"OG004","title":"Cohort 5: DS-1040b 7.2 mg","description":"Participants who received a single intravenous infusion of DS-1040b 7.2 mg."},{"id":"OG005","title":"Cohort 6: DS-1040b 9.6 mg","description":"Participants who received a single intravenous infusion of DS-1040b 9.6 mg."}],"denoms":[{"units":"Participants","counts":[{"groupId":"OG000","value":"4"},{"groupId":"OG001","value":"2"},{"groupId":"OG002","value":"7"},{"groupId":"OG003","value":"8"},{"groupId":"OG004","value":"14"},{"groupId":"OG005","value":"8"}]}],"classes":[{"categories":[{"measurements":[{"groupId":"OG000","value":"2.59","spread":"0.46"},{"groupId":"OG001","value":"4.14","spread":"0.17"},{"groupId":"OG002","value":"10.50","spread":"15.02"},{"groupId":"OG003","value":"36.68","spread":"25.94"},{"groupId":"OG004","value":"33.37","spread":"14.71"},{"groupId":"OG005","value":"35.86","spread":"10.98"}]}]}]},{"type":"SECONDARY","title":"Summary of Activated Form of Thrombin-activatable Fibrinolysis Inhibitor (TAFIa) Following Ascending Doses of DS-1040b and a Placebo in Participants With Acute Ischemic Stroke","description":"The enzymatic activity of thrombin-activatable fibrinolysis inhibitor was assessed using the Stago Coagulation Analyzer.","populationDescription":"TAFIa activity was assessed in the Pharmacodynamic Analysis Set.","reportingStatus":"POSTED","paramType":"MEAN","dispersionType":"Standard Deviation","unitOfMeasure":"mean percentage of TAFIa activity","timeFrame":"Baseline and 6 hours postdose","groups":[{"id":"OG000","title":"Cohort 1: DS-1040b 0.6 mg","description":"Participants who received a single intravenous infusion of DS-1040b 0.6 mg."},{"id":"OG001","title":"Cohort 2: DS-1040b 1.2 mg","description":"Participants who received a single intravenous infusion of DS-1040b 1.2 mg."},{"id":"OG002","title":"Cohort 3: DS-1040b 2.4 mg","description":"Participants who received a single intravenous infusion of DS-1040b 2.4 mg."},{"id":"OG003","title":"Cohort 4: DS-1040b 4.8 mg","description":"Participants who received a single intravenous infusion of DS-1040b 4.8 mg."},{"id":"OG004","title":"Cohort 5: DS-1040b 7.2 mg","description":"Participants who received a single intravenous infusion of DS-1040b 7.2 mg."},{"id":"OG005","title":"Cohort 6: DS-1040b 9.6 mg (Non-IAT)","description":"Participants who received a single intravenous infusion of DS-1040b 9.6 mg (non-intra-arterial thrombectomy)."},{"id":"OG006","title":"Placebo","description":"Participants who received a single intravenous infusion of placebo."}],"denoms":[{"units":"Participants","counts":[{"groupId":"OG000","value":"7"},{"groupId":"OG001","value":"6"},{"groupId":"OG002","value":"13"},{"groupId":"OG003","value":"17"},{"groupId":"OG004","value":"18"},{"groupId":"OG005","value":"10"},{"groupId":"OG006","value":"24"}]}],"classes":[{"title":"Baseline","denoms":[{"units":"Participants","counts":[{"groupId":"OG000","value":"7"},{"groupId":"OG001","value":"5"},{"groupId":"OG002","value":"13"},{"groupId":"OG003","value":"16"},{"groupId":"OG004","value":"17"},{"groupId":"OG005","value":"9"},{"groupId":"OG006","value":"19"}]}],"categories":[{"measurements":[{"groupId":"OG000","value":"96.7","spread":"23.7"},{"groupId":"OG001","value":"97.8","spread":"17.5"},{"groupId":"OG002","value":"100.4","spread":"21.6"},{"groupId":"OG003","value":"105.1","spread":"23.4"},{"groupId":"OG004","value":"108.1","spread":"30.5"},{"groupId":"OG005","value":"112.6","spread":"27.2"},{"groupId":"OG006","value":"100.9","spread":"20.8"}]}]},{"title":"6 h postdose","denoms":[{"units":"Participants","counts":[{"groupId":"OG000","value":"6"},{"groupId":"OG001","value":"6"},{"groupId":"OG002","value":"10"},{"groupId":"OG003","value":"16"},{"groupId":"OG004","value":"17"},{"groupId":"OG005","value":"9"},{"groupId":"OG006","value":"21"}]}],"categories":[{"measurements":[{"groupId":"OG000","value":"93.5","spread":"26.6"},{"groupId":"OG001","value":"98.8","spread":"27.2"},{"groupId":"OG002","value":"86.7","spread":"16.7"},{"groupId":"OG003","value":"75.9","spread":"20.9"},{"groupId":"OG004","value":"72.9","spread":"22.6"},{"groupId":"OG005","value":"73.9","spread":"14.4"},{"groupId":"OG006","value":"104.1","spread":"24.7"}]}]}]},{"type":"SECONDARY","title":"Summary of Changes From Baseline at Day 30 in National Institute of Health Stroke Scale (NIHSS) Score Following Ascending Doses of DS-1040b and a Placebo in Participants With Acute Ischemic Stroke","description":"The National Institute of Health Stroke Scale (NIHSS) quantifies stroke severity based on weighted evaluation findings. The score for each ability is a number between 0 and 4, with 0 being normal functioning and 4 being completely impaired. The patient's NIHSS score is calculated by adding the number for each element of the scale; 42 is the highest score possible. In the NIHSS, the higher the score indicates more impairment (worse outcome) in a stroke patient.","populationDescription":"NIHSS stroke scale scores were assessed in the Safety Analysis Set.","reportingStatus":"POSTED","paramType":"MEAN","dispersionType":"Standard Deviation","unitOfMeasure":"units on a scale","timeFrame":"30 days post dose","groups":[{"id":"OG000","title":"Cohort 1: DS-1040b 0.6 mg","description":"Participants who received a single intravenous infusion of DS-1040b 0.6 mg."},{"id":"OG001","title":"Cohort 2: DS-1040b 1.2 mg","description":"Participants who received a single intravenous infusion of DS-1040b 1.2 mg."},{"id":"OG002","title":"Cohort 3: DS-1040b 2.4 mg","description":"Participants who received a single intravenous infusion of DS-1040b 2.4 mg."},{"id":"OG003","title":"Cohort 4: DS-1040b 4.8 mg","description":"Participants who received a single intravenous infusion of DS-1040b 4.8 mg."},{"id":"OG004","title":"Cohort 5: DS-1040b 7.2 mg","description":"Participants who received a single intravenous infusion of DS-1040b 7.2 mg."},{"id":"OG005","title":"Cohort 6: DS-1040b 9.6 mg","description":"Participants who received a single intravenous infusion of DS-1040b 9.6 mg."},{"id":"OG006","title":"All DS-1040b","description":"All participants who received a single intravenous infusion of DS-1040b."},{"id":"OG007","title":"Placebo","description":"Participants who received a single intravenous infusion of placebo."}],"denoms":[{"units":"Participants","counts":[{"groupId":"OG000","value":"7"},{"groupId":"OG001","value":"6"},{"groupId":"OG002","value":"13"},{"groupId":"OG003","value":"17"},{"groupId":"OG004","value":"18"},{"groupId":"OG005","value":"16"},{"groupId":"OG006","value":"77"},{"groupId":"OG007","value":"24"}]}],"classes":[{"categories":[{"measurements":[{"groupId":"OG000","value":"-3.7","spread":"2.21"},{"groupId":"OG001","value":"-3.0","spread":"2.00"},{"groupId":"OG002","value":"-3.5","spread":"1.71"},{"groupId":"OG003","value":"-2.06","spread":"1.06"},{"groupId":"OG004","value":"-3.4","spread":"2.70"},{"groupId":"OG005","value":"-6.2","spread":"3.08"},{"groupId":"OG006","value":"-3.9","spread":"2.56"},{"groupId":"OG007","value":"-3.6","spread":"4.27"}]}]}]},{"type":"SECONDARY","title":"Percentage of Participants With a Modified Rankin Scale (mRS) Score of 0 to 2 Following Ascending Doses of DS-1040b and a Placebo in Participants With Acute Ischemic Stroke","description":"The modified Rankin scale (mRS) is a commonly used disability scale derived from the Rankin scale that is used to measure the degree of disability or dependence in the daily activities of people who have suffered a stroke or other causes of neurological disability. The level of disability following a stroke is assessed via a scale from 0 to 6, where 0 is no symptoms at all and 6 indicates death. Higher scores indicate worse outcome. The percentage of participants with an mRS score of 0 to 2 at Day 5 (baseline) and Day 90 is being reported.","populationDescription":"Modified Rankin scale scores were assessed in the Safety Analysis Set.","reportingStatus":"POSTED","paramType":"NUMBER","unitOfMeasure":"percentage of participants","timeFrame":"Day 5 (baseline) and Day 90 post dose","groups":[{"id":"OG000","title":"Cohort 1: DS-1040b 0.6 mg","description":"Participants who received a single intravenous infusion of DS-1040b 0.6 mg."},{"id":"OG001","title":"Cohort 2: DS-1040b 1.2 mg","description":"Participants who received a single intravenous infusion of DS-1040b 1.2 mg."},{"id":"OG002","title":"Cohort 3: DS-1040b 2.4 mg","description":"Participants who received a single intravenous infusion of DS-1040b 2.4 mg."},{"id":"OG003","title":"Cohort 4: DS-1040b 4.8 mg","description":"Participants who received a single intravenous infusion of DS-1040b 4.8 mg."},{"id":"OG004","title":"Cohort 5: DS-1040b 7.2 mg","description":"Participants who received a single intravenous infusion of DS-1040b 7.2 mg."},{"id":"OG005","title":"Cohort 6: DS-1040b 9.6 mg","description":"Participants who received a single intravenous infusion of DS-1040b 9.6 mg."},{"id":"OG006","title":"All DS-1040b","description":"All participants who received a single intravenous infusion of DS-1040b."},{"id":"OG007","title":"Placebo","description":"Participants who received a single intravenous infusion of placebo."}],"denoms":[{"units":"Participants","counts":[{"groupId":"OG000","value":"7"},{"groupId":"OG001","value":"6"},{"groupId":"OG002","value":"13"},{"groupId":"OG003","value":"17"},{"groupId":"OG004","value":"18"},{"groupId":"OG005","value":"16"},{"groupId":"OG006","value":"77"},{"groupId":"OG007","value":"24"}]}],"classes":[{"title":"Day 5","denoms":[{"units":"Participants","counts":[{"groupId":"OG000","value":"6"},{"groupId":"OG001","value":"5"},{"groupId":"OG002","value":"13"},{"groupId":"OG003","value":"17"},{"groupId":"OG004","value":"18"},{"groupId":"OG005","value":"15"},{"groupId":"OG006","value":"74"},{"groupId":"OG007","value":"24"}]}],"categories":[{"measurements":[{"groupId":"OG000","value":"66.7"},{"groupId":"OG001","value":"40.0"},{"groupId":"OG002","value":"76.9"},{"groupId":"OG003","value":"82.4"},{"groupId":"OG004","value":"72.2"},{"groupId":"OG005","value":"53.3"},{"groupId":"OG006","value":"68.9"},{"groupId":"OG007","value":"54.2"}]}]},{"title":"Day 90","denoms":[{"units":"Participants","counts":[{"groupId":"OG000","value":"7"},{"groupId":"OG001","value":"5"},{"groupId":"OG002","value":"13"},{"groupId":"OG003","value":"17"},{"groupId":"OG004","value":"16"},{"groupId":"OG005","value":"16"},{"groupId":"OG006","value":"74"},{"groupId":"OG007","value":"24"}]}],"categories":[{"measurements":[{"groupId":"OG000","value":"85.7"},{"groupId":"OG001","value":"60.0"},{"groupId":"OG002","value":"76.9"},{"groupId":"OG003","value":"82.4"},{"groupId":"OG004","value":"93.8"},{"groupId":"OG005","value":"68.8"},{"groupId":"OG006","value":"79.7"},{"groupId":"OG007","value":"75.0"}]}]}]}]},"adverseEventsModule":{"frequencyThreshold":"5","timeFrame":"Treatment-emergent adverse events (TEAEs) were collected from baseline up to 30 days post last dose, up to 3 years 11 months.","description":"A TEAE is defined as an adverse event that: emerges during the treatment period (from first dose date until 30 days after the last dosing date), having been absent at predose; or reemerges during treatment, having been present at baseline but stopped prior to treatment; or worsens in severity after starting treatment relative to the pre-dose state, when the adverse event is continuous.","eventGroups":[{"id":"EG000","title":"Cohort 1: DS-1040b 0.6 mg","description":"Participants who received a single intravenous infusion of DS-1040b 0.6 mg.","deathsNumAffected":0,"deathsNumAtRisk":7,"seriousNumAffected":1,"seriousNumAtRisk":7,"otherNumAffected":5,"otherNumAtRisk":7},{"id":"EG001","title":"Cohort 2: DS-1040b 1.2 mg","description":"Participants who received a single intravenous infusion of DS-1040b 1.2 mg.","deathsNumAffected":1,"deathsNumAtRisk":6,"seriousNumAffected":4,"seriousNumAtRisk":6,"otherNumAffected":5,"otherNumAtRisk":6},{"id":"EG002","title":"Cohort 3: DS-1040b 2.4 mg","description":"Participants who received a single intravenous infusion of DS-1040b 2.4 mg.","deathsNumAffected":0,"deathsNumAtRisk":13,"seriousNumAffected":0,"seriousNumAtRisk":13,"otherNumAffected":10,"otherNumAtRisk":13},{"id":"EG003","title":"Cohort 4: DS-1040b 4.8 mg","description":"Participants who received a single intravenous infusion of DS-1040b 4.8 mg.","deathsNumAffected":0,"deathsNumAtRisk":17,"seriousNumAffected":1,"seriousNumAtRisk":17,"otherNumAffected":15,"otherNumAtRisk":17},{"id":"EG004","title":"Cohort 5: DS-1040b 7.2 mg","description":"Participants who received a single intravenous infusion of DS-1040b 7.2 mg.","deathsNumAffected":2,"deathsNumAtRisk":18,"seriousNumAffected":2,"seriousNumAtRisk":18,"otherNumAffected":14,"otherNumAtRisk":18},{"id":"EG005","title":"Cohort 6: DS-1040b 9.6 mg","description":"Participants who received a single intravenous infusion of DS-1040b 9.6 mg.","deathsNumAffected":0,"deathsNumAtRisk":16,"seriousNumAffected":2,"seriousNumAtRisk":16,"otherNumAffected":14,"otherNumAtRisk":16},{"id":"EG006","title":"All DS-1040b","description":"All participants who received a single intravenous infusion of DS-1040b.","deathsNumAffected":3,"deathsNumAtRisk":77,"seriousNumAffected":10,"seriousNumAtRisk":77,"otherNumAffected":63,"otherNumAtRisk":77},{"id":"EG007","title":"Placebo","description":"Participants who received a single intravenous infusion of placebo.","deathsNumAffected":0,"deathsNumAtRisk":24,"seriousNumAffected":4,"seriousNumAtRisk":24,"otherNumAffected":18,"otherNumAtRisk":24}],"seriousEvents":[{"term":"Cardiac arrest","organSystem":"Cardiac disorders","sourceVocabulary":"MedDRA 17.1","assessmentType":"SYSTEMATIC_ASSESSMENT","stats":[{"groupId":"EG000","numAffected":0,"numAtRisk":7},{"groupId":"EG001","numAffected":1,"numAtRisk":6},{"groupId":"EG002","numAffected":0,"numAtRisk":13},{"groupId":"EG003","numAffected":0,"numAtRisk":17},{"groupId":"EG004","numAffected":0,"numAtRisk":18},{"groupId":"EG005","numAffected":0,"numAtRisk":16},{"groupId":"EG006","numAffected":1,"numAtRisk":77},{"groupId":"EG007","numAffected":1,"numAtRisk":24}]},{"term":"Cholestasis","organSystem":"Hepatobiliary disorders","sourceVocabulary":"MedDRA 17.1","assessmentType":"SYSTEMATIC_ASSESSMENT","stats":[{"groupId":"EG000","numAffected":0,"numAtRisk":7},{"groupId":"EG001","numAffected":1,"numAtRisk":6},{"groupId":"EG002","numAffected":0,"numAtRisk":13},{"groupId":"EG003","numAffected":0,"numAtRisk":17},{"groupId":"EG004","numAffected":0,"numAtRisk":18},{"groupId":"EG005","numAffected":0,"numAtRisk":16},{"groupId":"EG006","numAffected":1,"numAtRisk":77},{"groupId":"EG007","numAffected":0,"numAtRisk":24}]},{"term":"Hepatocellular injury","organSystem":"Hepatobiliary disorders","sourceVocabulary":"MedDRA 17.1","assessmentType":"SYSTEMATIC_ASSESSMENT","stats":[{"groupId":"EG000","numAffected":0,"numAtRisk":7},{"groupId":"EG001","numAffected":1,"numAtRisk":6},{"groupId":"EG002","numAffected":0,"numAtRisk":13},{"groupId":"EG003","numAffected":0,"numAtRisk":17},{"groupId":"EG004","numAffected":0,"numAtRisk":18},{"groupId":"EG005","numAffected":0,"numAtRisk":16},{"groupId":"EG006","numAffected":1,"numAtRisk":77},{"groupId":"EG007","numAffected":0,"numAtRisk":24}]},{"term":"Escherichia urinary tract infection","organSystem":"Infections and infestations","sourceVocabulary":"MedDRA 17.1","assessmentType":"SYSTEMATIC_ASSESSMENT","stats":[{"groupId":"EG000","numAffected":0,"numAtRisk":7},{"groupId":"EG001","numAffected":1,"numAtRisk":6},{"groupId":"EG002","numAffected":0,"numAtRisk":13},{"groupId":"EG003","numAffected":0,"numAtRisk":17},{"groupId":"EG004","numAffected":0,"numAtRisk":18},{"groupId":"EG005","numAffected":0,"numAtRisk":16},{"groupId":"EG006","numAffected":1,"numAtRisk":77},{"groupId":"EG007","numAffected":0,"numAtRisk":24}]},{"term":"Pneumonia","organSystem":"Infections and infestations","sourceVocabulary":"MedDRA 17.1","assessmentType":"SYSTEMATIC_ASSESSMENT","stats":[{"groupId":"EG000","numAffected":0,"numAtRisk":7},{"groupId":"EG001","numAffected":0,"numAtRisk":6},{"groupId":"EG002","numAffected":0,"numAtRisk":13},{"groupId":"EG003","numAffected":0,"numAtRisk":17},{"groupId":"EG004","numAffected":0,"numAtRisk":18},{"groupId":"EG005","numAffected":1,"numAtRisk":16},{"groupId":"EG006","numAffected":1,"numAtRisk":77},{"groupId":"EG007","numAffected":0,"numAtRisk":24}]},{"term":"Urosepsis","organSystem":"Infections and infestations","sourceVocabulary":"MedDRA 17.1","assessmentType":"SYSTEMATIC_ASSESSMENT","stats":[{"groupId":"EG000","numAffected":0,"numAtRisk":7},{"groupId":"EG001","numAffected":1,"numAtRisk":6},{"groupId":"EG002","numAffected":0,"numAtRisk":13},{"groupId":"EG003","numAffected":0,"numAtRisk":17},{"groupId":"EG004","numAffected":0,"numAtRisk":18},{"groupId":"EG005","numAffected":0,"numAtRisk":16},{"groupId":"EG006","numAffected":1,"numAtRisk":77},{"groupId":"EG007","numAffected":0,"numAtRisk":24}]},{"term":"Carotid arteriosclerosis","organSystem":"Nervous system disorders","sourceVocabulary":"MedDRA 17.1","assessmentType":"SYSTEMATIC_ASSESSMENT","stats":[{"groupId":"EG000","numAffected":0,"numAtRisk":7},{"groupId":"EG001","numAffected":0,"numAtRisk":6},{"groupId":"EG002","numAffected":0,"numAtRisk":13},{"groupId":"EG003","numAffected":0,"numAtRisk":17},{"groupId":"EG004","numAffected":1,"numAtRisk":18},{"groupId":"EG005","numAffected":0,"numAtRisk":16},{"groupId":"EG006","numAffected":1,"numAtRisk":77},{"groupId":"EG007","numAffected":0,"numAtRisk":24}]},{"term":"Carotid artery stenosis","organSystem":"Nervous system disorders","sourceVocabulary":"MedDRA 17.1","assessmentType":"SYSTEMATIC_ASSESSMENT","stats":[{"groupId":"EG000","numAffected":0,"numAtRisk":7},{"groupId":"EG001","numAffected":0,"numAtRisk":6},{"groupId":"EG002","numAffected":0,"numAtRisk":13},{"groupId":"EG003","numAffected":0,"numAtRisk":17},{"groupId":"EG004","numAffected":1,"numAtRisk":18},{"groupId":"EG005","numAffected":0,"numAtRisk":16},{"groupId":"EG006","numAffected":1,"numAtRisk":77},{"groupId":"EG007","numAffected":0,"numAtRisk":24}]},{"term":"Haemorrhage intracranial","organSystem":"Nervous system disorders","sourceVocabulary":"MedDRA 17.1","assessmentType":"SYSTEMATIC_ASSESSMENT","stats":[{"groupId":"EG000","numAffected":0,"numAtRisk":7},{"groupId":"EG001","numAffected":0,"numAtRisk":6},{"groupId":"EG002","numAffected":0,"numAtRisk":13},{"groupId":"EG003","numAffected":0,"numAtRisk":17},{"groupId":"EG004","numAffected":0,"numAtRisk":18},{"groupId":"EG005","numAffected":1,"numAtRisk":16},{"groupId":"EG006","numAffected":1,"numAtRisk":77},{"groupId":"EG007","numAffected":0,"numAtRisk":24}]},{"term":"Simple partial seizures","organSystem":"Nervous system disorders","sourceVocabulary":"MedDRA 17.1","assessmentType":"SYSTEMATIC_ASSESSMENT","stats":[{"groupId":"EG000","numAffected":1,"numAtRisk":7},{"groupId":"EG001","numAffected":0,"numAtRisk":6},{"groupId":"EG002","numAffected":0,"numAtRisk":13},{"groupId":"EG003","numAffected":0,"numAtRisk":17},{"groupId":"EG004","numAffected":0,"numAtRisk":18},{"groupId":"EG005","numAffected":0,"numAtRisk":16},{"groupId":"EG006","numAffected":1,"numAtRisk":77},{"groupId":"EG007","numAffected":0,"numAtRisk":24}]},{"term":"Cerebrovascular accident","organSystem":"Nervous system disorders","sourceVocabulary":"MedDRA 17.1","assessmentType":"SYSTEMATIC_ASSESSMENT","stats":[{"groupId":"EG000","numAffected":0,"numAtRisk":7},{"groupId":"EG001","numAffected":0,"numAtRisk":6},{"groupId":"EG002","numAffected":0,"numAtRisk":13},{"groupId":"EG003","numAffected":0,"numAtRisk":17},{"groupId":"EG004","numAffected":0,"numAtRisk":18},{"groupId":"EG005","numAffected":0,"numAtRisk":16},{"groupId":"EG006","numAffected":0,"numAtRisk":77},{"groupId":"EG007","numAffected":1,"numAtRisk":24}]},{"term":"Spinal cord infarction","organSystem":"Nervous system disorders","sourceVocabulary":"MedDRA 17.1","assessmentType":"SYSTEMATIC_ASSESSMENT","stats":[{"groupId":"EG000","numAffected":0,"numAtRisk":7},{"groupId":"EG001","numAffected":0,"numAtRisk":6},{"groupId":"EG002","numAffected":0,"numAtRisk":13},{"groupId":"EG003","numAffected":0,"numAtRisk":17},{"groupId":"EG004","numAffected":0,"numAtRisk":18},{"groupId":"EG005","numAffected":0,"numAtRisk":16},{"groupId":"EG006","numAffected":0,"numAtRisk":77},{"groupId":"EG007","numAffected":1,"numAtRisk":24}]},{"term":"Agitation","organSystem":"Psychiatric disorders","sourceVocabulary":"MedDRA 17.1","assessmentType":"SYSTEMATIC_ASSESSMENT","stats":[{"groupId":"EG000","numAffected":0,"numAtRisk":7},{"groupId":"EG001","numAffected":1,"numAtRisk":6},{"groupId":"EG002","numAffected":0,"numAtRisk":13},{"groupId":"EG003","numAffected":0,"numAtRisk":17},{"groupId":"EG004","numAffected":0,"numAtRisk":18},{"groupId":"EG005","numAffected":0,"numAtRisk":16},{"groupId":"EG006","numAffected":1,"numAtRisk":77},{"groupId":"EG007","numAffected":0,"numAtRisk":24}]},{"term":"Renal failure acute","organSystem":"Renal and urinary disorders","sourceVocabulary":"MedDRA 17.1","assessmentType":"SYSTEMATIC_ASSESSMENT","stats":[{"groupId":"EG000","numAffected":0,"numAtRisk":7},{"groupId":"EG001","numAffected":0,"numAtRisk":6},{"groupId":"EG002","numAffected":0,"numAtRisk":13},{"groupId":"EG003","numAffected":0,"numAtRisk":17},{"groupId":"EG004","numAffected":0,"numAtRisk":18},{"groupId":"EG005","numAffected":1,"numAtRisk":16},{"groupId":"EG006","numAffected":1,"numAtRisk":77},{"groupId":"EG007","numAffected":0,"numAtRisk":24}]},{"term":"Pulmonary embolism","organSystem":"Respiratory, thoracic and mediastinal disorders","sourceVocabulary":"MedDRA 17.1","assessmentType":"SYSTEMATIC_ASSESSMENT","stats":[{"groupId":"EG000","numAffected":0,"numAtRisk":7},{"groupId":"EG001","numAffected":0,"numAtRisk":6},{"groupId":"EG002","numAffected":0,"numAtRisk":13},{"groupId":"EG003","numAffected":0,"numAtRisk":17},{"groupId":"EG004","numAffected":0,"numAtRisk":18},{"groupId":"EG005","numAffected":0,"numAtRisk":16},{"groupId":"EG006","numAffected":0,"numAtRisk":77},{"groupId":"EG007","numAffected":1,"numAtRisk":24}]},{"term":"Haematoma","organSystem":"Vascular disorders","sourceVocabulary":"MedDRA 17.1","assessmentType":"SYSTEMATIC_ASSESSMENT","stats":[{"groupId":"EG000","numAffected":0,"numAtRisk":7},{"groupId":"EG001","numAffected":0,"numAtRisk":6},{"groupId":"EG002","numAffected":0,"numAtRisk":13},{"groupId":"EG003","numAffected":1,"numAtRisk":17},{"groupId":"EG004","numAffected":0,"numAtRisk":18},{"groupId":"EG005","numAffected":0,"numAtRisk":16},{"groupId":"EG006","numAffected":1,"numAtRisk":77},{"groupId":"EG007","numAffected":0,"numAtRisk":24}]}],"otherEvents":[{"term":"Anaemia","organSystem":"Blood and lymphatic system disorders","sourceVocabulary":"MedDRA 17.1","assessmentType":"SYSTEMATIC_ASSESSMENT","stats":[{"groupId":"EG000","numAffected":0,"numAtRisk":7},{"groupId":"EG001","numAffected":1,"numAtRisk":6},{"groupId":"EG002","numAffected":2,"numAtRisk":13},{"groupId":"EG003","numAffected":0,"numAtRisk":17},{"groupId":"EG004","numAffected":1,"numAtRisk":18},{"groupId":"EG005","numAffected":0,"numAtRisk":16},{"groupId":"EG006","numAffected":4,"numAtRisk":77},{"groupId":"EG007","numAffected":2,"numAtRisk":24}]},{"term":"Hyperfibrinogenaemia","organSystem":"Blood and lymphatic system disorders","sourceVocabulary":"MedDRA 17.1","assessmentType":"SYSTEMATIC_ASSESSMENT","stats":[{"groupId":"EG000","numAffected":0,"numAtRisk":7},{"groupId":"EG001","numAffected":0,"numAtRisk":6},{"groupId":"EG002","numAffected":0,"numAtRisk":13},{"groupId":"EG003","numAffected":0,"numAtRisk":17},{"groupId":"EG004","numAffected":1,"numAtRisk":18},{"groupId":"EG005","numAffected":0,"numAtRisk":16},{"groupId":"EG006","numAffected":1,"numAtRisk":77},{"groupId":"EG007","numAffected":0,"numAtRisk":24}]},{"term":"Thrombocytopenia","organSystem":"Blood and lymphatic system disorders","sourceVocabulary":"MedDRA 17.1","assessmentType":"SYSTEMATIC_ASSESSMENT","stats":[{"groupId":"EG000","numAffected":0,"numAtRisk":7},{"groupId":"EG001","numAffected":1,"numAtRisk":6},{"groupId":"EG002","numAffected":0,"numAtRisk":13},{"groupId":"EG003","numAffected":0,"numAtRisk":17},{"groupId":"EG004","numAffected":0,"numAtRisk":18},{"groupId":"EG005","numAffected":0,"numAtRisk":16},{"groupId":"EG006","numAffected":1,"numAtRisk":77},{"groupId":"EG007","numAffected":3,"numAtRisk":24}]},{"term":"Leukocytosis","organSystem":"Blood and lymphatic system disorders","sourceVocabulary":"MedDRA 17.1","assessmentType":"SYSTEMATIC_ASSESSMENT","stats":[{"groupId":"EG000","numAffected":1,"numAtRisk":7},{"groupId":"EG001","numAffected":1,"numAtRisk":6},{"groupId":"EG002","numAffected":1,"numAtRisk":13},{"groupId":"EG003","numAffected":1,"numAtRisk":17},{"groupId":"EG004","numAffected":2,"numAtRisk":18},{"groupId":"EG005","numAffected":0,"numAtRisk":16},{"groupId":"EG006","numAffected":6,"numAtRisk":77},{"groupId":"EG007","numAffected":2,"numAtRisk":24}]},{"term":"Atrial fibrillation","organSystem":"Cardiac disorders","sourceVocabulary":"MedDRA 17.1","assessmentType":"SYSTEMATIC_ASSESSMENT","stats":[{"groupId":"EG000","numAffected":1,"numAtRisk":7},{"groupId":"EG001","numAffected":0,"numAtRisk":6},{"groupId":"EG002","numAffected":1,"numAtRisk":13},{"groupId":"EG003","numAffected":0,"numAtRisk":17},{"groupId":"EG004","numAffected":1,"numAtRisk":18},{"groupId":"EG005","numAffected":1,"numAtRisk":16},{"groupId":"EG006","numAffected":4,"numAtRisk":77},{"groupId":"EG007","numAffected":1,"numAtRisk":24}]},{"term":"Cardiac arrest","organSystem":"Cardiac disorders","sourceVocabulary":"MedDRA 17.1","assessmentType":"SYSTEMATIC_ASSESSMENT","stats":[{"groupId":"EG000","numAffected":0,"numAtRisk":7},{"groupId":"EG001","numAffected":1,"numAtRisk":6},{"groupId":"EG002","numAffected":0,"numAtRisk":13},{"groupId":"EG003","numAffected":0,"numAtRisk":17},{"groupId":"EG004","numAffected":0,"numAtRisk":18},{"groupId":"EG005","numAffected":0,"numAtRisk":16},{"groupId":"EG006","numAffected":1,"numAtRisk":77},{"groupId":"EG007","numAffected":1,"numAtRisk":24}]},{"term":"Sinus tachycardia","organSystem":"Cardiac disorders","sourceVocabulary":"MedDRA 17.1","assessmentType":"SYSTEMATIC_ASSESSMENT","stats":[{"groupId":"EG000","numAffected":0,"numAtRisk":7},{"groupId":"EG001","numAffected":0,"numAtRisk":6},{"groupId":"EG002","numAffected":0,"numAtRisk":13},{"groupId":"EG003","numAffected":0,"numAtRisk":17},{"groupId":"EG004","numAffected":1,"numAtRisk":18},{"groupId":"EG005","numAffected":0,"numAtRisk":16},{"groupId":"EG006","numAffected":1,"numAtRisk":77},{"groupId":"EG007","numAffected":0,"numAtRisk":24}]},{"term":"Tachycardia","organSystem":"Cardiac disorders","sourceVocabulary":"MedDRA 17.1","assessmentType":"SYSTEMATIC_ASSESSMENT","stats":[{"groupId":"EG000","numAffected":0,"numAtRisk":7},{"groupId":"EG001","numAffected":1,"numAtRisk":6},{"groupId":"EG002","numAffected":0,"numAtRisk":13},{"groupId":"EG003","numAffected":0,"numAtRisk":17},{"groupId":"EG004","numAffected":0,"numAtRisk":18},{"groupId":"EG005","numAffected":0,"numAtRisk":16},{"groupId":"EG006","numAffected":1,"numAtRisk":77},{"groupId":"EG007","numAffected":0,"numAtRisk":24}]},{"term":"Bradycardia","organSystem":"Cardiac disorders","sourceVocabulary":"MedDRA 17.1","assessmentType":"SYSTEMATIC_ASSESSMENT","stats":[{"groupId":"EG000","numAffected":0,"numAtRisk":7},{"groupId":"EG001","numAffected":1,"numAtRisk":6},{"groupId":"EG002","numAffected":0,"numAtRisk":13},{"groupId":"EG003","numAffected":0,"numAtRisk":17},{"groupId":"EG004","numAffected":0,"numAtRisk":18},{"groupId":"EG005","numAffected":1,"numAtRisk":16},{"groupId":"EG006","numAffected":2,"numAtRisk":77},{"groupId":"EG007","numAffected":0,"numAtRisk":24}]},{"term":"Left ventricular dysfunction","organSystem":"Cardiac disorders","sourceVocabulary":"MedDRA 17.1","assessmentType":"SYSTEMATIC_ASSESSMENT","stats":[{"groupId":"EG000","numAffected":1,"numAtRisk":7},{"groupId":"EG001","numAffected":0,"numAtRisk":6},{"groupId":"EG002","numAffected":1,"numAtRisk":13},{"groupId":"EG003","numAffected":0,"numAtRisk":17},{"groupId":"EG004","numAffected":0,"numAtRisk":18},{"groupId":"EG005","numAffected":0,"numAtRisk":16},{"groupId":"EG006","numAffected":2,"numAtRisk":77},{"groupId":"EG007","numAffected":0,"numAtRisk":24}]},{"term":"Ventricular extrasystoles","organSystem":"Cardiac disorders","sourceVocabulary":"MedDRA 17.1","assessmentType":"SYSTEMATIC_ASSESSMENT","stats":[{"groupId":"EG000","numAffected":1,"numAtRisk":7},{"groupId":"EG001","numAffected":0,"numAtRisk":6},{"groupId":"EG002","numAffected":0,"numAtRisk":13},{"groupId":"EG003","numAffected":0,"numAtRisk":17},{"groupId":"EG004","numAffected":0,"numAtRisk":18},{"groupId":"EG005","numAffected":0,"numAtRisk":16},{"groupId":"EG006","numAffected":1,"numAtRisk":77},{"groupId":"EG007","numAffected":0,"numAtRisk":24}]},{"term":"Conjunctival haemorrhage","organSystem":"Eye disorders","sourceVocabulary":"MedDRA 17.1","assessmentType":"SYSTEMATIC_ASSESSMENT","stats":[{"groupId":"EG000","numAffected":0,"numAtRisk":7},{"groupId":"EG001","numAffected":0,"numAtRisk":6},{"groupId":"EG002","numAffected":1,"numAtRisk":13},{"groupId":"EG003","numAffected":0,"numAtRisk":17},{"groupId":"EG004","numAffected":0,"numAtRisk":18},{"groupId":"EG005","numAffected":0,"numAtRisk":16},{"groupId":"EG006","numAffected":1,"numAtRisk":77},{"groupId":"EG007","numAffected":0,"numAtRisk":24}]},{"term":"Dry eye","organSystem":"Eye disorders","sourceVocabulary":"MedDRA 17.1","assessmentType":"SYSTEMATIC_ASSESSMENT","stats":[{"groupId":"EG000","numAffected":0,"numAtRisk":7},{"groupId":"EG001","numAffected":0,"numAtRisk":6},{"groupId":"EG002","numAffected":1,"numAtRisk":13},{"groupId":"EG003","numAffected":0,"numAtRisk":17},{"groupId":"EG004","numAffected":0,"numAtRisk":18},{"groupId":"EG005","numAffected":0,"numAtRisk":16},{"groupId":"EG006","numAffected":1,"numAtRisk":77},{"groupId":"EG007","numAffected":0,"numAtRisk":24}]},{"term":"Vision blurred","organSystem":"Eye disorders","sourceVocabulary":"MedDRA 17.1","assessmentType":"SYSTEMATIC_ASSESSMENT","stats":[{"groupId":"EG000","numAffected":0,"numAtRisk":7},{"groupId":"EG001","numAffected":0,"numAtRisk":6},{"groupId":"EG002","numAffected":0,"numAtRisk":13},{"groupId":"EG003","numAffected":0,"numAtRisk":17},{"groupId":"EG004","numAffected":0,"numAtRisk":18},{"groupId":"EG005","numAffected":1,"numAtRisk":16},{"groupId":"EG006","numAffected":1,"numAtRisk":77},{"groupId":"EG007","numAffected":0,"numAtRisk":24}]},{"term":"Abdominal pain upper","organSystem":"Gastrointestinal disorders","sourceVocabulary":"MedDRA 17.1","assessmentType":"SYSTEMATIC_ASSESSMENT","stats":[{"groupId":"EG000","numAffected":0,"numAtRisk":7},{"groupId":"EG001","numAffected":0,"numAtRisk":6},{"groupId":"EG002","numAffected":0,"numAtRisk":13},{"groupId":"EG003","numAffected":0,"numAtRisk":17},{"groupId":"EG004","numAffected":1,"numAtRisk":18},{"groupId":"EG005","numAffected":0,"numAtRisk":16},{"groupId":"EG006","numAffected":1,"numAtRisk":77},{"groupId":"EG007","numAffected":1,"numAtRisk":24}]},{"term":"Dyspepsia","organSystem":"Gastrointestinal disorders","sourceVocabulary":"MedDRA 17.1","assessmentType":"SYSTEMATIC_ASSESSMENT","stats":[{"groupId":"EG000","numAffected":0,"numAtRisk":7},{"groupId":"EG001","numAffected":0,"numAtRisk":6},{"groupId":"EG002","numAffected":1,"numAtRisk":13},{"groupId":"EG003","numAffected":0,"numAtRisk":17},{"groupId":"EG004","numAffected":0,"numAtRisk":18},{"groupId":"EG005","numAffected":0,"numAtRisk":16},{"groupId":"EG006","numAffected":1,"numAtRisk":77},{"groupId":"EG007","numAffected":0,"numAtRisk":24}]},{"term":"Diarrhoea","organSystem":"Gastrointestinal disorders","sourceVocabulary":"MedDRA 17.1","assessmentType":"SYSTEMATIC_ASSESSMENT","stats":[{"groupId":"EG000","numAffected":0,"numAtRisk":7},{"groupId":"EG001","numAffected":0,"numAtRisk":6},{"groupId":"EG002","numAffected":0,"numAtRisk":13},{"groupId":"EG003","numAffected":0,"numAtRisk":17},{"groupId":"EG004","numAffected":0,"numAtRisk":18},{"groupId":"EG005","numAffected":2,"numAtRisk":16},{"groupId":"EG006","numAffected":2,"numAtRisk":77},{"groupId":"EG007","numAffected":1,"numAtRisk":24}]},{"term":"Dysphagia","organSystem":"Gastrointestinal disorders","sourceVocabulary":"MedDRA 17.1","assessmentType":"SYSTEMATIC_ASSESSMENT","stats":[{"groupId":"EG000","numAffected":0,"numAtRisk":7},{"groupId":"EG001","numAffected":0,"numAtRisk":6},{"groupId":"EG002","numAffected":1,"numAtRisk":13},{"groupId":"EG003","numAffected":0,"numAtRisk":17},{"groupId":"EG004","numAffected":0,"numAtRisk":18},{"groupId":"EG005","numAffected":1,"numAtRisk":16},{"groupId":"EG006","numAffected":2,"numAtRisk":77},{"groupId":"EG007","numAffected":1,"numAtRisk":24}]},{"term":"Constipation","organSystem":"Gastrointestinal disorders","sourceVocabulary":"MedDRA 17.1","assessmentType":"SYSTEMATIC_ASSESSMENT","stats":[{"groupId":"EG000","numAffected":1,"numAtRisk":7},{"groupId":"EG001","numAffected":2,"numAtRisk":6},{"groupId":"EG002","numAffected":3,"numAtRisk":13},{"groupId":"EG003","numAffected":1,"numAtRisk":17},{"groupId":"EG004","numAffected":5,"numAtRisk":18},{"groupId":"EG005","numAffected":2,"numAtRisk":16},{"groupId":"EG006","numAffected":14,"numAtRisk":77},{"groupId":"EG007","numAffected":5,"numAtRisk":24}]},{"term":"Toothache","organSystem":"Gastrointestinal disorders","sourceVocabulary":"MedDRA 17.1","assessmentType":"SYSTEMATIC_ASSESSMENT","stats":[{"groupId":"EG000","numAffected":0,"numAtRisk":7},{"groupId":"EG001","numAffected":0,"numAtRisk":6},{"groupId":"EG002","numAffected":0,"numAtRisk":13},{"groupId":"EG003","numAffected":0,"numAtRisk":17},{"groupId":"EG004","numAffected":1,"numAtRisk":18},{"groupId":"EG005","numAffected":0,"numAtRisk":16},{"groupId":"EG006","numAffected":1,"numAtRisk":77},{"groupId":"EG007","numAffected":0,"numAtRisk":24}]},{"term":"Vomiting","organSystem":"Gastrointestinal disorders","sourceVocabulary":"MedDRA 17.1","assessmentType":"SYSTEMATIC_ASSESSMENT","stats":[{"groupId":"EG000","numAffected":0,"numAtRisk":7},{"groupId":"EG001","numAffected":1,"numAtRisk":6},{"groupId":"EG002","numAffected":0,"numAtRisk":13},{"groupId":"EG003","numAffected":0,"numAtRisk":17},{"groupId":"EG004","numAffected":0,"numAtRisk":18},{"groupId":"EG005","numAffected":0,"numAtRisk":16},{"groupId":"EG006","numAffected":1,"numAtRisk":77},{"groupId":"EG007","numAffected":3,"numAtRisk":24}]},{"term":"Nausea","organSystem":"Gastrointestinal disorders","sourceVocabulary":"MedDRA 17.1","assessmentType":"SYSTEMATIC_ASSESSMENT","stats":[{"groupId":"EG000","numAffected":0,"numAtRisk":7},{"groupId":"EG001","numAffected":0,"numAtRisk":6},{"groupId":"EG002","numAffected":2,"numAtRisk":13},{"groupId":"EG003","numAffected":2,"numAtRisk":17},{"groupId":"EG004","numAffected":0,"numAtRisk":18},{"groupId":"EG005","numAffected":2,"numAtRisk":16},{"groupId":"EG006","numAffected":6,"numAtRisk":77},{"groupId":"EG007","numAffected":2,"numAtRisk":24}]},{"term":"Fatigue","organSystem":"General disorders","sourceVocabulary":"MedDRA 17.1","assessmentType":"SYSTEMATIC_ASSESSMENT","stats":[{"groupId":"EG000","numAffected":1,"numAtRisk":7},{"groupId":"EG001","numAffected":0,"numAtRisk":6},{"groupId":"EG002","numAffected":0,"numAtRisk":13},{"groupId":"EG003","numAffected":1,"numAtRisk":17},{"groupId":"EG004","numAffected":1,"numAtRisk":18},{"groupId":"EG005","numAffected":1,"numAtRisk":16},{"groupId":"EG006","numAffected":4,"numAtRisk":77},{"groupId":"EG007","numAffected":0,"numAtRisk":24}]},{"term":"Asthenia","organSystem":"General disorders","sourceVocabulary":"MedDRA 17.1","assessmentType":"SYSTEMATIC_ASSESSMENT","stats":[{"groupId":"EG000","numAffected":0,"numAtRisk":7},{"groupId":"EG001","numAffected":1,"numAtRisk":6},{"groupId":"EG002","numAffected":0,"numAtRisk":13},{"groupId":"EG003","numAffected":0,"numAtRisk":17},{"groupId":"EG004","numAffected":0,"numAtRisk":18},{"groupId":"EG005","numAffected":0,"numAtRisk":16},{"groupId":"EG006","numAffected":1,"numAtRisk":77},{"groupId":"EG007","numAffected":0,"numAtRisk":24}]},{"term":"Chest discomfort","organSystem":"General disorders","sourceVocabulary":"MedDRA 17.1","assessmentType":"SYSTEMATIC_ASSESSMENT","stats":[{"groupId":"EG000","numAffected":0,"numAtRisk":7},{"groupId":"EG001","numAffected":0,"numAtRisk":6},{"groupId":"EG002","numAffected":0,"numAtRisk":13},{"groupId":"EG003","numAffected":1,"numAtRisk":17},{"groupId":"EG004","numAffected":0,"numAtRisk":18},{"groupId":"EG005","numAffected":0,"numAtRisk":16},{"groupId":"EG006","numAffected":1,"numAtRisk":77},{"groupId":"EG007","numAffected":0,"numAtRisk":24}]},{"term":"Chest pain","organSystem":"General disorders","sourceVocabulary":"MedDRA 17.1","assessmentType":"SYSTEMATIC_ASSESSMENT","stats":[{"groupId":"EG000","numAffected":0,"numAtRisk":7},{"groupId":"EG001","numAffected":1,"numAtRisk":6},{"groupId":"EG002","numAffected":1,"numAtRisk":13},{"groupId":"EG003","numAffected":0,"numAtRisk":17},{"groupId":"EG004","numAffected":0,"numAtRisk":18},{"groupId":"EG005","numAffected":0,"numAtRisk":16},{"groupId":"EG006","numAffected":2,"numAtRisk":77},{"groupId":"EG007","numAffected":0,"numAtRisk":24}]},{"term":"Inflammation","organSystem":"General disorders","sourceVocabulary":"MedDRA 17.1","assessmentType":"SYSTEMATIC_ASSESSMENT","stats":[{"groupId":"EG000","numAffected":0,"numAtRisk":7},{"groupId":"EG001","numAffected":0,"numAtRisk":6},{"groupId":"EG002","numAffected":1,"numAtRisk":13},{"groupId":"EG003","numAffected":0,"numAtRisk":17},{"groupId":"EG004","numAffected":0,"numAtRisk":18},{"groupId":"EG005","numAffected":0,"numAtRisk":16},{"groupId":"EG006","numAffected":1,"numAtRisk":77},{"groupId":"EG007","numAffected":0,"numAtRisk":24}]},{"term":"Influenza-like illness","organSystem":"General disorders","sourceVocabulary":"MedDRA 17.1","assessmentType":"SYSTEMATIC_ASSESSMENT","stats":[{"groupId":"EG000","numAffected":0,"numAtRisk":7},{"groupId":"EG001","numAffected":0,"numAtRisk":6},{"groupId":"EG002","numAffected":0,"numAtRisk":13},{"groupId":"EG003","numAffected":0,"numAtRisk":17},{"groupId":"EG004","numAffected":0,"numAtRisk":18},{"groupId":"EG005","numAffected":1,"numAtRisk":16},{"groupId":"EG006","numAffected":1,"numAtRisk":77},{"groupId":"EG007","numAffected":0,"numAtRisk":24}]},{"term":"Infusion-site phlebitis","organSystem":"General disorders","sourceVocabulary":"MedDRA 17.1","assessmentType":"SYSTEMATIC_ASSESSMENT","stats":[{"groupId":"EG000","numAffected":0,"numAtRisk":7},{"groupId":"EG001","numAffected":0,"numAtRisk":6},{"groupId":"EG002","numAffected":0,"numAtRisk":13},{"groupId":"EG003","numAffected":0,"numAtRisk":17},{"groupId":"EG004","numAffected":0,"numAtRisk":18},{"groupId":"EG005","numAffected":1,"numAtRisk":16},{"groupId":"EG006","numAffected":1,"numAtRisk":77},{"groupId":"EG007","numAffected":0,"numAtRisk":24}]},{"term":"Peripheral swelling","organSystem":"General disorders","sourceVocabulary":"MedDRA 17.1","assessmentType":"SYSTEMATIC_ASSESSMENT","stats":[{"groupId":"EG000","numAffected":0,"numAtRisk":7},{"groupId":"EG001","numAffected":0,"numAtRisk":6},{"groupId":"EG002","numAffected":0,"numAtRisk":13},{"groupId":"EG003","numAffected":1,"numAtRisk":17},{"groupId":"EG004","numAffected":0,"numAtRisk":18},{"groupId":"EG005","numAffected":0,"numAtRisk":16},{"groupId":"EG006","numAffected":1,"numAtRisk":77},{"groupId":"EG007","numAffected":0,"numAtRisk":24}]},{"term":"Pyrexia","organSystem":"General disorders","sourceVocabulary":"MedDRA 17.1","assessmentType":"SYSTEMATIC_ASSESSMENT","stats":[{"groupId":"EG000","numAffected":0,"numAtRisk":7},{"groupId":"EG001","numAffected":0,"numAtRisk":6},{"groupId":"EG002","numAffected":0,"numAtRisk":13},{"groupId":"EG003","numAffected":1,"numAtRisk":17},{"groupId":"EG004","numAffected":0,"numAtRisk":18},{"groupId":"EG005","numAffected":0,"numAtRisk":16},{"groupId":"EG006","numAffected":1,"numAtRisk":77},{"groupId":"EG007","numAffected":3,"numAtRisk":24}]},{"term":"Vessel puncture site pain","organSystem":"General disorders","sourceVocabulary":"MedDRA 17.1","assessmentType":"SYSTEMATIC_ASSESSMENT","stats":[{"groupId":"EG000","numAffected":0,"numAtRisk":7},{"groupId":"EG001","numAffected":0,"numAtRisk":6},{"groupId":"EG002","numAffected":0,"numAtRisk":13},{"groupId":"EG003","numAffected":1,"numAtRisk":17},{"groupId":"EG004","numAffected":0,"numAtRisk":18},{"groupId":"EG005","numAffected":0,"numAtRisk":16},{"groupId":"EG006","numAffected":1,"numAtRisk":77},{"groupId":"EG007","numAffected":0,"numAtRisk":24}]},{"term":"Pain","organSystem":"General disorders","sourceVocabulary":"MedDRA 17.1","assessmentType":"SYSTEMATIC_ASSESSMENT","stats":[{"groupId":"EG000","numAffected":0,"numAtRisk":7},{"groupId":"EG001","numAffected":1,"numAtRisk":6},{"groupId":"EG002","numAffected":0,"numAtRisk":13},{"groupId":"EG003","numAffected":1,"numAtRisk":17},{"groupId":"EG004","numAffected":0,"numAtRisk":18},{"groupId":"EG005","numAffected":0,"numAtRisk":16},{"groupId":"EG006","numAffected":2,"numAtRisk":77},{"groupId":"EG007","numAffected":0,"numAtRisk":24}]},{"term":"Cholestasis","organSystem":"Hepatobiliary disorders","sourceVocabulary":"MedDRA 17.1","assessmentType":"SYSTEMATIC_ASSESSMENT","stats":[{"groupId":"EG000","numAffected":0,"numAtRisk":7},{"groupId":"EG001","numAffected":1,"numAtRisk":6},{"groupId":"EG002","numAffected":0,"numAtRisk":13},{"groupId":"EG003","numAffected":0,"numAtRisk":17},{"groupId":"EG004","numAffected":0,"numAtRisk":18},{"groupId":"EG005","numAffected":0,"numAtRisk":16},{"groupId":"EG006","numAffected":1,"numAtRisk":77},{"groupId":"EG007","numAffected":0,"numAtRisk":24}]},{"term":"Hepatocellular injury","organSystem":"Hepatobiliary disorders","sourceVocabulary":"MedDRA 17.1","assessmentType":"SYSTEMATIC_ASSESSMENT","stats":[{"groupId":"EG000","numAffected":0,"numAtRisk":7},{"groupId":"EG001","numAffected":1,"numAtRisk":6},{"groupId":"EG002","numAffected":0,"numAtRisk":13},{"groupId":"EG003","numAffected":0,"numAtRisk":17},{"groupId":"EG004","numAffected":0,"numAtRisk":18},{"groupId":"EG005","numAffected":0,"numAtRisk":16},{"groupId":"EG006","numAffected":1,"numAtRisk":77},{"groupId":"EG007","numAffected":0,"numAtRisk":24}]},{"term":"Bacterial disease carrier","organSystem":"Infections and infestations","sourceVocabulary":"MedDRA 17.1","assessmentType":"SYSTEMATIC_ASSESSMENT","stats":[{"groupId":"EG000","numAffected":0,"numAtRisk":7},{"groupId":"EG001","numAffected":0,"numAtRisk":6},{"groupId":"EG002","numAffected":0,"numAtRisk":13},{"groupId":"EG003","numAffected":0,"numAtRisk":17},{"groupId":"EG004","numAffected":1,"numAtRisk":18},{"groupId":"EG005","numAffected":0,"numAtRisk":16},{"groupId":"EG006","numAffected":1,"numAtRisk":77},{"groupId":"EG007","numAffected":0,"numAtRisk":24}]},{"term":"Bronchitis","organSystem":"Infections and infestations","sourceVocabulary":"MedDRA 17.1","assessmentType":"SYSTEMATIC_ASSESSMENT","stats":[{"groupId":"EG000","numAffected":0,"numAtRisk":7},{"groupId":"EG001","numAffected":0,"numAtRisk":6},{"groupId":"EG002","numAffected":0,"numAtRisk":13},{"groupId":"EG003","numAffected":1,"numAtRisk":17},{"groupId":"EG004","numAffected":0,"numAtRisk":18},{"groupId":"EG005","numAffected":0,"numAtRisk":16},{"groupId":"EG006","numAffected":1,"numAtRisk":77},{"groupId":"EG007","numAffected":0,"numAtRisk":24}]},{"term":"Pneumonia","organSystem":"Infections and infestations","sourceVocabulary":"MedDRA 17.1","assessmentType":"SYSTEMATIC_ASSESSMENT","stats":[{"groupId":"EG000","numAffected":1,"numAtRisk":7},{"groupId":"EG001","numAffected":0,"numAtRisk":6},{"groupId":"EG002","numAffected":0,"numAtRisk":13},{"groupId":"EG003","numAffected":0,"numAtRisk":17},{"groupId":"EG004","numAffected":2,"numAtRisk":18},{"groupId":"EG005","numAffected":1,"numAtRisk":16},{"groupId":"EG006","numAffected":4,"numAtRisk":77},{"groupId":"EG007","numAffected":1,"numAtRisk":24}]},{"term":"Clostridium difficile colitis","organSystem":"Infections and infestations","sourceVocabulary":"MedDRA 17.1","assessmentType":"SYSTEMATIC_ASSESSMENT","stats":[{"groupId":"EG000","numAffected":0,"numAtRisk":7},{"groupId":"EG001","numAffected":0,"numAtRisk":6},{"groupId":"EG002","numAffected":0,"numAtRisk":13},{"groupId":"EG003","numAffected":0,"numAtRisk":17},{"groupId":"EG004","numAffected":1,"numAtRisk":18},{"groupId":"EG005","numAffected":0,"numAtRisk":16},{"groupId":"EG006","numAffected":1,"numAtRisk":77},{"groupId":"EG007","numAffected":0,"numAtRisk":24}]},{"term":"Conjunctivitis bacterial","organSystem":"Infections and infestations","sourceVocabulary":"MedDRA 17.1","assessmentType":"SYSTEMATIC_ASSESSMENT","stats":[{"groupId":"EG000","numAffected":0,"numAtRisk":7},{"groupId":"EG001","numAffected":0,"numAtRisk":6},{"groupId":"EG002","numAffected":0,"numAtRisk":13},{"groupId":"EG003","numAffected":1,"numAtRisk":17},{"groupId":"EG004","numAffected":0,"numAtRisk":18},{"groupId":"EG005","numAffected":0,"numAtRisk":16},{"groupId":"EG006","numAffected":1,"numAtRisk":77},{"groupId":"EG007","numAffected":0,"numAtRisk":24}]},{"term":"Escherichia urinary tract infection","organSystem":"Infections and infestations","sourceVocabulary":"MedDRA 17.1","assessmentType":"SYSTEMATIC_ASSESSMENT","stats":[{"groupId":"EG000","numAffected":0,"numAtRisk":7},{"groupId":"EG001","numAffected":1,"numAtRisk":6},{"groupId":"EG002","numAffected":0,"numAtRisk":13},{"groupId":"EG003","numAffected":0,"numAtRisk":17},{"groupId":"EG004","numAffected":0,"numAtRisk":18},{"groupId":"EG005","numAffected":0,"numAtRisk":16},{"groupId":"EG006","numAffected":1,"numAtRisk":77},{"groupId":"EG007","numAffected":0,"numAtRisk":24}]},{"term":"Hepatitis B","organSystem":"Infections and infestations","sourceVocabulary":"MedDRA 17.1","assessmentType":"SYSTEMATIC_ASSESSMENT","stats":[{"groupId":"EG000","numAffected":0,"numAtRisk":7},{"groupId":"EG001","numAffected":0,"numAtRisk":6},{"groupId":"EG002","numAffected":0,"numAtRisk":13},{"groupId":"EG003","numAffected":0,"numAtRisk":17},{"groupId":"EG004","numAffected":0,"numAtRisk":18},{"groupId":"EG005","numAffected":1,"numAtRisk":16},{"groupId":"EG006","numAffected":1,"numAtRisk":77},{"groupId":"EG007","numAffected":0,"numAtRisk":24}]},{"term":"Postoperative wound infection","organSystem":"Infections and infestations","sourceVocabulary":"MedDRA 17.1","assessmentType":"SYSTEMATIC_ASSESSMENT","stats":[{"groupId":"EG000","numAffected":0,"numAtRisk":7},{"groupId":"EG001","numAffected":0,"numAtRisk":6},{"groupId":"EG002","numAffected":1,"numAtRisk":13},{"groupId":"EG003","numAffected":0,"numAtRisk":17},{"groupId":"EG004","numAffected":0,"numAtRisk":18},{"groupId":"EG005","numAffected":0,"numAtRisk":16},{"groupId":"EG006","numAffected":1,"numAtRisk":77},{"groupId":"EG007","numAffected":0,"numAtRisk":24}]},{"term":"Pyuria","organSystem":"Infections and infestations","sourceVocabulary":"MedDRA 17.1","assessmentType":"SYSTEMATIC_ASSESSMENT","stats":[{"groupId":"EG000","numAffected":0,"numAtRisk":7},{"groupId":"EG001","numAffected":0,"numAtRisk":6},{"groupId":"EG002","numAffected":1,"numAtRisk":13},{"groupId":"EG003","numAffected":0,"numAtRisk":17},{"groupId":"EG004","numAffected":0,"numAtRisk":18},{"groupId":"EG005","numAffected":0,"numAtRisk":16},{"groupId":"EG006","numAffected":1,"numAtRisk":77},{"groupId":"EG007","numAffected":0,"numAtRisk":24}]},{"term":"Respiratory tract infection","organSystem":"Infections and infestations","sourceVocabulary":"MedDRA 17.1","assessmentType":"SYSTEMATIC_ASSESSMENT","stats":[{"groupId":"EG000","numAffected":0,"numAtRisk":7},{"groupId":"EG001","numAffected":0,"numAtRisk":6},{"groupId":"EG002","numAffected":1,"numAtRisk":13},{"groupId":"EG003","numAffected":0,"numAtRisk":17},{"groupId":"EG004","numAffected":0,"numAtRisk":18},{"groupId":"EG005","numAffected":0,"numAtRisk":16},{"groupId":"EG006","numAffected":1,"numAtRisk":77},{"groupId":"EG007","numAffected":0,"numAtRisk":24}]},{"term":"Urosepsis","organSystem":"Infections and infestations","sourceVocabulary":"MedDRA 17.1","assessmentType":"SYSTEMATIC_ASSESSMENT","stats":[{"groupId":"EG000","numAffected":0,"numAtRisk":7},{"groupId":"EG001","numAffected":1,"numAtRisk":6},{"groupId":"EG002","numAffected":0,"numAtRisk":13},{"groupId":"EG003","numAffected":0,"numAtRisk":17},{"groupId":"EG004","numAffected":0,"numAtRisk":18},{"groupId":"EG005","numAffected":0,"numAtRisk":16},{"groupId":"EG006","numAffected":1,"numAtRisk":77},{"groupId":"EG007","numAffected":1,"numAtRisk":24}]},{"term":"Urinary tract infection","organSystem":"Infections and infestations","sourceVocabulary":"MedDRA 17.1","assessmentType":"SYSTEMATIC_ASSESSMENT","stats":[{"groupId":"EG000","numAffected":0,"numAtRisk":7},{"groupId":"EG001","numAffected":0,"numAtRisk":6},{"groupId":"EG002","numAffected":0,"numAtRisk":13},{"groupId":"EG003","numAffected":2,"numAtRisk":17},{"groupId":"EG004","numAffected":3,"numAtRisk":18},{"groupId":"EG005","numAffected":1,"numAtRisk":16},{"groupId":"EG006","numAffected":6,"numAtRisk":77},{"groupId":"EG007","numAffected":1,"numAtRisk":24}]},{"term":"Nasopharyngitis","organSystem":"Infections and infestations","sourceVocabulary":"MedDRA 17.1","assessmentType":"SYSTEMATIC_ASSESSMENT","stats":[{"groupId":"EG000","numAffected":0,"numAtRisk":7},{"groupId":"EG001","numAffected":0,"numAtRisk":6},{"groupId":"EG002","numAffected":0,"numAtRisk":13},{"groupId":"EG003","numAffected":1,"numAtRisk":17},{"groupId":"EG004","numAffected":1,"numAtRisk":18},{"groupId":"EG005","numAffected":0,"numAtRisk":16},{"groupId":"EG006","numAffected":2,"numAtRisk":77},{"groupId":"EG007","numAffected":0,"numAtRisk":24}]},{"term":"Upper respiratory tract infection","organSystem":"Infections and infestations","sourceVocabulary":"MedDRA 17.1","assessmentType":"SYSTEMATIC_ASSESSMENT","stats":[{"groupId":"EG000","numAffected":0,"numAtRisk":7},{"groupId":"EG001","numAffected":0,"numAtRisk":6},{"groupId":"EG002","numAffected":0,"numAtRisk":13},{"groupId":"EG003","numAffected":0,"numAtRisk":17},{"groupId":"EG004","numAffected":2,"numAtRisk":18},{"groupId":"EG005","numAffected":0,"numAtRisk":16},{"groupId":"EG006","numAffected":2,"numAtRisk":77},{"groupId":"EG007","numAffected":0,"numAtRisk":24}]},{"term":"Fall","organSystem":"Injury, poisoning and procedural complications","sourceVocabulary":"MedDRA 17.1","assessmentType":"SYSTEMATIC_ASSESSMENT","stats":[{"groupId":"EG000","numAffected":1,"numAtRisk":7},{"groupId":"EG001","numAffected":0,"numAtRisk":6},{"groupId":"EG002","numAffected":1,"numAtRisk":13},{"groupId":"EG003","numAffected":1,"numAtRisk":17},{"groupId":"EG004","numAffected":0,"numAtRisk":18},{"groupId":"EG005","numAffected":1,"numAtRisk":16},{"groupId":"EG006","numAffected":4,"numAtRisk":77},{"groupId":"EG007","numAffected":1,"numAtRisk":24}]},{"term":"Joint injury","organSystem":"Injury, poisoning and procedural complications","sourceVocabulary":"MedDRA 17.1","assessmentType":"SYSTEMATIC_ASSESSMENT","stats":[{"groupId":"EG000","numAffected":0,"numAtRisk":7},{"groupId":"EG001","numAffected":0,"numAtRisk":6},{"groupId":"EG002","numAffected":0,"numAtRisk":13},{"groupId":"EG003","numAffected":0,"numAtRisk":17},{"groupId":"EG004","numAffected":1,"numAtRisk":18},{"groupId":"EG005","numAffected":0,"numAtRisk":16},{"groupId":"EG006","numAffected":1,"numAtRisk":77},{"groupId":"EG007","numAffected":0,"numAtRisk":24}]},{"term":"Post-procedural haematuria","organSystem":"Injury, poisoning and procedural complications","sourceVocabulary":"MedDRA 17.1","assessmentType":"SYSTEMATIC_ASSESSMENT","stats":[{"groupId":"EG000","numAffected":0,"numAtRisk":7},{"groupId":"EG001","numAffected":1,"numAtRisk":6},{"groupId":"EG002","numAffected":0,"numAtRisk":13},{"groupId":"EG003","numAffected":0,"numAtRisk":17},{"groupId":"EG004","numAffected":0,"numAtRisk":18},{"groupId":"EG005","numAffected":0,"numAtRisk":16},{"groupId":"EG006","numAffected":1,"numAtRisk":77},{"groupId":"EG007","numAffected":0,"numAtRisk":24}]},{"term":"Wound","organSystem":"Injury, poisoning and procedural complications","sourceVocabulary":"MedDRA 17.1","assessmentType":"SYSTEMATIC_ASSESSMENT","stats":[{"groupId":"EG000","numAffected":0,"numAtRisk":7},{"groupId":"EG001","numAffected":0,"numAtRisk":6},{"groupId":"EG002","numAffected":0,"numAtRisk":13},{"groupId":"EG003","numAffected":0,"numAtRisk":17},{"groupId":"EG004","numAffected":1,"numAtRisk":18},{"groupId":"EG005","numAffected":0,"numAtRisk":16},{"groupId":"EG006","numAffected":1,"numAtRisk":77},{"groupId":"EG007","numAffected":0,"numAtRisk":24}]},{"term":"Biopsy bone","organSystem":"Investigations","sourceVocabulary":"MedDRA 17.1","assessmentType":"SYSTEMATIC_ASSESSMENT","stats":[{"groupId":"EG000","numAffected":0,"numAtRisk":7},{"groupId":"EG001","numAffected":0,"numAtRisk":6},{"groupId":"EG002","numAffected":1,"numAtRisk":13},{"groupId":"EG003","numAffected":0,"numAtRisk":17},{"groupId":"EG004","numAffected":0,"numAtRisk":18},{"groupId":"EG005","numAffected":0,"numAtRisk":16},{"groupId":"EG006","numAffected":1,"numAtRisk":77},{"groupId":"EG007","numAffected":0,"numAtRisk":24}]},{"term":"Blood albumin decreased","organSystem":"Investigations","sourceVocabulary":"MedDRA 17.1","assessmentType":"SYSTEMATIC_ASSESSMENT","stats":[{"groupId":"EG000","numAffected":0,"numAtRisk":7},{"groupId":"EG001","numAffected":0,"numAtRisk":6},{"groupId":"EG002","numAffected":0,"numAtRisk":13},{"groupId":"EG003","numAffected":0,"numAtRisk":17},{"groupId":"EG004","numAffected":1,"numAtRisk":18},{"groupId":"EG005","numAffected":0,"numAtRisk":16},{"groupId":"EG006","numAffected":1,"numAtRisk":77},{"groupId":"EG007","numAffected":0,"numAtRisk":24}]},{"term":"Blood creatinine increased","organSystem":"Investigations","sourceVocabulary":"MedDRA 17.1","assessmentType":"SYSTEMATIC_ASSESSMENT","stats":[{"groupId":"EG000","numAffected":1,"numAtRisk":7},{"groupId":"EG001","numAffected":0,"numAtRisk":6},{"groupId":"EG002","numAffected":0,"numAtRisk":13},{"groupId":"EG003","numAffected":0,"numAtRisk":17},{"groupId":"EG004","numAffected":0,"numAtRisk":18},{"groupId":"EG005","numAffected":0,"numAtRisk":16},{"groupId":"EG006","numAffected":1,"numAtRisk":77},{"groupId":"EG007","numAffected":0,"numAtRisk":24}]},{"term":"Activated partial thromboplastin time prolonged","organSystem":"Investigations","sourceVocabulary":"MedDRA 17.1","assessmentType":"SYSTEMATIC_ASSESSMENT","stats":[{"groupId":"EG000","numAffected":0,"numAtRisk":7},{"groupId":"EG001","numAffected":0,"numAtRisk":6},{"groupId":"EG002","numAffected":0,"numAtRisk":13},{"groupId":"EG003","numAffected":0,"numAtRisk":17},{"groupId":"EG004","numAffected":0,"numAtRisk":18},{"groupId":"EG005","numAffected":0,"numAtRisk":16},{"groupId":"EG006","numAffected":0,"numAtRisk":77},{"groupId":"EG007","numAffected":2,"numAtRisk":24}]},{"term":"Blood bicarbonate decreased","organSystem":"Investigations","sourceVocabulary":"MedDRA 17.1","assessmentType":"SYSTEMATIC_ASSESSMENT","stats":[{"groupId":"EG000","numAffected":0,"numAtRisk":7},{"groupId":"EG001","numAffected":0,"numAtRisk":6},{"groupId":"EG002","numAffected":0,"numAtRisk":13},{"groupId":"EG003","numAffected":0,"numAtRisk":17},{"groupId":"EG004","numAffected":0,"numAtRisk":18},{"groupId":"EG005","numAffected":0,"numAtRisk":16},{"groupId":"EG006","numAffected":0,"numAtRisk":77},{"groupId":"EG007","numAffected":2,"numAtRisk":24}]},{"term":"Blood fibrinogen increased","organSystem":"Investigations","sourceVocabulary":"MedDRA 17.1","assessmentType":"SYSTEMATIC_ASSESSMENT","stats":[{"groupId":"EG000","numAffected":0,"numAtRisk":7},{"groupId":"EG001","numAffected":0,"numAtRisk":6},{"groupId":"EG002","numAffected":0,"numAtRisk":13},{"groupId":"EG003","numAffected":1,"numAtRisk":17},{"groupId":"EG004","numAffected":0,"numAtRisk":18},{"groupId":"EG005","numAffected":0,"numAtRisk":16},{"groupId":"EG006","numAffected":1,"numAtRisk":77},{"groupId":"EG007","numAffected":2,"numAtRisk":24}]},{"term":"Blood glucose increased","organSystem":"Investigations","sourceVocabulary":"MedDRA 17.1","assessmentType":"SYSTEMATIC_ASSESSMENT","stats":[{"groupId":"EG000","numAffected":0,"numAtRisk":7},{"groupId":"EG001","numAffected":0,"numAtRisk":6},{"groupId":"EG002","numAffected":0,"numAtRisk":13},{"groupId":"EG003","numAffected":1,"numAtRisk":17},{"groupId":"EG004","numAffected":0,"numAtRisk":18},{"groupId":"EG005","numAffected":0,"numAtRisk":16},{"groupId":"EG006","numAffected":1,"numAtRisk":77},{"groupId":"EG007","numAffected":0,"numAtRisk":24}]},{"term":"Body temperature increased","organSystem":"Investigations","sourceVocabulary":"MedDRA 17.1","assessmentType":"SYSTEMATIC_ASSESSMENT","stats":[{"groupId":"EG000","numAffected":1,"numAtRisk":7},{"groupId":"EG001","numAffected":0,"numAtRisk":6},{"groupId":"EG002","numAffected":0,"numAtRisk":13},{"groupId":"EG003","numAffected":0,"numAtRisk":17},{"groupId":"EG004","numAffected":0,"numAtRisk":18},{"groupId":"EG005","numAffected":0,"numAtRisk":16},{"groupId":"EG006","numAffected":1,"numAtRisk":77},{"groupId":"EG007","numAffected":0,"numAtRisk":24}]},{"term":"Ejection fraction decreased","organSystem":"Investigations","sourceVocabulary":"MedDRA 17.1","assessmentType":"SYSTEMATIC_ASSESSMENT","stats":[{"groupId":"EG000","numAffected":1,"numAtRisk":7},{"groupId":"EG001","numAffected":0,"numAtRisk":6},{"groupId":"EG002","numAffected":0,"numAtRisk":13},{"groupId":"EG003","numAffected":0,"numAtRisk":17},{"groupId":"EG004","numAffected":0,"numAtRisk":18},{"groupId":"EG005","numAffected":0,"numAtRisk":16},{"groupId":"EG006","numAffected":1,"numAtRisk":77},{"groupId":"EG007","numAffected":0,"numAtRisk":24}]},{"term":"Electrocardiogram QT prolonged","organSystem":"Investigations","sourceVocabulary":"MedDRA 17.1","assessmentType":"SYSTEMATIC_ASSESSMENT","stats":[{"groupId":"EG000","numAffected":0,"numAtRisk":7},{"groupId":"EG001","numAffected":0,"numAtRisk":6},{"groupId":"EG002","numAffected":0,"numAtRisk":13},{"groupId":"EG003","numAffected":0,"numAtRisk":17},{"groupId":"EG004","numAffected":1,"numAtRisk":18},{"groupId":"EG005","numAffected":0,"numAtRisk":16},{"groupId":"EG006","numAffected":1,"numAtRisk":77},{"groupId":"EG007","numAffected":0,"numAtRisk":24}]},{"term":"Red blood cell sedimentation rate increased","organSystem":"Investigations","sourceVocabulary":"MedDRA 17.1","assessmentType":"SYSTEMATIC_ASSESSMENT","stats":[{"groupId":"EG000","numAffected":0,"numAtRisk":7},{"groupId":"EG001","numAffected":0,"numAtRisk":6},{"groupId":"EG002","numAffected":0,"numAtRisk":13},{"groupId":"EG003","numAffected":1,"numAtRisk":17},{"groupId":"EG004","numAffected":0,"numAtRisk":18},{"groupId":"EG005","numAffected":0,"numAtRisk":16},{"groupId":"EG006","numAffected":1,"numAtRisk":77},{"groupId":"EG007","numAffected":0,"numAtRisk":24}]},{"term":"Vitamin D decreased","organSystem":"Investigations","sourceVocabulary":"MedDRA 17.1","assessmentType":"SYSTEMATIC_ASSESSMENT","stats":[{"groupId":"EG000","numAffected":0,"numAtRisk":7},{"groupId":"EG001","numAffected":0,"numAtRisk":6},{"groupId":"EG002","numAffected":0,"numAtRisk":13},{"groupId":"EG003","numAffected":1,"numAtRisk":17},{"groupId":"EG004","numAffected":0,"numAtRisk":18},{"groupId":"EG005","numAffected":0,"numAtRisk":16},{"groupId":"EG006","numAffected":1,"numAtRisk":77},{"groupId":"EG007","numAffected":0,"numAtRisk":24}]},{"term":"Diabetes mellitus","organSystem":"Metabolism and nutrition disorders","sourceVocabulary":"MedDRA 17.1","assessmentType":"SYSTEMATIC_ASSESSMENT","stats":[{"groupId":"EG000","numAffected":0,"numAtRisk":7},{"groupId":"EG001","numAffected":0,"numAtRisk":6},{"groupId":"EG002","numAffected":0,"numAtRisk":13},{"groupId":"EG003","numAffected":1,"numAtRisk":17},{"groupId":"EG004","numAffected":0,"numAtRisk":18},{"groupId":"EG005","numAffected":0,"numAtRisk":16},{"groupId":"EG006","numAffected":1,"numAtRisk":77},{"groupId":"EG007","numAffected":0,"numAtRisk":24}]},{"term":"Hypocalcaemia","organSystem":"Metabolism and nutrition disorders","sourceVocabulary":"MedDRA 17.1","assessmentType":"SYSTEMATIC_ASSESSMENT","stats":[{"groupId":"EG000","numAffected":1,"numAtRisk":7},{"groupId":"EG001","numAffected":1,"numAtRisk":6},{"groupId":"EG002","numAffected":2,"numAtRisk":13},{"groupId":"EG003","numAffected":0,"numAtRisk":17},{"groupId":"EG004","numAffected":0,"numAtRisk":18},{"groupId":"EG005","numAffected":0,"numAtRisk":16},{"groupId":"EG006","numAffected":4,"numAtRisk":77},{"groupId":"EG007","numAffected":2,"numAtRisk":24}]},{"term":"Electrolyte imbalance","organSystem":"Metabolism and nutrition disorders","sourceVocabulary":"MedDRA 17.1","assessmentType":"SYSTEMATIC_ASSESSMENT","stats":[{"groupId":"EG000","numAffected":0,"numAtRisk":7},{"groupId":"EG001","numAffected":0,"numAtRisk":6},{"groupId":"EG002","numAffected":1,"numAtRisk":13},{"groupId":"EG003","numAffected":0,"numAtRisk":17},{"groupId":"EG004","numAffected":0,"numAtRisk":18},{"groupId":"EG005","numAffected":0,"numAtRisk":16},{"groupId":"EG006","numAffected":1,"numAtRisk":77},{"groupId":"EG007","numAffected":0,"numAtRisk":24}]},{"term":"Fluid imbalance","organSystem":"Metabolism and nutrition disorders","sourceVocabulary":"MedDRA 17.1","assessmentType":"SYSTEMATIC_ASSESSMENT","stats":[{"groupId":"EG000","numAffected":0,"numAtRisk":7},{"groupId":"EG001","numAffected":0,"numAtRisk":6},{"groupId":"EG002","numAffected":0,"numAtRisk":13},{"groupId":"EG003","numAffected":0,"numAtRisk":17},{"groupId":"EG004","numAffected":1,"numAtRisk":18},{"groupId":"EG005","numAffected":0,"numAtRisk":16},{"groupId":"EG006","numAffected":1,"numAtRisk":77},{"groupId":"EG007","numAffected":0,"numAtRisk":24}]},{"term":"Hyperlipidaemia","organSystem":"Metabolism and nutrition disorders","sourceVocabulary":"MedDRA 17.1","assessmentType":"SYSTEMATIC_ASSESSMENT","stats":[{"groupId":"EG000","numAffected":0,"numAtRisk":7},{"groupId":"EG001","numAffected":0,"numAtRisk":6},{"groupId":"EG002","numAffected":0,"numAtRisk":13},{"groupId":"EG003","numAffected":0,"numAtRisk":17},{"groupId":"EG004","numAffected":0,"numAtRisk":18},{"groupId":"EG005","numAffected":1,"numAtRisk":16},{"groupId":"EG006","numAffected":1,"numAtRisk":77},{"groupId":"EG007","numAffected":1,"numAtRisk":24}]},{"term":"Hyperuricaemia","organSystem":"Metabolism and nutrition disorders","sourceVocabulary":"MedDRA 17.1","assessmentType":"SYSTEMATIC_ASSESSMENT","stats":[{"groupId":"EG000","numAffected":0,"numAtRisk":7},{"groupId":"EG001","numAffected":0,"numAtRisk":6},{"groupId":"EG002","numAffected":0,"numAtRisk":13},{"groupId":"EG003","numAffected":1,"numAtRisk":17},{"groupId":"EG004","numAffected":0,"numAtRisk":18},{"groupId":"EG005","numAffected":0,"numAtRisk":16},{"groupId":"EG006","numAffected":1,"numAtRisk":77},{"groupId":"EG007","numAffected":0,"numAtRisk":24}]},{"term":"Hypoalbuminaemia","organSystem":"Metabolism and nutrition disorders","sourceVocabulary":"MedDRA 17.1","assessmentType":"SYSTEMATIC_ASSESSMENT","stats":[{"groupId":"EG000","numAffected":0,"numAtRisk":7},{"groupId":"EG001","numAffected":0,"numAtRisk":6},{"groupId":"EG002","numAffected":0,"numAtRisk":13},{"groupId":"EG003","numAffected":0,"numAtRisk":17},{"groupId":"EG004","numAffected":0,"numAtRisk":18},{"groupId":"EG005","numAffected":1,"numAtRisk":16},{"groupId":"EG006","numAffected":1,"numAtRisk":77},{"groupId":"EG007","numAffected":2,"numAtRisk":24}]},{"term":"Hypoglycaemia","organSystem":"Metabolism and nutrition disorders","sourceVocabulary":"MedDRA 17.1","assessmentType":"SYSTEMATIC_ASSESSMENT","stats":[{"groupId":"EG000","numAffected":0,"numAtRisk":7},{"groupId":"EG001","numAffected":0,"numAtRisk":6},{"groupId":"EG002","numAffected":0,"numAtRisk":13},{"groupId":"EG003","numAffected":1,"numAtRisk":17},{"groupId":"EG004","numAffected":0,"numAtRisk":18},{"groupId":"EG005","numAffected":0,"numAtRisk":16},{"groupId":"EG006","numAffected":1,"numAtRisk":77},{"groupId":"EG007","numAffected":1,"numAtRisk":24}]},{"term":"Dyslipidaemia","organSystem":"Metabolism and nutrition disorders","sourceVocabulary":"MedDRA 17.1","assessmentType":"SYSTEMATIC_ASSESSMENT","stats":[{"groupId":"EG000","numAffected":0,"numAtRisk":7},{"groupId":"EG001","numAffected":0,"numAtRisk":6},{"groupId":"EG002","numAffected":0,"numAtRisk":13},{"groupId":"EG003","numAffected":0,"numAtRisk":17},{"groupId":"EG004","numAffected":1,"numAtRisk":18},{"groupId":"EG005","numAffected":1,"numAtRisk":16},{"groupId":"EG006","numAffected":2,"numAtRisk":77},{"groupId":"EG007","numAffected":3,"numAtRisk":24}]},{"term":"Hyperglycaemia","organSystem":"Metabolism and nutrition disorders","sourceVocabulary":"MedDRA 17.1","assessmentType":"SYSTEMATIC_ASSESSMENT","stats":[{"groupId":"EG000","numAffected":0,"numAtRisk":7},{"groupId":"EG001","numAffected":0,"numAtRisk":6},{"groupId":"EG002","numAffected":0,"numAtRisk":13},{"groupId":"EG003","numAffected":1,"numAtRisk":17},{"groupId":"EG004","numAffected":1,"numAtRisk":18},{"groupId":"EG005","numAffected":0,"numAtRisk":16},{"groupId":"EG006","numAffected":2,"numAtRisk":77},{"groupId":"EG007","numAffected":3,"numAtRisk":24}]},{"term":"Hypercholesterolaemia","organSystem":"Metabolism and nutrition disorders","sourceVocabulary":"MedDRA 17.1","assessmentType":"SYSTEMATIC_ASSESSMENT","stats":[{"groupId":"EG000","numAffected":0,"numAtRisk":7},{"groupId":"EG001","numAffected":0,"numAtRisk":6},{"groupId":"EG002","numAffected":0,"numAtRisk":13},{"groupId":"EG003","numAffected":1,"numAtRisk":17},{"groupId":"EG004","numAffected":0,"numAtRisk":18},{"groupId":"EG005","numAffected":2,"numAtRisk":16},{"groupId":"EG006","numAffected":3,"numAtRisk":77},{"groupId":"EG007","numAffected":0,"numAtRisk":24}]},{"term":"Hyperchloraemia","organSystem":"Metabolism and nutrition disorders","sourceVocabulary":"MedDRA 17.1","assessmentType":"SYSTEMATIC_ASSESSMENT","stats":[{"groupId":"EG000","numAffected":0,"numAtRisk":7},{"groupId":"EG001","numAffected":1,"numAtRisk":6},{"groupId":"EG002","numAffected":4,"numAtRisk":13},{"groupId":"EG003","numAffected":0,"numAtRisk":17},{"groupId":"EG004","numAffected":0,"numAtRisk":18},{"groupId":"EG005","numAffected":0,"numAtRisk":16},{"groupId":"EG006","numAffected":5,"numAtRisk":77},{"groupId":"EG007","numAffected":2,"numAtRisk":24}]},{"term":"Hypokalaemia","organSystem":"Metabolism and nutrition disorders","sourceVocabulary":"MedDRA 17.1","assessmentType":"SYSTEMATIC_ASSESSMENT","stats":[{"groupId":"EG000","numAffected":1,"numAtRisk":7},{"groupId":"EG001","numAffected":2,"numAtRisk":6},{"groupId":"EG002","numAffected":2,"numAtRisk":13},{"groupId":"EG003","numAffected":0,"numAtRisk":17},{"groupId":"EG004","numAffected":2,"numAtRisk":18},{"groupId":"EG005","numAffected":2,"numAtRisk":16},{"groupId":"EG006","numAffected":9,"numAtRisk":77},{"groupId":"EG007","numAffected":6,"numAtRisk":24}]},{"term":"Hypomagnesaemia","organSystem":"Metabolism and nutrition disorders","sourceVocabulary":"MedDRA 17.1","assessmentType":"SYSTEMATIC_ASSESSMENT","stats":[{"groupId":"EG000","numAffected":0,"numAtRisk":7},{"groupId":"EG001","numAffected":1,"numAtRisk":6},{"groupId":"EG002","numAffected":0,"numAtRisk":13},{"groupId":"EG003","numAffected":0,"numAtRisk":17},{"groupId":"EG004","numAffected":0,"numAtRisk":18},{"groupId":"EG005","numAffected":0,"numAtRisk":16},{"groupId":"EG006","numAffected":1,"numAtRisk":77},{"groupId":"EG007","numAffected":0,"numAtRisk":24}]},{"term":"Vitamin D deficiency","organSystem":"Metabolism and nutrition disorders","sourceVocabulary":"MedDRA 17.1","assessmentType":"SYSTEMATIC_ASSESSMENT","stats":[{"groupId":"EG000","numAffected":0,"numAtRisk":7},{"groupId":"EG001","numAffected":0,"numAtRisk":6},{"groupId":"EG002","numAffected":1,"numAtRisk":13},{"groupId":"EG003","numAffected":0,"numAtRisk":17},{"groupId":"EG004","numAffected":0,"numAtRisk":18},{"groupId":"EG005","numAffected":0,"numAtRisk":16},{"groupId":"EG006","numAffected":1,"numAtRisk":77},{"groupId":"EG007","numAffected":0,"numAtRisk":24}]},{"term":"Vitamin B12 deficiency","organSystem":"Metabolism and nutrition disorders","sourceVocabulary":"MedDRA 17.1","assessmentType":"SYSTEMATIC_ASSESSMENT","stats":[{"groupId":"EG000","numAffected":0,"numAtRisk":7},{"groupId":"EG001","numAffected":0,"numAtRisk":6},{"groupId":"EG002","numAffected":0,"numAtRisk":13},{"groupId":"EG003","numAffected":0,"numAtRisk":17},{"groupId":"EG004","numAffected":0,"numAtRisk":18},{"groupId":"EG005","numAffected":0,"numAtRisk":16},{"groupId":"EG006","numAffected":0,"numAtRisk":77},{"groupId":"EG007","numAffected":3,"numAtRisk":24}]},{"term":"Hyponatraemia","organSystem":"Metabolism and nutrition disorders","sourceVocabulary":"MedDRA 17.1","assessmentType":"SYSTEMATIC_ASSESSMENT","stats":[{"groupId":"EG000","numAffected":1,"numAtRisk":7},{"groupId":"EG001","numAffected":1,"numAtRisk":6},{"groupId":"EG002","numAffected":0,"numAtRisk":13},{"groupId":"EG003","numAffected":0,"numAtRisk":17},{"groupId":"EG004","numAffected":0,"numAtRisk":18},{"groupId":"EG005","numAffected":1,"numAtRisk":16},{"groupId":"EG006","numAffected":3,"numAtRisk":77},{"groupId":"EG007","numAffected":2,"numAtRisk":24}]},{"term":"Malnutrition","organSystem":"Metabolism and nutrition disorders","sourceVocabulary":"MedDRA 17.1","assessmentType":"SYSTEMATIC_ASSESSMENT","stats":[{"groupId":"EG000","numAffected":0,"numAtRisk":7},{"groupId":"EG001","numAffected":1,"numAtRisk":6},{"groupId":"EG002","numAffected":1,"numAtRisk":13},{"groupId":"EG003","numAffected":0,"numAtRisk":17},{"groupId":"EG004","numAffected":0,"numAtRisk":18},{"groupId":"EG005","numAffected":1,"numAtRisk":16},{"groupId":"EG006","numAffected":3,"numAtRisk":77},{"groupId":"EG007","numAffected":0,"numAtRisk":24}]},{"term":"Arthritis","organSystem":"Musculoskeletal and connective tissue disorders","sourceVocabulary":"MedDRA 17.1","assessmentType":"SYSTEMATIC_ASSESSMENT","stats":[{"groupId":"EG000","numAffected":0,"numAtRisk":7},{"groupId":"EG001","numAffected":0,"numAtRisk":6},{"groupId":"EG002","numAffected":1,"numAtRisk":13},{"groupId":"EG003","numAffected":0,"numAtRisk":17},{"groupId":"EG004","numAffected":0,"numAtRisk":18},{"groupId":"EG005","numAffected":0,"numAtRisk":16},{"groupId":"EG006","numAffected":1,"numAtRisk":77},{"groupId":"EG007","numAffected":0,"numAtRisk":24}]},{"term":"Muscle spasms","organSystem":"Musculoskeletal and connective tissue disorders","sourceVocabulary":"MedDRA 17.1","assessmentType":"SYSTEMATIC_ASSESSMENT","stats":[{"groupId":"EG000","numAffected":0,"numAtRisk":7},{"groupId":"EG001","numAffected":0,"numAtRisk":6},{"groupId":"EG002","numAffected":1,"numAtRisk":13},{"groupId":"EG003","numAffected":0,"numAtRisk":17},{"groupId":"EG004","numAffected":0,"numAtRisk":18},{"groupId":"EG005","numAffected":0,"numAtRisk":16},{"groupId":"EG006","numAffected":1,"numAtRisk":77},{"groupId":"EG007","numAffected":0,"numAtRisk":24}]},{"term":"Musculoskeletal pain","organSystem":"Musculoskeletal and connective tissue disorders","sourceVocabulary":"MedDRA 17.1","assessmentType":"SYSTEMATIC_ASSESSMENT","stats":[{"groupId":"EG000","numAffected":0,"numAtRisk":7},{"groupId":"EG001","numAffected":0,"numAtRisk":6},{"groupId":"EG002","numAffected":0,"numAtRisk":13},{"groupId":"EG003","numAffected":1,"numAtRisk":17},{"groupId":"EG004","numAffected":0,"numAtRisk":18},{"groupId":"EG005","numAffected":0,"numAtRisk":16},{"groupId":"EG006","numAffected":1,"numAtRisk":77},{"groupId":"EG007","numAffected":2,"numAtRisk":24}]},{"term":"Back pain","organSystem":"Musculoskeletal and connective tissue disorders","sourceVocabulary":"MedDRA 17.1","assessmentType":"SYSTEMATIC_ASSESSMENT","stats":[{"groupId":"EG000","numAffected":0,"numAtRisk":7},{"groupId":"EG001","numAffected":1,"numAtRisk":6},{"groupId":"EG002","numAffected":0,"numAtRisk":13},{"groupId":"EG003","numAffected":0,"numAtRisk":17},{"groupId":"EG004","numAffected":0,"numAtRisk":18},{"groupId":"EG005","numAffected":1,"numAtRisk":16},{"groupId":"EG006","numAffected":2,"numAtRisk":77},{"groupId":"EG007","numAffected":1,"numAtRisk":24}]},{"term":"Muscular weakness","organSystem":"Musculoskeletal and connective tissue disorders","sourceVocabulary":"MedDRA 17.1","assessmentType":"SYSTEMATIC_ASSESSMENT","stats":[{"groupId":"EG000","numAffected":0,"numAtRisk":7},{"groupId":"EG001","numAffected":0,"numAtRisk":6},{"groupId":"EG002","numAffected":0,"numAtRisk":13},{"groupId":"EG003","numAffected":2,"numAtRisk":17},{"groupId":"EG004","numAffected":0,"numAtRisk":18},{"groupId":"EG005","numAffected":0,"numAtRisk":16},{"groupId":"EG006","numAffected":2,"numAtRisk":77},{"groupId":"EG007","numAffected":1,"numAtRisk":24}]},{"term":"Arthralgia","organSystem":"Musculoskeletal and connective tissue disorders","sourceVocabulary":"MedDRA 17.1","assessmentType":"SYSTEMATIC_ASSESSMENT","stats":[{"groupId":"EG000","numAffected":0,"numAtRisk":7},{"groupId":"EG001","numAffected":0,"numAtRisk":6},{"groupId":"EG002","numAffected":2,"numAtRisk":13},{"groupId":"EG003","numAffected":0,"numAtRisk":17},{"groupId":"EG004","numAffected":1,"numAtRisk":18},{"groupId":"EG005","numAffected":0,"numAtRisk":16},{"groupId":"EG006","numAffected":3,"numAtRisk":77},{"groupId":"EG007","numAffected":2,"numAtRisk":24}]},{"term":"Osteoarthritis","organSystem":"Musculoskeletal and connective tissue disorders","sourceVocabulary":"MedDRA 17.1","assessmentType":"SYSTEMATIC_ASSESSMENT","stats":[{"groupId":"EG000","numAffected":0,"numAtRisk":7},{"groupId":"EG001","numAffected":0,"numAtRisk":6},{"groupId":"EG002","numAffected":0,"numAtRisk":13},{"groupId":"EG003","numAffected":1,"numAtRisk":17},{"groupId":"EG004","numAffected":0,"numAtRisk":18},{"groupId":"EG005","numAffected":0,"numAtRisk":16},{"groupId":"EG006","numAffected":1,"numAtRisk":77},{"groupId":"EG007","numAffected":0,"numAtRisk":24}]},{"term":"Tendonitis","organSystem":"Musculoskeletal and connective tissue disorders","sourceVocabulary":"MedDRA 17.1","assessmentType":"SYSTEMATIC_ASSESSMENT","stats":[{"groupId":"EG000","numAffected":0,"numAtRisk":7},{"groupId":"EG001","numAffected":0,"numAtRisk":6},{"groupId":"EG002","numAffected":0,"numAtRisk":13},{"groupId":"EG003","numAffected":0,"numAtRisk":17},{"groupId":"EG004","numAffected":0,"numAtRisk":18},{"groupId":"EG005","numAffected":1,"numAtRisk":16},{"groupId":"EG006","numAffected":1,"numAtRisk":77},{"groupId":"EG007","numAffected":0,"numAtRisk":24}]},{"term":"Tenosynovitis","organSystem":"Musculoskeletal and connective tissue disorders","sourceVocabulary":"MedDRA 17.1","assessmentType":"SYSTEMATIC_ASSESSMENT","stats":[{"groupId":"EG000","numAffected":0,"numAtRisk":7},{"groupId":"EG001","numAffected":0,"numAtRisk":6},{"groupId":"EG002","numAffected":1,"numAtRisk":13},{"groupId":"EG003","numAffected":0,"numAtRisk":17},{"groupId":"EG004","numAffected":0,"numAtRisk":18},{"groupId":"EG005","numAffected":0,"numAtRisk":16},{"groupId":"EG006","numAffected":1,"numAtRisk":77},{"groupId":"EG007","numAffected":0,"numAtRisk":24}]},{"term":"Burning sensation","organSystem":"Nervous system disorders","sourceVocabulary":"MedDRA 17.1","assessmentType":"SYSTEMATIC_ASSESSMENT","stats":[{"groupId":"EG000","numAffected":0,"numAtRisk":7},{"groupId":"EG001","numAffected":0,"numAtRisk":6},{"groupId":"EG002","numAffected":0,"numAtRisk":13},{"groupId":"EG003","numAffected":0,"numAtRisk":17},{"groupId":"EG004","numAffected":0,"numAtRisk":18},{"groupId":"EG005","numAffected":1,"numAtRisk":16},{"groupId":"EG006","numAffected":1,"numAtRisk":77},{"groupId":"EG007","numAffected":0,"numAtRisk":24}]},{"term":"Carotid arteriosclerosis","organSystem":"Nervous system disorders","sourceVocabulary":"MedDRA 17.1","assessmentType":"SYSTEMATIC_ASSESSMENT","stats":[{"groupId":"EG000","numAffected":0,"numAtRisk":7},{"groupId":"EG001","numAffected":0,"numAtRisk":6},{"groupId":"EG002","numAffected":0,"numAtRisk":13},{"groupId":"EG003","numAffected":0,"numAtRisk":17},{"groupId":"EG004","numAffected":1,"numAtRisk":18},{"groupId":"EG005","numAffected":0,"numAtRisk":16},{"groupId":"EG006","numAffected":1,"numAtRisk":77},{"groupId":"EG007","numAffected":0,"numAtRisk":24}]},{"term":"Carotid artery stenosis","organSystem":"Nervous system disorders","sourceVocabulary":"MedDRA 17.1","assessmentType":"SYSTEMATIC_ASSESSMENT","stats":[{"groupId":"EG000","numAffected":0,"numAtRisk":7},{"groupId":"EG001","numAffected":0,"numAtRisk":6},{"groupId":"EG002","numAffected":0,"numAtRisk":13},{"groupId":"EG003","numAffected":0,"numAtRisk":17},{"groupId":"EG004","numAffected":1,"numAtRisk":18},{"groupId":"EG005","numAffected":0,"numAtRisk":16},{"groupId":"EG006","numAffected":1,"numAtRisk":77},{"groupId":"EG007","numAffected":0,"numAtRisk":24}]},{"term":"Carpal tunnel syndrome","organSystem":"Nervous system disorders","sourceVocabulary":"MedDRA 17.1","assessmentType":"SYSTEMATIC_ASSESSMENT","stats":[{"groupId":"EG000","numAffected":0,"numAtRisk":7},{"groupId":"EG001","numAffected":0,"numAtRisk":6},{"groupId":"EG002","numAffected":1,"numAtRisk":13},{"groupId":"EG003","numAffected":0,"numAtRisk":17},{"groupId":"EG004","numAffected":0,"numAtRisk":18},{"groupId":"EG005","numAffected":0,"numAtRisk":16},{"groupId":"EG006","numAffected":1,"numAtRisk":77},{"groupId":"EG007","numAffected":0,"numAtRisk":24}]},{"term":"Cerebral haemorrhage","organSystem":"Nervous system disorders","sourceVocabulary":"MedDRA 17.1","assessmentType":"SYSTEMATIC_ASSESSMENT","stats":[{"groupId":"EG000","numAffected":1,"numAtRisk":7},{"groupId":"EG001","numAffected":0,"numAtRisk":6},{"groupId":"EG002","numAffected":0,"numAtRisk":13},{"groupId":"EG003","numAffected":0,"numAtRisk":17},{"groupId":"EG004","numAffected":0,"numAtRisk":18},{"groupId":"EG005","numAffected":0,"numAtRisk":16},{"groupId":"EG006","numAffected":1,"numAtRisk":77},{"groupId":"EG007","numAffected":0,"numAtRisk":24}]},{"term":"Circadian rhythm sleep disorder","organSystem":"Nervous system disorders","sourceVocabulary":"MedDRA 17.1","assessmentType":"SYSTEMATIC_ASSESSMENT","stats":[{"groupId":"EG000","numAffected":0,"numAtRisk":7},{"groupId":"EG001","numAffected":0,"numAtRisk":6},{"groupId":"EG002","numAffected":0,"numAtRisk":13},{"groupId":"EG003","numAffected":0,"numAtRisk":17},{"groupId":"EG004","numAffected":1,"numAtRisk":18},{"groupId":"EG005","numAffected":0,"numAtRisk":16},{"groupId":"EG006","numAffected":1,"numAtRisk":77},{"groupId":"EG007","numAffected":0,"numAtRisk":24}]},{"term":"Dizziness","organSystem":"Nervous system disorders","sourceVocabulary":"MedDRA 17.1","assessmentType":"SYSTEMATIC_ASSESSMENT","stats":[{"groupId":"EG000","numAffected":0,"numAtRisk":7},{"groupId":"EG001","numAffected":0,"numAtRisk":6},{"groupId":"EG002","numAffected":0,"numAtRisk":13},{"groupId":"EG003","numAffected":0,"numAtRisk":17},{"groupId":"EG004","numAffected":0,"numAtRisk":18},{"groupId":"EG005","numAffected":1,"numAtRisk":16},{"groupId":"EG006","numAffected":1,"numAtRisk":77},{"groupId":"EG007","numAffected":1,"numAtRisk":24}]},{"term":"Dysaesthesia","organSystem":"Nervous system disorders","sourceVocabulary":"MedDRA 17.1","assessmentType":"SYSTEMATIC_ASSESSMENT","stats":[{"groupId":"EG000","numAffected":0,"numAtRisk":7},{"groupId":"EG001","numAffected":0,"numAtRisk":6},{"groupId":"EG002","numAffected":0,"numAtRisk":13},{"groupId":"EG003","numAffected":1,"numAtRisk":17},{"groupId":"EG004","numAffected":0,"numAtRisk":18},{"groupId":"EG005","numAffected":0,"numAtRisk":16},{"groupId":"EG006","numAffected":1,"numAtRisk":77},{"groupId":"EG007","numAffected":0,"numAtRisk":24}]},{"term":"Cerebrovascular accident","organSystem":"Nervous system disorders","sourceVocabulary":"MedDRA 17.1","assessmentType":"SYSTEMATIC_ASSESSMENT","stats":[{"groupId":"EG000","numAffected":1,"numAtRisk":7},{"groupId":"EG001","numAffected":0,"numAtRisk":6},{"groupId":"EG002","numAffected":1,"numAtRisk":13},{"groupId":"EG003","numAffected":0,"numAtRisk":17},{"groupId":"EG004","numAffected":0,"numAtRisk":18},{"groupId":"EG005","numAffected":0,"numAtRisk":16},{"groupId":"EG006","numAffected":2,"numAtRisk":77},{"groupId":"EG007","numAffected":1,"numAtRisk":24}]},{"term":"Haemorrhage intracranial","organSystem":"Nervous system disorders","sourceVocabulary":"MedDRA 17.1","assessmentType":"SYSTEMATIC_ASSESSMENT","stats":[{"groupId":"EG000","numAffected":0,"numAtRisk":7},{"groupId":"EG001","numAffected":0,"numAtRisk":6},{"groupId":"EG002","numAffected":0,"numAtRisk":13},{"groupId":"EG003","numAffected":0,"numAtRisk":17},{"groupId":"EG004","numAffected":0,"numAtRisk":18},{"groupId":"EG005","numAffected":1,"numAtRisk":16},{"groupId":"EG006","numAffected":1,"numAtRisk":77},{"groupId":"EG007","numAffected":1,"numAtRisk":24}]},{"term":"Haemorrhagic stroke","organSystem":"Nervous system disorders","sourceVocabulary":"MedDRA 17.1","assessmentType":"SYSTEMATIC_ASSESSMENT","stats":[{"groupId":"EG000","numAffected":0,"numAtRisk":7},{"groupId":"EG001","numAffected":0,"numAtRisk":6},{"groupId":"EG002","numAffected":0,"numAtRisk":13},{"groupId":"EG003","numAffected":0,"numAtRisk":17},{"groupId":"EG004","numAffected":0,"numAtRisk":18},{"groupId":"EG005","numAffected":1,"numAtRisk":16},{"groupId":"EG006","numAffected":1,"numAtRisk":77},{"groupId":"EG007","numAffected":0,"numAtRisk":24}]},{"term":"Muscle spasticity","organSystem":"Musculoskeletal and connective tissue disorders","sourceVocabulary":"MedDRA 17.1","assessmentType":"SYSTEMATIC_ASSESSMENT","stats":[{"groupId":"EG000","numAffected":0,"numAtRisk":7},{"groupId":"EG001","numAffected":0,"numAtRisk":6},{"groupId":"EG002","numAffected":1,"numAtRisk":13},{"groupId":"EG003","numAffected":0,"numAtRisk":17},{"groupId":"EG004","numAffected":0,"numAtRisk":18},{"groupId":"EG005","numAffected":0,"numAtRisk":16},{"groupId":"EG006","numAffected":1,"numAtRisk":77},{"groupId":"EG007","numAffected":0,"numAtRisk":24}]},{"term":"Neurological decompensation","organSystem":"Musculoskeletal and connective tissue disorders","sourceVocabulary":"MedDRA 17.1","assessmentType":"SYSTEMATIC_ASSESSMENT","stats":[{"groupId":"EG000","numAffected":0,"numAtRisk":7},{"groupId":"EG001","numAffected":1,"numAtRisk":6},{"groupId":"EG002","numAffected":0,"numAtRisk":13},{"groupId":"EG003","numAffected":0,"numAtRisk":17},{"groupId":"EG004","numAffected":0,"numAtRisk":18},{"groupId":"EG005","numAffected":0,"numAtRisk":16},{"groupId":"EG006","numAffected":1,"numAtRisk":77},{"groupId":"EG007","numAffected":0,"numAtRisk":24}]},{"term":"Neurological symptom","organSystem":"Musculoskeletal and connective tissue disorders","sourceVocabulary":"MedDRA 17.1","assessmentType":"SYSTEMATIC_ASSESSMENT","stats":[{"groupId":"EG000","numAffected":0,"numAtRisk":7},{"groupId":"EG001","numAffected":0,"numAtRisk":6},{"groupId":"EG002","numAffected":0,"numAtRisk":13},{"groupId":"EG003","numAffected":0,"numAtRisk":17},{"groupId":"EG004","numAffected":0,"numAtRisk":18},{"groupId":"EG005","numAffected":1,"numAtRisk":16},{"groupId":"EG006","numAffected":1,"numAtRisk":77},{"groupId":"EG007","numAffected":0,"numAtRisk":24}]},{"term":"Paraesthesia","organSystem":"Musculoskeletal and connective tissue disorders","sourceVocabulary":"MedDRA 17.1","assessmentType":"SYSTEMATIC_ASSESSMENT","stats":[{"groupId":"EG000","numAffected":0,"numAtRisk":7},{"groupId":"EG001","numAffected":0,"numAtRisk":6},{"groupId":"EG002","numAffected":0,"numAtRisk":13},{"groupId":"EG003","numAffected":0,"numAtRisk":17},{"groupId":"EG004","numAffected":0,"numAtRisk":18},{"groupId":"EG005","numAffected":1,"numAtRisk":16},{"groupId":"EG006","numAffected":1,"numAtRisk":77},{"groupId":"EG007","numAffected":0,"numAtRisk":24}]},{"term":"Partial seizures","organSystem":"Nervous system disorders","sourceVocabulary":"MedDRA 17.1","assessmentType":"SYSTEMATIC_ASSESSMENT","stats":[{"groupId":"EG000","numAffected":0,"numAtRisk":7},{"groupId":"EG001","numAffected":0,"numAtRisk":6},{"groupId":"EG002","numAffected":0,"numAtRisk":13},{"groupId":"EG003","numAffected":1,"numAtRisk":17},{"groupId":"EG004","numAffected":0,"numAtRisk":18},{"groupId":"EG005","numAffected":0,"numAtRisk":16},{"groupId":"EG006","numAffected":1,"numAtRisk":77},{"groupId":"EG007","numAffected":0,"numAtRisk":24}]},{"term":"Sedation","organSystem":"Nervous system disorders","sourceVocabulary":"MedDRA 17.1","assessmentType":"SYSTEMATIC_ASSESSMENT","stats":[{"groupId":"EG000","numAffected":0,"numAtRisk":7},{"groupId":"EG001","numAffected":1,"numAtRisk":6},{"groupId":"EG002","numAffected":0,"numAtRisk":13},{"groupId":"EG003","numAffected":0,"numAtRisk":17},{"groupId":"EG004","numAffected":0,"numAtRisk":18},{"groupId":"EG005","numAffected":0,"numAtRisk":16},{"groupId":"EG006","numAffected":1,"numAtRisk":77},{"groupId":"EG007","numAffected":0,"numAtRisk":24}]},{"term":"Simple partial seizures","organSystem":"Nervous system disorders","sourceVocabulary":"MedDRA 17.1","assessmentType":"SYSTEMATIC_ASSESSMENT","stats":[{"groupId":"EG000","numAffected":1,"numAtRisk":7},{"groupId":"EG001","numAffected":0,"numAtRisk":6},{"groupId":"EG002","numAffected":0,"numAtRisk":13},{"groupId":"EG003","numAffected":0,"numAtRisk":17},{"groupId":"EG004","numAffected":0,"numAtRisk":18},{"groupId":"EG005","numAffected":0,"numAtRisk":16},{"groupId":"EG006","numAffected":1,"numAtRisk":77},{"groupId":"EG007","numAffected":0,"numAtRisk":24}]},{"term":"Somnolence","organSystem":"Nervous system disorders","sourceVocabulary":"MedDRA 17.1","assessmentType":"SYSTEMATIC_ASSESSMENT","stats":[{"groupId":"EG000","numAffected":0,"numAtRisk":7},{"groupId":"EG001","numAffected":0,"numAtRisk":6},{"groupId":"EG002","numAffected":0,"numAtRisk":13},{"groupId":"EG003","numAffected":0,"numAtRisk":17},{"groupId":"EG004","numAffected":0,"numAtRisk":18},{"groupId":"EG005","numAffected":1,"numAtRisk":16},{"groupId":"EG006","numAffected":1,"numAtRisk":77},{"groupId":"EG007","numAffected":0,"numAtRisk":24}]},{"term":"Memory impairment","organSystem":"Nervous system disorders","sourceVocabulary":"MedDRA 17.1","assessmentType":"SYSTEMATIC_ASSESSMENT","stats":[{"groupId":"EG000","numAffected":0,"numAtRisk":7},{"groupId":"EG001","numAffected":0,"numAtRisk":6},{"groupId":"EG002","numAffected":0,"numAtRisk":13},{"groupId":"EG003","numAffected":1,"numAtRisk":17},{"groupId":"EG004","numAffected":1,"numAtRisk":18},{"groupId":"EG005","numAffected":0,"numAtRisk":16},{"groupId":"EG006","numAffected":2,"numAtRisk":77},{"groupId":"EG007","numAffected":0,"numAtRisk":24}]},{"term":"Psychomotor hyperactivity","organSystem":"Nervous system disorders","sourceVocabulary":"MedDRA 17.1","assessmentType":"SYSTEMATIC_ASSESSMENT","stats":[{"groupId":"EG000","numAffected":0,"numAtRisk":7},{"groupId":"EG001","numAffected":0,"numAtRisk":6},{"groupId":"EG002","numAffected":1,"numAtRisk":13},{"groupId":"EG003","numAffected":1,"numAtRisk":17},{"groupId":"EG004","numAffected":0,"numAtRisk":18},{"groupId":"EG005","numAffected":1,"numAtRisk":16},{"groupId":"EG006","numAffected":3,"numAtRisk":77},{"groupId":"EG007","numAffected":0,"numAtRisk":24}]},{"term":"Headache","organSystem":"Nervous system disorders","sourceVocabulary":"MedDRA 17.1","assessmentType":"SYSTEMATIC_ASSESSMENT","stats":[{"groupId":"EG000","numAffected":3,"numAtRisk":7},{"groupId":"EG001","numAffected":1,"numAtRisk":6},{"groupId":"EG002","numAffected":2,"numAtRisk":13},{"groupId":"EG003","numAffected":2,"numAtRisk":17},{"groupId":"EG004","numAffected":1,"numAtRisk":18},{"groupId":"EG005","numAffected":4,"numAtRisk":16},{"groupId":"EG006","numAffected":13,"numAtRisk":77},{"groupId":"EG007","numAffected":2,"numAtRisk":24}]},{"term":"Stroke in evolution","organSystem":"Nervous system disorders","sourceVocabulary":"MedDRA 17.1","assessmentType":"SYSTEMATIC_ASSESSMENT","stats":[{"groupId":"EG000","numAffected":0,"numAtRisk":7},{"groupId":"EG001","numAffected":1,"numAtRisk":6},{"groupId":"EG002","numAffected":0,"numAtRisk":13},{"groupId":"EG003","numAffected":0,"numAtRisk":17},{"groupId":"EG004","numAffected":0,"numAtRisk":18},{"groupId":"EG005","numAffected":0,"numAtRisk":16},{"groupId":"EG006","numAffected":1,"numAtRisk":77},{"groupId":"EG007","numAffected":0,"numAtRisk":24}]},{"term":"Syncope","organSystem":"Nervous system disorders","sourceVocabulary":"MedDRA 17.1","assessmentType":"SYSTEMATIC_ASSESSMENT","stats":[{"groupId":"EG000","numAffected":0,"numAtRisk":7},{"groupId":"EG001","numAffected":0,"numAtRisk":6},{"groupId":"EG002","numAffected":0,"numAtRisk":13},{"groupId":"EG003","numAffected":0,"numAtRisk":17},{"groupId":"EG004","numAffected":0,"numAtRisk":18},{"groupId":"EG005","numAffected":1,"numAtRisk":16},{"groupId":"EG006","numAffected":1,"numAtRisk":77},{"groupId":"EG007","numAffected":0,"numAtRisk":24}]},{"term":"Affective disorder","organSystem":"Psychiatric disorders","sourceVocabulary":"MedDRA 17.1","assessmentType":"SYSTEMATIC_ASSESSMENT","stats":[{"groupId":"EG000","numAffected":0,"numAtRisk":7},{"groupId":"EG001","numAffected":0,"numAtRisk":6},{"groupId":"EG002","numAffected":0,"numAtRisk":13},{"groupId":"EG003","numAffected":1,"numAtRisk":17},{"groupId":"EG004","numAffected":0,"numAtRisk":18},{"groupId":"EG005","numAffected":0,"numAtRisk":16},{"groupId":"EG006","numAffected":1,"numAtRisk":77},{"groupId":"EG007","numAffected":0,"numAtRisk":24}]},{"term":"Hallucination","organSystem":"Psychiatric disorders","sourceVocabulary":"MedDRA 17.1","assessmentType":"SYSTEMATIC_ASSESSMENT","stats":[{"groupId":"EG000","numAffected":0,"numAtRisk":7},{"groupId":"EG001","numAffected":0,"numAtRisk":6},{"groupId":"EG002","numAffected":0,"numAtRisk":13},{"groupId":"EG003","numAffected":0,"numAtRisk":17},{"groupId":"EG004","numAffected":0,"numAtRisk":18},{"groupId":"EG005","numAffected":1,"numAtRisk":16},{"groupId":"EG006","numAffected":1,"numAtRisk":77},{"groupId":"EG007","numAffected":0,"numAtRisk":24}]},{"term":"Mood altered","organSystem":"Psychiatric disorders","sourceVocabulary":"MedDRA 17.1","assessmentType":"SYSTEMATIC_ASSESSMENT","stats":[{"groupId":"EG000","numAffected":0,"numAtRisk":7},{"groupId":"EG001","numAffected":0,"numAtRisk":6},{"groupId":"EG002","numAffected":0,"numAtRisk":13},{"groupId":"EG003","numAffected":1,"numAtRisk":17},{"groupId":"EG004","numAffected":0,"numAtRisk":18},{"groupId":"EG005","numAffected":0,"numAtRisk":16},{"groupId":"EG006","numAffected":1,"numAtRisk":77},{"groupId":"EG007","numAffected":0,"numAtRisk":24}]},{"term":"Confusional state","organSystem":"Psychiatric disorders","sourceVocabulary":"MedDRA 17.1","assessmentType":"SYSTEMATIC_ASSESSMENT","stats":[{"groupId":"EG000","numAffected":0,"numAtRisk":7},{"groupId":"EG001","numAffected":0,"numAtRisk":6},{"groupId":"EG002","numAffected":0,"numAtRisk":13},{"groupId":"EG003","numAffected":1,"numAtRisk":17},{"groupId":"EG004","numAffected":0,"numAtRisk":18},{"groupId":"EG005","numAffected":1,"numAtRisk":16},{"groupId":"EG006","numAffected":2,"numAtRisk":77},{"groupId":"EG007","numAffected":0,"numAtRisk":24}]},{"term":"Depressed mood","organSystem":"Psychiatric disorders","sourceVocabulary":"MedDRA 17.1","assessmentType":"SYSTEMATIC_ASSESSMENT","stats":[{"groupId":"EG000","numAffected":0,"numAtRisk":7},{"groupId":"EG001","numAffected":0,"numAtRisk":6},{"groupId":"EG002","numAffected":1,"numAtRisk":13},{"groupId":"EG003","numAffected":1,"numAtRisk":17},{"groupId":"EG004","numAffected":0,"numAtRisk":18},{"groupId":"EG005","numAffected":0,"numAtRisk":16},{"groupId":"EG006","numAffected":2,"numAtRisk":77},{"groupId":"EG007","numAffected":0,"numAtRisk":24}]},{"term":"Depression","organSystem":"Psychiatric disorders","sourceVocabulary":"MedDRA 17.1","assessmentType":"SYSTEMATIC_ASSESSMENT","stats":[{"groupId":"EG000","numAffected":0,"numAtRisk":7},{"groupId":"EG001","numAffected":0,"numAtRisk":6},{"groupId":"EG002","numAffected":1,"numAtRisk":13},{"groupId":"EG003","numAffected":1,"numAtRisk":17},{"groupId":"EG004","numAffected":0,"numAtRisk":18},{"groupId":"EG005","numAffected":0,"numAtRisk":16},{"groupId":"EG006","numAffected":2,"numAtRisk":77},{"groupId":"EG007","numAffected":2,"numAtRisk":24}]},{"term":"Delirium","organSystem":"Psychiatric disorders","sourceVocabulary":"MedDRA 17.1","assessmentType":"SYSTEMATIC_ASSESSMENT","stats":[{"groupId":"EG000","numAffected":0,"numAtRisk":7},{"groupId":"EG001","numAffected":0,"numAtRisk":6},{"groupId":"EG002","numAffected":0,"numAtRisk":13},{"groupId":"EG003","numAffected":0,"numAtRisk":17},{"groupId":"EG004","numAffected":0,"numAtRisk":18},{"groupId":"EG005","numAffected":0,"numAtRisk":16},{"groupId":"EG006","numAffected":0,"numAtRisk":77},{"groupId":"EG007","numAffected":2,"numAtRisk":24}]},{"term":"Agitation","organSystem":"Psychiatric disorders","sourceVocabulary":"MedDRA 17.1","assessmentType":"SYSTEMATIC_ASSESSMENT","stats":[{"groupId":"EG000","numAffected":0,"numAtRisk":7},{"groupId":"EG001","numAffected":1,"numAtRisk":6},{"groupId":"EG002","numAffected":0,"numAtRisk":13},{"groupId":"EG003","numAffected":0,"numAtRisk":17},{"groupId":"EG004","numAffected":1,"numAtRisk":18},{"groupId":"EG005","numAffected":1,"numAtRisk":16},{"groupId":"EG006","numAffected":3,"numAtRisk":77},{"groupId":"EG007","numAffected":0,"numAtRisk":24}]},{"term":"Anxiety","organSystem":"Psychiatric disorders","sourceVocabulary":"MedDRA 17.1","assessmentType":"SYSTEMATIC_ASSESSMENT","stats":[{"groupId":"EG000","numAffected":0,"numAtRisk":7},{"groupId":"EG001","numAffected":1,"numAtRisk":6},{"groupId":"EG002","numAffected":0,"numAtRisk":13},{"groupId":"EG003","numAffected":0,"numAtRisk":17},{"groupId":"EG004","numAffected":0,"numAtRisk":18},{"groupId":"EG005","numAffected":2,"numAtRisk":16},{"groupId":"EG006","numAffected":3,"numAtRisk":77},{"groupId":"EG007","numAffected":3,"numAtRisk":24}]},{"term":"Insomnia","organSystem":"Psychiatric disorders","sourceVocabulary":"MedDRA 17.1","assessmentType":"SYSTEMATIC_ASSESSMENT","stats":[{"groupId":"EG000","numAffected":0,"numAtRisk":7},{"groupId":"EG001","numAffected":0,"numAtRisk":6},{"groupId":"EG002","numAffected":1,"numAtRisk":13},{"groupId":"EG003","numAffected":0,"numAtRisk":17},{"groupId":"EG004","numAffected":1,"numAtRisk":18},{"groupId":"EG005","numAffected":3,"numAtRisk":16},{"groupId":"EG006","numAffected":5,"numAtRisk":77},{"groupId":"EG007","numAffected":5,"numAtRisk":24}]},{"term":"Sleep disorder","organSystem":"Psychiatric disorders","sourceVocabulary":"MedDRA 17.1","assessmentType":"SYSTEMATIC_ASSESSMENT","stats":[{"groupId":"EG000","numAffected":0,"numAtRisk":7},{"groupId":"EG001","numAffected":0,"numAtRisk":6},{"groupId":"EG002","numAffected":0,"numAtRisk":13},{"groupId":"EG003","numAffected":0,"numAtRisk":17},{"groupId":"EG004","numAffected":1,"numAtRisk":18},{"groupId":"EG005","numAffected":0,"numAtRisk":16},{"groupId":"EG006","numAffected":1,"numAtRisk":77},{"groupId":"EG007","numAffected":1,"numAtRisk":24}]},{"term":"Dysuria","organSystem":"Renal and urinary disorders","sourceVocabulary":"MedDRA 17.1","assessmentType":"SYSTEMATIC_ASSESSMENT","stats":[{"groupId":"EG000","numAffected":0,"numAtRisk":7},{"groupId":"EG001","numAffected":0,"numAtRisk":6},{"groupId":"EG002","numAffected":0,"numAtRisk":13},{"groupId":"EG003","numAffected":1,"numAtRisk":17},{"groupId":"EG004","numAffected":0,"numAtRisk":18},{"groupId":"EG005","numAffected":0,"numAtRisk":16},{"groupId":"EG006","numAffected":1,"numAtRisk":77},{"groupId":"EG007","numAffected":0,"numAtRisk":24}]},{"term":"Glycosuria","organSystem":"Renal and urinary disorders","sourceVocabulary":"MedDRA 17.1","assessmentType":"SYSTEMATIC_ASSESSMENT","stats":[{"groupId":"EG000","numAffected":0,"numAtRisk":7},{"groupId":"EG001","numAffected":0,"numAtRisk":6},{"groupId":"EG002","numAffected":0,"numAtRisk":13},{"groupId":"EG003","numAffected":0,"numAtRisk":17},{"groupId":"EG004","numAffected":1,"numAtRisk":18},{"groupId":"EG005","numAffected":0,"numAtRisk":16},{"groupId":"EG006","numAffected":1,"numAtRisk":77},{"groupId":"EG007","numAffected":0,"numAtRisk":24}]},{"term":"Neurogenic bladder","organSystem":"Renal and urinary disorders","sourceVocabulary":"MedDRA 17.1","assessmentType":"SYSTEMATIC_ASSESSMENT","stats":[{"groupId":"EG000","numAffected":0,"numAtRisk":7},{"groupId":"EG001","numAffected":0,"numAtRisk":6},{"groupId":"EG002","numAffected":0,"numAtRisk":13},{"groupId":"EG003","numAffected":0,"numAtRisk":17},{"groupId":"EG004","numAffected":1,"numAtRisk":18},{"groupId":"EG005","numAffected":0,"numAtRisk":16},{"groupId":"EG006","numAffected":1,"numAtRisk":77},{"groupId":"EG007","numAffected":1,"numAtRisk":24}]},{"term":"Urethral pain","organSystem":"Renal and urinary disorders","sourceVocabulary":"MedDRA 17.1","assessmentType":"SYSTEMATIC_ASSESSMENT","stats":[{"groupId":"EG000","numAffected":0,"numAtRisk":7},{"groupId":"EG001","numAffected":0,"numAtRisk":6},{"groupId":"EG002","numAffected":0,"numAtRisk":13},{"groupId":"EG003","numAffected":0,"numAtRisk":17},{"groupId":"EG004","numAffected":0,"numAtRisk":18},{"groupId":"EG005","numAffected":1,"numAtRisk":16},{"groupId":"EG006","numAffected":1,"numAtRisk":77},{"groupId":"EG007","numAffected":0,"numAtRisk":24}]},{"term":"Urinary incontinence","organSystem":"Renal and urinary disorders","sourceVocabulary":"MedDRA 17.1","assessmentType":"SYSTEMATIC_ASSESSMENT","stats":[{"groupId":"EG000","numAffected":0,"numAtRisk":7},{"groupId":"EG001","numAffected":0,"numAtRisk":6},{"groupId":"EG002","numAffected":0,"numAtRisk":13},{"groupId":"EG003","numAffected":1,"numAtRisk":17},{"groupId":"EG004","numAffected":0,"numAtRisk":18},{"groupId":"EG005","numAffected":0,"numAtRisk":16},{"groupId":"EG006","numAffected":1,"numAtRisk":77},{"groupId":"EG007","numAffected":1,"numAtRisk":24}]},{"term":"Haematuria","organSystem":"Renal and urinary disorders","sourceVocabulary":"MedDRA 17.1","assessmentType":"SYSTEMATIC_ASSESSMENT","stats":[{"groupId":"EG000","numAffected":0,"numAtRisk":7},{"groupId":"EG001","numAffected":1,"numAtRisk":6},{"groupId":"EG002","numAffected":1,"numAtRisk":13},{"groupId":"EG003","numAffected":0,"numAtRisk":17},{"groupId":"EG004","numAffected":0,"numAtRisk":18},{"groupId":"EG005","numAffected":0,"numAtRisk":16},{"groupId":"EG006","numAffected":2,"numAtRisk":77},{"groupId":"EG007","numAffected":2,"numAtRisk":24}]},{"term":"Renal failure acute","organSystem":"Renal and urinary disorders","sourceVocabulary":"MedDRA 17.1","assessmentType":"SYSTEMATIC_ASSESSMENT","stats":[{"groupId":"EG000","numAffected":0,"numAtRisk":7},{"groupId":"EG001","numAffected":0,"numAtRisk":6},{"groupId":"EG002","numAffected":0,"numAtRisk":13},{"groupId":"EG003","numAffected":0,"numAtRisk":17},{"groupId":"EG004","numAffected":0,"numAtRisk":18},{"groupId":"EG005","numAffected":2,"numAtRisk":16},{"groupId":"EG006","numAffected":2,"numAtRisk":77},{"groupId":"EG007","numAffected":0,"numAtRisk":24}]},{"term":"Urinary retention","organSystem":"Renal and urinary disorders","sourceVocabulary":"MedDRA 17.1","assessmentType":"SYSTEMATIC_ASSESSMENT","stats":[{"groupId":"EG000","numAffected":0,"numAtRisk":7},{"groupId":"EG001","numAffected":0,"numAtRisk":6},{"groupId":"EG002","numAffected":0,"numAtRisk":13},{"groupId":"EG003","numAffected":0,"numAtRisk":17},{"groupId":"EG004","numAffected":1,"numAtRisk":18},{"groupId":"EG005","numAffected":1,"numAtRisk":16},{"groupId":"EG006","numAffected":2,"numAtRisk":77},{"groupId":"EG007","numAffected":0,"numAtRisk":24}]},{"term":"Bronchiectasis","organSystem":"Respiratory, thoracic and mediastinal disorders","sourceVocabulary":"MedDRA 17.1","assessmentType":"SYSTEMATIC_ASSESSMENT","stats":[{"groupId":"EG000","numAffected":0,"numAtRisk":7},{"groupId":"EG001","numAffected":0,"numAtRisk":6},{"groupId":"EG002","numAffected":0,"numAtRisk":13},{"groupId":"EG003","numAffected":0,"numAtRisk":17},{"groupId":"EG004","numAffected":1,"numAtRisk":18},{"groupId":"EG005","numAffected":0,"numAtRisk":16},{"groupId":"EG006","numAffected":1,"numAtRisk":77},{"groupId":"EG007","numAffected":0,"numAtRisk":24}]},{"term":"Dyspnoea","organSystem":"Respiratory, thoracic and mediastinal disorders","sourceVocabulary":"MedDRA 17.1","assessmentType":"SYSTEMATIC_ASSESSMENT","stats":[{"groupId":"EG000","numAffected":0,"numAtRisk":7},{"groupId":"EG001","numAffected":0,"numAtRisk":6},{"groupId":"EG002","numAffected":1,"numAtRisk":13},{"groupId":"EG003","numAffected":0,"numAtRisk":17},{"groupId":"EG004","numAffected":0,"numAtRisk":18},{"groupId":"EG005","numAffected":0,"numAtRisk":16},{"groupId":"EG006","numAffected":1,"numAtRisk":77},{"groupId":"EG007","numAffected":1,"numAtRisk":24}]},{"term":"Hypoxia","organSystem":"Respiratory, thoracic and mediastinal disorders","sourceVocabulary":"MedDRA 17.1","assessmentType":"SYSTEMATIC_ASSESSMENT","stats":[{"groupId":"EG000","numAffected":0,"numAtRisk":7},{"groupId":"EG001","numAffected":1,"numAtRisk":6},{"groupId":"EG002","numAffected":0,"numAtRisk":13},{"groupId":"EG003","numAffected":0,"numAtRisk":17},{"groupId":"EG004","numAffected":0,"numAtRisk":18},{"groupId":"EG005","numAffected":0,"numAtRisk":16},{"groupId":"EG006","numAffected":1,"numAtRisk":77},{"groupId":"EG007","numAffected":0,"numAtRisk":24}]},{"term":"Nasal obstruction","organSystem":"Respiratory, thoracic and mediastinal disorders","sourceVocabulary":"MedDRA 17.1","assessmentType":"SYSTEMATIC_ASSESSMENT","stats":[{"groupId":"EG000","numAffected":0,"numAtRisk":7},{"groupId":"EG001","numAffected":0,"numAtRisk":6},{"groupId":"EG002","numAffected":0,"numAtRisk":13},{"groupId":"EG003","numAffected":0,"numAtRisk":17},{"groupId":"EG004","numAffected":0,"numAtRisk":18},{"groupId":"EG005","numAffected":1,"numAtRisk":16},{"groupId":"EG006","numAffected":1,"numAtRisk":77},{"groupId":"EG007","numAffected":0,"numAtRisk":24}]},{"term":"Oropharyngeal pain","organSystem":"Respiratory, thoracic and mediastinal disorders","sourceVocabulary":"MedDRA 17.1","assessmentType":"SYSTEMATIC_ASSESSMENT","stats":[{"groupId":"EG000","numAffected":0,"numAtRisk":7},{"groupId":"EG001","numAffected":0,"numAtRisk":6},{"groupId":"EG002","numAffected":0,"numAtRisk":13},{"groupId":"EG003","numAffected":0,"numAtRisk":17},{"groupId":"EG004","numAffected":0,"numAtRisk":18},{"groupId":"EG005","numAffected":1,"numAtRisk":16},{"groupId":"EG006","numAffected":1,"numAtRisk":77},{"groupId":"EG007","numAffected":0,"numAtRisk":24}]},{"term":"Productive cough","organSystem":"Respiratory, thoracic and mediastinal disorders","sourceVocabulary":"MedDRA 17.1","assessmentType":"SYSTEMATIC_ASSESSMENT","stats":[{"groupId":"EG000","numAffected":0,"numAtRisk":7},{"groupId":"EG001","numAffected":0,"numAtRisk":6},{"groupId":"EG002","numAffected":0,"numAtRisk":13},{"groupId":"EG003","numAffected":0,"numAtRisk":17},{"groupId":"EG004","numAffected":1,"numAtRisk":18},{"groupId":"EG005","numAffected":0,"numAtRisk":16},{"groupId":"EG006","numAffected":1,"numAtRisk":77},{"groupId":"EG007","numAffected":0,"numAtRisk":24}]},{"term":"Pulmonary mass","organSystem":"Respiratory, thoracic and mediastinal disorders","sourceVocabulary":"MedDRA 17.1","assessmentType":"SYSTEMATIC_ASSESSMENT","stats":[{"groupId":"EG000","numAffected":0,"numAtRisk":7},{"groupId":"EG001","numAffected":0,"numAtRisk":6},{"groupId":"EG002","numAffected":0,"numAtRisk":13},{"groupId":"EG003","numAffected":0,"numAtRisk":17},{"groupId":"EG004","numAffected":0,"numAtRisk":18},{"groupId":"EG005","numAffected":1,"numAtRisk":16},{"groupId":"EG006","numAffected":1,"numAtRisk":77},{"groupId":"EG007","numAffected":0,"numAtRisk":24}]},{"term":"Cough","organSystem":"Respiratory, thoracic and mediastinal disorders","sourceVocabulary":"MedDRA 17.1","assessmentType":"SYSTEMATIC_ASSESSMENT","stats":[{"groupId":"EG000","numAffected":1,"numAtRisk":7},{"groupId":"EG001","numAffected":0,"numAtRisk":6},{"groupId":"EG002","numAffected":0,"numAtRisk":13},{"groupId":"EG003","numAffected":0,"numAtRisk":17},{"groupId":"EG004","numAffected":2,"numAtRisk":18},{"groupId":"EG005","numAffected":0,"numAtRisk":16},{"groupId":"EG006","numAffected":3,"numAtRisk":77},{"groupId":"EG007","numAffected":1,"numAtRisk":24}]},{"term":"Pulmonary oedema","organSystem":"Respiratory, thoracic and mediastinal disorders","sourceVocabulary":"MedDRA 17.1","assessmentType":"SYSTEMATIC_ASSESSMENT","stats":[{"groupId":"EG000","numAffected":0,"numAtRisk":7},{"groupId":"EG001","numAffected":0,"numAtRisk":6},{"groupId":"EG002","numAffected":0,"numAtRisk":13},{"groupId":"EG003","numAffected":1,"numAtRisk":17},{"groupId":"EG004","numAffected":0,"numAtRisk":18},{"groupId":"EG005","numAffected":0,"numAtRisk":16},{"groupId":"EG006","numAffected":1,"numAtRisk":77},{"groupId":"EG007","numAffected":0,"numAtRisk":24}]},{"term":"Respiratory failure","organSystem":"Respiratory, thoracic and mediastinal disorders","sourceVocabulary":"MedDRA 17.1","assessmentType":"SYSTEMATIC_ASSESSMENT","stats":[{"groupId":"EG000","numAffected":0,"numAtRisk":7},{"groupId":"EG001","numAffected":0,"numAtRisk":6},{"groupId":"EG002","numAffected":0,"numAtRisk":13},{"groupId":"EG003","numAffected":0,"numAtRisk":17},{"groupId":"EG004","numAffected":1,"numAtRisk":18},{"groupId":"EG005","numAffected":1,"numAtRisk":16},{"groupId":"EG006","numAffected":2,"numAtRisk":77},{"groupId":"EG007","numAffected":0,"numAtRisk":24}]},{"term":"Rhinorrhoea","organSystem":"Respiratory, thoracic and mediastinal disorders","sourceVocabulary":"MedDRA 17.1","assessmentType":"SYSTEMATIC_ASSESSMENT","stats":[{"groupId":"EG000","numAffected":0,"numAtRisk":7},{"groupId":"EG001","numAffected":0,"numAtRisk":6},{"groupId":"EG002","numAffected":0,"numAtRisk":13},{"groupId":"EG003","numAffected":0,"numAtRisk":17},{"groupId":"EG004","numAffected":0,"numAtRisk":18},{"groupId":"EG005","numAffected":0,"numAtRisk":16},{"groupId":"EG006","numAffected":0,"numAtRisk":77},{"groupId":"EG007","numAffected":2,"numAtRisk":24}]},{"term":"Angioedema","organSystem":"Skin and subcutaneous tissue disorders","sourceVocabulary":"MedDRA 17.1","assessmentType":"SYSTEMATIC_ASSESSMENT","stats":[{"groupId":"EG000","numAffected":1,"numAtRisk":7},{"groupId":"EG001","numAffected":0,"numAtRisk":6},{"groupId":"EG002","numAffected":0,"numAtRisk":13},{"groupId":"EG003","numAffected":0,"numAtRisk":17},{"groupId":"EG004","numAffected":0,"numAtRisk":18},{"groupId":"EG005","numAffected":0,"numAtRisk":16},{"groupId":"EG006","numAffected":1,"numAtRisk":77},{"groupId":"EG007","numAffected":0,"numAtRisk":24}]},{"term":"Psoriasis","organSystem":"Skin and subcutaneous tissue disorders","sourceVocabulary":"MedDRA 17.1","assessmentType":"SYSTEMATIC_ASSESSMENT","stats":[{"groupId":"EG000","numAffected":0,"numAtRisk":7},{"groupId":"EG001","numAffected":0,"numAtRisk":6},{"groupId":"EG002","numAffected":0,"numAtRisk":13},{"groupId":"EG003","numAffected":1,"numAtRisk":17},{"groupId":"EG004","numAffected":0,"numAtRisk":18},{"groupId":"EG005","numAffected":0,"numAtRisk":16},{"groupId":"EG006","numAffected":1,"numAtRisk":77},{"groupId":"EG007","numAffected":0,"numAtRisk":24}]},{"term":"Erythema","organSystem":"Skin and subcutaneous tissue disorders","sourceVocabulary":"MedDRA 17.1","assessmentType":"SYSTEMATIC_ASSESSMENT","stats":[{"groupId":"EG000","numAffected":0,"numAtRisk":7},{"groupId":"EG001","numAffected":0,"numAtRisk":6},{"groupId":"EG002","numAffected":1,"numAtRisk":13},{"groupId":"EG003","numAffected":1,"numAtRisk":17},{"groupId":"EG004","numAffected":0,"numAtRisk":18},{"groupId":"EG005","numAffected":0,"numAtRisk":16},{"groupId":"EG006","numAffected":2,"numAtRisk":77},{"groupId":"EG007","numAffected":0,"numAtRisk":24}]},{"term":"Petechiae","organSystem":"Skin and subcutaneous tissue disorders","sourceVocabulary":"MedDRA 17.1","assessmentType":"SYSTEMATIC_ASSESSMENT","stats":[{"groupId":"EG000","numAffected":0,"numAtRisk":7},{"groupId":"EG001","numAffected":0,"numAtRisk":6},{"groupId":"EG002","numAffected":0,"numAtRisk":13},{"groupId":"EG003","numAffected":1,"numAtRisk":17},{"groupId":"EG004","numAffected":1,"numAtRisk":18},{"groupId":"EG005","numAffected":0,"numAtRisk":16},{"groupId":"EG006","numAffected":2,"numAtRisk":77},{"groupId":"EG007","numAffected":0,"numAtRisk":24}]},{"term":"Decubitis ulcer","organSystem":"Skin and subcutaneous tissue disorders","sourceVocabulary":"MedDRA 17.1","assessmentType":"SYSTEMATIC_ASSESSMENT","stats":[{"groupId":"EG000","numAffected":0,"numAtRisk":7},{"groupId":"EG001","numAffected":0,"numAtRisk":6},{"groupId":"EG002","numAffected":0,"numAtRisk":13},{"groupId":"EG003","numAffected":0,"numAtRisk":17},{"groupId":"EG004","numAffected":0,"numAtRisk":18},{"groupId":"EG005","numAffected":0,"numAtRisk":16},{"groupId":"EG006","numAffected":0,"numAtRisk":77},{"groupId":"EG007","numAffected":2,"numAtRisk":24}]},{"term":"Swelling face","organSystem":"Skin and subcutaneous tissue disorders","sourceVocabulary":"MedDRA 17.1","assessmentType":"SYSTEMATIC_ASSESSMENT","stats":[{"groupId":"EG000","numAffected":0,"numAtRisk":7},{"groupId":"EG001","numAffected":0,"numAtRisk":6},{"groupId":"EG002","numAffected":0,"numAtRisk":13},{"groupId":"EG003","numAffected":1,"numAtRisk":17},{"groupId":"EG004","numAffected":0,"numAtRisk":18},{"groupId":"EG005","numAffected":0,"numAtRisk":16},{"groupId":"EG006","numAffected":1,"numAtRisk":77},{"groupId":"EG007","numAffected":0,"numAtRisk":24}]},{"term":"Arteriosclerosis","organSystem":"Vascular disorders","sourceVocabulary":"MedDRA 17.1","assessmentType":"SYSTEMATIC_ASSESSMENT","stats":[{"groupId":"EG000","numAffected":1,"numAtRisk":7},{"groupId":"EG001","numAffected":0,"numAtRisk":6},{"groupId":"EG002","numAffected":0,"numAtRisk":13},{"groupId":"EG003","numAffected":0,"numAtRisk":17},{"groupId":"EG004","numAffected":0,"numAtRisk":18},{"groupId":"EG005","numAffected":0,"numAtRisk":16},{"groupId":"EG006","numAffected":1,"numAtRisk":77},{"groupId":"EG007","numAffected":0,"numAtRisk":24}]},{"term":"Hypotension","organSystem":"Vascular disorders","sourceVocabulary":"MedDRA 17.1","assessmentType":"SYSTEMATIC_ASSESSMENT","stats":[{"groupId":"EG000","numAffected":0,"numAtRisk":7},{"groupId":"EG001","numAffected":1,"numAtRisk":6},{"groupId":"EG002","numAffected":0,"numAtRisk":13},{"groupId":"EG003","numAffected":0,"numAtRisk":17},{"groupId":"EG004","numAffected":0,"numAtRisk":18},{"groupId":"EG005","numAffected":0,"numAtRisk":16},{"groupId":"EG006","numAffected":1,"numAtRisk":77},{"groupId":"EG007","numAffected":1,"numAtRisk":24}]},{"term":"Haematoma","organSystem":"Vascular disorders","sourceVocabulary":"MedDRA 17.1","assessmentType":"SYSTEMATIC_ASSESSMENT","stats":[{"groupId":"EG000","numAffected":0,"numAtRisk":7},{"groupId":"EG001","numAffected":0,"numAtRisk":6},{"groupId":"EG002","numAffected":0,"numAtRisk":13},{"groupId":"EG003","numAffected":1,"numAtRisk":17},{"groupId":"EG004","numAffected":0,"numAtRisk":18},{"groupId":"EG005","numAffected":1,"numAtRisk":16},{"groupId":"EG006","numAffected":2,"numAtRisk":77},{"groupId":"EG007","numAffected":0,"numAtRisk":24}]},{"term":"Hypertension","organSystem":"Vascular disorders","sourceVocabulary":"MedDRA 17.1","assessmentType":"SYSTEMATIC_ASSESSMENT","stats":[{"groupId":"EG000","numAffected":0,"numAtRisk":7},{"groupId":"EG001","numAffected":0,"numAtRisk":6},{"groupId":"EG002","numAffected":1,"numAtRisk":13},{"groupId":"EG003","numAffected":3,"numAtRisk":17},{"groupId":"EG004","numAffected":1,"numAtRisk":18},{"groupId":"EG005","numAffected":0,"numAtRisk":16},{"groupId":"EG006","numAffected":5,"numAtRisk":77},{"groupId":"EG007","numAffected":3,"numAtRisk":24}]}]},"moreInfoModule":{"certainAgreement":{"piSponsorEmployee":false,"restrictiveAgreement":false},"pointOfContact":{"title":"Contact for Clinical Trial Information","organization":"Daiichi Sankyo","email":"CTRinfo@dsi.com","phone":"908-992-6400"}}},"documentSection":{"largeDocumentModule":{"largeDocs":[{"typeAbbrev":"Prot_SAP","hasProtocol":true,"hasSap":true,"hasIcf":false,"label":"Study Protocol and Statistical Analysis Plan","date":"2014-12-29","uploadDate":"2020-07-09T18:14","filename":"Prot_SAP_000.pdf","size":11850008}]}},"derivedSection":{"miscInfoModule":{"versionHolder":"2024-02-14","removedCountries":["Canada"]},"conditionBrowseModule":{"meshes":[{"id":"D000020521","term":"Stroke"},{"id":"D000083242","term":"Ischemic Stroke"},{"id":"D000002544","term":"Cerebral Infarction"},{"id":"D000007511","term":"Ischemia"}],"ancestors":[{"id":"D000002561","term":"Cerebrovascular Disorders"},{"id":"D000001927","term":"Brain Diseases"},{"id":"D000002493","term":"Central Nervous System Diseases"},{"id":"D000009422","term":"Nervous System Diseases"},{"id":"D000014652","term":"Vascular Diseases"},{"id":"D000002318","term":"Cardiovascular Diseases"},{"id":"D000010335","term":"Pathologic Processes"},{"id":"D000020520","term":"Brain Infarction"},{"id":"D000002545","term":"Brain Ischemia"},{"id":"D000007238","term":"Infarction"},{"id":"D000009336","term":"Necrosis"}],"browseLeaves":[{"id":"M21996","name":"Stroke","asFound":"Stroke","relevance":"HIGH"},{"id":"M10233","name":"Ischemia","asFound":"Ischemic","relevance":"HIGH"},{"id":"M2401","name":"Ischemic Stroke","asFound":"Ischemic Stroke","relevance":"HIGH"},{"id":"M9972","name":"Infarction","relevance":"LOW"},{"id":"M5483","name":"Cerebral Infarction","asFound":"Ischemic Stroke","relevance":"HIGH"},{"id":"M5500","name":"Cerebrovascular Disorders","relevance":"LOW"},{"id":"M4894","name":"Brain Diseases","relevance":"LOW"},{"id":"M5432","name":"Central Nervous System Diseases","relevance":"LOW"},{"id":"M17090","name":"Vascular Diseases","relevance":"LOW"},{"id":"M21995","name":"Brain Infarction","relevance":"LOW"},{"id":"M5484","name":"Brain Ischemia","relevance":"LOW"},{"id":"M11974","name":"Necrosis","relevance":"LOW"},{"id":"T170","name":"Acute Graft Versus Host Disease","relevance":"LOW"}],"browseBranches":[{"abbrev":"BC10","name":"Nervous System Diseases"},{"abbrev":"BC14","name":"Heart and Blood Diseases"},{"abbrev":"All","name":"All Conditions"},{"abbrev":"BC23","name":"Symptoms and General Pathology"},{"abbrev":"Rare","name":"Rare Diseases"}]}},"hasResults":true}