{"protocolSection":{"identificationModule":{"nctId":"NCT01776424","orgStudyIdInfo":{"id":"15786"},"secondaryIdInfos":[{"id":"2012-004180-43","type":"EUDRACT_NUMBER"}],"organization":{"fullName":"Bayer","class":"INDUSTRY"},"briefTitle":"Rivaroxaban for the Prevention of Major Cardiovascular Events in Coronary or Peripheral Artery Disease","officialTitle":"A Randomized Controlled Trial of Rivaroxaban for the Prevention of Major Cardiovascular Events in Patients With Coronary or Peripheral Artery Disease (COMPASS - Cardiovascular OutcoMes for People Using Anticoagulation StrategieS).","acronym":"COMPASS"},"statusModule":{"statusVerifiedDate":"2022-11","overallStatus":"COMPLETED","expandedAccessInfo":{"hasExpandedAccess":false},"startDateStruct":{"date":"2013-02-28","type":"ACTUAL"},"primaryCompletionDateStruct":{"date":"2017-07-21","type":"ACTUAL"},"completionDateStruct":{"date":"2021-06-15","type":"ACTUAL"},"studyFirstSubmitDate":"2013-01-24","studyFirstSubmitQcDate":"2013-01-25","studyFirstPostDateStruct":{"date":"2013-01-28","type":"ESTIMATED"},"resultsFirstSubmitDate":"2018-07-16","resultsFirstSubmitQcDate":"2018-09-06","resultsFirstPostDateStruct":{"date":"2018-10-05","type":"ACTUAL"},"lastUpdateSubmitDate":"2022-11-03","lastUpdatePostDateStruct":{"date":"2022-11-28","type":"ACTUAL"}},"sponsorCollaboratorsModule":{"responsibleParty":{"type":"SPONSOR"},"leadSponsor":{"name":"Bayer","class":"INDUSTRY"},"collaborators":[{"name":"Population Health Research Institute","class":"OTHER"},{"name":"Janssen Research & Development, LLC","class":"INDUSTRY"}]},"oversightModule":{"oversightHasDmc":true,"isFdaRegulatedDrug":true,"isFdaRegulatedDevice":false},"descriptionModule":{"briefSummary":"The primary objectives of this study are:\n\n* To determine whether rivaroxaban 2.5 mg twice daily (bid) + aspirin 100 mg once daily (od) compared with aspirin 100 mg od reduces the risk of a composite of myocardial infarction, stroke, or cardiovascular death in subjects with coronary artery disease (CAD) or peripheral artery disease (PAD);\n* To determine whether rivaroxaban 5 mg bid compared with aspirin 100 mg od reduces the risk of a composite of myocardial infarction, stroke or cardiovascular death in subjects with CAD or PAD."},"conditionsModule":{"conditions":["Prevention & Control"],"keywords":["Cardiovascular events","Rivaroxaban","Xarelto","Anticoagulant","Blood thinner","Aspirin","ASA","Coronary artery disease","CAD","Peripheral artery disease","PAD","Artery disease","Coronary artery bypass graft","Stroke","Heart attack","Angina","Arterial vascular disease","Myocardial infarction","MI","Cardiovascular Death","CV Death","Heart disease"]},"designModule":{"studyType":"INTERVENTIONAL","phases":["PHASE3"],"designInfo":{"allocation":"RANDOMIZED","interventionModel":"PARALLEL","primaryPurpose":"PREVENTION","maskingInfo":{"masking":"QUADRUPLE","maskingDescription":"Participants who consented to COMPASS long-term open-label extension (LTOLE) part received open label rivaroxaban 2.5 mg bid and aspirin 100 mg od in LTOLE part and no blinding procedures were applicable to the LTOLE part.","whoMasked":["PARTICIPANT","CARE_PROVIDER","INVESTIGATOR","OUTCOMES_ASSESSOR"]}},"enrollmentInfo":{"count":27395,"type":"ACTUAL"}},"armsInterventionsModule":{"armGroups":[{"label":"Rivaroxaban 2.5mg + Aspirin 100mg","type":"EXPERIMENTAL","description":"Participants received rivaroxaban 2.5 mg twice daily (bid) and aspirin 100 mg once daily (od). All doses were provided in tablet form for oral administration. Participants who did not have a continuous need to take a proton pump inhibitor (PPI), were additionally randomized 1:1 to receive pantoprazole 40 mg (tablet form for oral administration, od) or matching placebo od. Participants who consented to LTOLE part received open label rivaroxaban 2.5 mg bid and aspirin 100 mg od in LTOLE part.","interventionNames":["Drug: Rivaroxaban (Xarelto, BAY59-7939)","Drug: Aspirin","Drug: Pantoprazole","Drug: Pantoprazole placebo"]},{"label":"Rivaroxaban 5mg + Aspirin Placebo","type":"EXPERIMENTAL","description":"Participants received rivaroxaban 5 mg bid and aspirin placebo od. All doses were provided in tablet form for oral administration. Participants who did not have a continuous need to take a PPI, were additionally randomized 1:1 to receive pantoprazole 40 mg (tablet form for oral administration, od) or matching placebo od. Participants who consented to LTOLE part received open label rivaroxaban 2.5 mg bid and aspirin 100 mg od in LTOLE part.","interventionNames":["Drug: Rivaroxaban (Xarelto, BAY59-7939)","Drug: Aspirin placebo","Drug: Pantoprazole","Drug: Pantoprazole placebo"]},{"label":"Rivaroxaban Placebo + Aspirin 100mg","type":"ACTIVE_COMPARATOR","description":"Participants received rivaroxaban placebo bid and aspirin 100 mg od. All doses were provided in tablet form for oral administration. Participants who did not have a continuous need to take a PPI, were randomized 1:1 to receive pantoprazole 40 mg (tablet form for oral administration, od) or matching placebo od. Participants who consented to LTOLE part received open label rivaroxaban 2.5 mg bid and aspirin 100 mg od in LTOLE part.","interventionNames":["Drug: Aspirin","Drug: Rivaroxaban placebo","Drug: Pantoprazole","Drug: Pantoprazole placebo"]}],"interventions":[{"type":"DRUG","name":"Rivaroxaban (Xarelto, BAY59-7939)","description":"Tablet, 2.5 mg, twice daily, oral","armGroupLabels":["Rivaroxaban 2.5mg + Aspirin 100mg"]},{"type":"DRUG","name":"Rivaroxaban (Xarelto, BAY59-7939)","description":"Tablet, 5 mg, twice daily, oral","armGroupLabels":["Rivaroxaban 5mg + Aspirin Placebo"]},{"type":"DRUG","name":"Aspirin","description":"Tablet, 100 mg, once daily, oral","armGroupLabels":["Rivaroxaban 2.5mg + Aspirin 100mg","Rivaroxaban Placebo + Aspirin 100mg"]},{"type":"DRUG","name":"Aspirin placebo","description":"Aspirin matching placebo, once daily, oral","armGroupLabels":["Rivaroxaban 5mg + Aspirin Placebo"]},{"type":"DRUG","name":"Rivaroxaban placebo","description":"Rivaroxaban matching placebo, twice daily, oral","armGroupLabels":["Rivaroxaban Placebo + Aspirin 100mg"]},{"type":"DRUG","name":"Pantoprazole","description":"Tablet, 40 mg, once daily, oral, for participants who were not on a PPI and who were randomized to pantoprazole","armGroupLabels":["Rivaroxaban 2.5mg + Aspirin 100mg","Rivaroxaban 5mg + Aspirin Placebo","Rivaroxaban Placebo + Aspirin 100mg"]},{"type":"DRUG","name":"Pantoprazole placebo","description":"Pantoprazole matching placebo, once daily, oral, for participants who were not on a PPI and who were randomized to pantoprazole placebo","armGroupLabels":["Rivaroxaban 2.5mg + Aspirin 100mg","Rivaroxaban 5mg + Aspirin Placebo","Rivaroxaban Placebo + Aspirin 100mg"]}]},"outcomesModule":{"primaryOutcomes":[{"measure":"The First Occurrence of the Composite Primary Efficacy Outcome, Myocardial Infarction (MI), Stroke, or Cardiovascular (CV) Death","description":"Count of participants and time from randomization to the first occurrence of the composite primary efficacy outcome, MI, stroke, or CV death were evaluated. Hazard ratios were calculated and reported as statistical analysis.","timeFrame":"For each participant, the first occurrence of the composite primary efficacy outcome after randomization up until the global rivaroxaban/aspirin outcomes cut-off date (06 FEB 2017) was considered. The mean time in follow-up until that date was 702 days."},{"measure":"The First Occurrence of the Primary Safety Outcome Major Bleeding Based on a Modification of the International Society on Thrombosis and Haemostasis (ISTH) Criteria","description":"Modified ISTH major bleeding is defined as: i) Fatal bleeding, or ii) Symptomatic bleeding in a critical area or organ, such as intraarticular, intracranial, intramuscular with compartment syndrome, intraocular, intraspinal, liver, pancreas, pericardial, respiratory, retroperitoneal, adrenal gland or kidney; or bleeding into the surgical site requiring reoperation, or iii) Bleeding leading to hospitalization (major bleeding also includes presentation to an acute care facility with discharge on the same day).\n\nCount of participants and time from randomization to the first occurrence of the primary safety outcome major bleeding were evaluated. Hazard ratios were calculated and reported as statistical analysis.","timeFrame":"For each participant, the first occurrence of modified ISTH major bleeding after randomization up until the global rivaroxaban/aspirin outcomes cut-off date (06 FEB 2017) was considered. The mean time in follow-up until that date was 702 days."}],"secondaryOutcomes":[{"measure":"The First Occurrence of Myocardial Infarction (MI), Ischemic Stroke, Acute Limb Ischemia (ALI), or Coronary Heart Disease (CHD) Death","description":"Count of participants and time from randomization to the first occurrence of MI, ischemic stroke, ALI, or CHD death were evaluated. Hazard ratios were calculated and reported as statistical analysis.","timeFrame":"For each participant, the first occurrence of MI, ALI, or CHD death after randomization up until the global rivaroxaban/aspirin outcomes cut-off date (06 FEB 2017) was considered. The mean time in follow-up until that date was 702 days."},{"measure":"The First Occurrence of MI, Ischemic Stroke, ALI, or Cardiovascular (CV) Death","description":"Count of participants and time from randomization to the first occurrence of MI, ischemic stroke, ALI, or CV death were evaluated. Hazard ratios were calculated and reported as statistical analysis.","timeFrame":"For each participant, the first occurrence of MI, ischemic stroke, ALI, or CV death after randomization up until the global rivaroxaban/aspirin outcomes cut-off date (06 FEB 2017) was considered. The mean time in follow-up until that date was 702 days."},{"measure":"All-cause Mortality","description":"Count of participants and time from randomization to death by all cause were evaluated. Hazard ratios were calculated and reported as statistical analysis.","timeFrame":"For each participants, death by any cause after randomization up until the global rivaroxaban/aspirin outcomes cut-off date (06 FEB 2017) was considered. The mean time in follow-up until that date was 702 days."}],"otherOutcomes":[{"measure":"The First Occurrence of the Composite Primary Efficacy Outcome, Myocardial Infarction (MI), Stroke, or Cardiovascular (CV) Death in LTOLE Part","description":"Count of participants from COMPASS LTOLE initiation visit to the first occurrence of the composite primary efficacy outcome, MI, stroke, or CV death were evaluated. LTOLE: long-term open-lable extension","timeFrame":"For each participant, the first occurrence of the composite primary efficacy outcome after from COMPASS LTOLE initiation visit up until last LTOLE part contact date was considered. The mean time in follow-up was 428 days."},{"measure":"The First Occurrence of the Primary Safety Outcome Major Bleeding Based on a Modification of the International Society on Thrombosis and Haemostasis (ISTH) Criteria in LTOLE Part","description":"Modified ISTH major bleeding is defined as: i) Fatal bleeding, or ii) Symptomatic bleeding in a critical area or organ, such as intraarticular, intracranial, intramuscular with compartment syndrome, intraocular, intraspinal, liver, pancreas, pericardial, respiratory, retroperitoneal, adrenal gland or kidney; or bleeding into the surgical site requiring reoperation, or iii) Bleeding leading to hospitalization (major bleeding also includes presentation to an acute care facility with discharge on the same day).\n\nCount of participants from COMPASS LTOLE initiation visit to the first occurrence of the primary safety outcome major bleeding was evaluated. LTOLE: long-term open-lable extension","timeFrame":"For each participant, the first occurrence of modified ISTH major bleeding from COMPASS LTOLE initiation visit up until 2 days after the last treatment in LTOLE part was considered. The mean time in follow-up was 421 days."},{"measure":"All-cause Mortality in LTOLE Part","description":"Count of participants from COMPASS LTOLE initiation visit to death by all cause were evaluated. LTOLE: long-term open-lable extension","timeFrame":"For each participants, death by any cause after COMPASS LTOLE initiation visit up until the the last LTOLE part contact date was considered. The mean time in follow-up until that date was 428 days."}]},"eligibilityModule":{"eligibilityCriteria":"Inclusion Criteria:\n\n- Meet criteria for CAD and/or PAD\n\nSubjects with CAD must also meet at least one of the following criteria:\n\n* Age ≥65, or\n* Age \\<65 and documented atherosclerosis or revascularization involving at least 2 vascular beds, or at least 2 additional risk factors\n\nExclusion Criteria:\n\n* Stroke within 1 month or any history of hemorrhagic or lacunar stroke\n* Severe heart failure with known ejection fraction \\<30% or New York Heart Association (NYHA) class III or IV symptoms\n* Estimated glomerular filtration rate (eGFR)\\<15 mL/min\n* Need for dual antiplatelet therapy, other non-aspirin antiplatelet therapy, or oral anticoagulant therapy","healthyVolunteers":false,"sex":"ALL","minimumAge":"18 Years","stdAges":["ADULT","OLDER_ADULT"]},"contactsLocationsModule":{"overallOfficials":[{"name":"Bayer Study Director","affiliation":"Bayer","role":"STUDY_DIRECTOR"}],"locations":[{"city":"Birmingham","state":"Alabama","zip":"35294","country":"United States","geoPoint":{"lat":33.52066,"lon":-86.80249}},{"city":"Mobile","state":"Alabama","zip":"36608","country":"United States","geoPoint":{"lat":30.69436,"lon":-88.04305}},{"city":"Anaheim","state":"California","zip":"92801","country":"United States","geoPoint":{"lat":33.83529,"lon":-117.9145}},{"city":"Laguna Hills","state":"California","zip":"92653","country":"United States","geoPoint":{"lat":33.61252,"lon":-117.71283}},{"city":"Northridge","state":"California","zip":"91324","country":"United States","geoPoint":{"lat":34.22834,"lon":-118.53675}},{"city":"Palo Alto","state":"California","zip":"94304-1207","country":"United States","geoPoint":{"lat":37.44188,"lon":-122.14302}},{"city":"Santa Rosa","state":"California","zip":"95494","country":"United States","geoPoint":{"lat":38.44047,"lon":-122.71443}},{"city":"Sylmar","state":"California","zip":"91342","country":"United States","geoPoint":{"lat":34.30778,"lon":-118.44925}},{"city":"Torrance","state":"California","zip":"90502-2004","country":"United States","geoPoint":{"lat":33.83585,"lon":-118.34063}},{"city":"Norwalk","state":"Connecticut","zip":"06851","country":"United States","geoPoint":{"lat":41.1176,"lon":-73.4079}},{"city":"Stamford","state":"Connecticut","zip":"06905","country":"United States","geoPoint":{"lat":41.05343,"lon":-73.53873}},{"city":"Trumbull","state":"Connecticut","zip":"06611","country":"United States","geoPoint":{"lat":41.24287,"lon":-73.20067}},{"city":"Atlantis","state":"Florida","zip":"33462","country":"United States","geoPoint":{"lat":26.5909,"lon":-80.10088}},{"city":"Clearwater","state":"Florida","zip":"33756","country":"United States","geoPoint":{"lat":27.96585,"lon":-82.8001}},{"city":"Coral Springs","state":"Florida","zip":"33065","country":"United States","geoPoint":{"lat":26.27119,"lon":-80.2706}},{"city":"Jacksonville Beach","state":"Florida","zip":"32250","country":"United States","geoPoint":{"lat":30.29469,"lon":-81.39314}},{"city":"Largo","state":"Florida","zip":"33770","country":"United States","geoPoint":{"lat":27.90979,"lon":-82.78842}},{"city":"New Port Richey","state":"Florida","zip":"34653","country":"United States","geoPoint":{"lat":28.24418,"lon":-82.71927}},{"city":"Safety Harbor","state":"Florida","zip":"34695","country":"United States","geoPoint":{"lat":27.99085,"lon":-82.69316}},{"city":"Sarasota","state":"Florida","zip":"34239","country":"United States","geoPoint":{"lat":27.33643,"lon":-82.53065}},{"city":"Meridian","state":"Idaho","zip":"83716","country":"United States","geoPoint":{"lat":43.61211,"lon":-116.39151}},{"city":"Arlington Heights","state":"Illinois","zip":"60005","country":"United States","geoPoint":{"lat":42.08836,"lon":-87.98063}},{"city":"Hazel Crest","state":"Illinois","zip":"60429","country":"United States","geoPoint":{"lat":41.5717,"lon":-87.69449}},{"city":"Davenport","state":"Iowa","zip":"52803","country":"United States","geoPoint":{"lat":41.52364,"lon":-90.57764}},{"city":"West Des Moines","state":"Iowa","zip":"50266","country":"United States","geoPoint":{"lat":41.57721,"lon":-93.71133}},{"city":"Crestview Hills","state":"Kentucky","zip":"41017-5460","country":"United States","geoPoint":{"lat":39.02728,"lon":-84.58494}},{"city":"Baltimore","state":"Maryland","zip":"21215","country":"United States","geoPoint":{"lat":39.29038,"lon":-76.61219}},{"city":"Haverhill","state":"Massachusetts","zip":"01830","country":"United States","geoPoint":{"lat":42.7762,"lon":-71.07728}},{"city":"Alpena","state":"Michigan","zip":"49707","country":"United States","geoPoint":{"lat":45.06168,"lon":-83.43275}},{"city":"Jackson","state":"Michigan","zip":"49201","country":"United States","geoPoint":{"lat":42.24587,"lon":-84.40135}},{"city":"Saint Louis","state":"Missouri","zip":"63136","country":"United States","geoPoint":{"lat":38.62727,"lon":-90.19789}},{"city":"Kalispell","state":"Montana","zip":"59901","country":"United States","geoPoint":{"lat":48.19579,"lon":-114.31291}},{"city":"New Brunswick","state":"New Jersey","zip":"08901","country":"United States","geoPoint":{"lat":40.48622,"lon":-74.45182}},{"city":"Cortlandt Manor","state":"New York","zip":"10567","country":"United States","geoPoint":{"lat":41.29009,"lon":-73.92042}},{"city":"Kingston","state":"New York","zip":"12401","country":"United States","geoPoint":{"lat":41.92704,"lon":-73.99736}},{"city":"Saratoga Springs","state":"New York","zip":"12866","country":"United States","geoPoint":{"lat":43.08313,"lon":-73.78457}},{"city":"Durham","state":"North Carolina","zip":"27713","country":"United States","geoPoint":{"lat":35.99403,"lon":-78.89862}},{"city":"Pinehurst","state":"North Carolina","zip":"28374","country":"United States","geoPoint":{"lat":35.19543,"lon":-79.46948}},{"city":"Elyria","state":"Ohio","zip":"44035","country":"United States","geoPoint":{"lat":41.36838,"lon":-82.10765}},{"city":"Sandusky","state":"Ohio","zip":"44870","country":"United States","geoPoint":{"lat":41.44894,"lon":-82.70796}},{"city":"Toledo","state":"Ohio","zip":"43606","country":"United States","geoPoint":{"lat":41.66394,"lon":-83.55521}},{"city":"Doylestown","state":"Pennsylvania","zip":"18901","country":"United States","geoPoint":{"lat":40.31011,"lon":-75.12989}},{"city":"Langhorne","state":"Pennsylvania","zip":"19047","country":"United States","geoPoint":{"lat":40.17455,"lon":-74.92267}},{"city":"Yardley","state":"Pennsylvania","zip":"19067","country":"United States","geoPoint":{"lat":40.24566,"lon":-74.846}},{"city":"Sioux Falls","state":"South Dakota","zip":"57108","country":"United States","geoPoint":{"lat":43.54997,"lon":-96.70033}},{"city":"Dallas","state":"Texas","zip":"75216-7167","country":"United States","geoPoint":{"lat":32.78306,"lon":-96.80667}},{"city":"Houston","state":"Texas","zip":"77030-4298","country":"United States","geoPoint":{"lat":29.76328,"lon":-95.36327}},{"city":"Houston","state":"Texas","zip":"77030","country":"United States","geoPoint":{"lat":29.76328,"lon":-95.36327}},{"city":"San Antonio","state":"Texas","zip":"78229","country":"United States","geoPoint":{"lat":29.42412,"lon":-98.49363}},{"city":"Bellevue","state":"Washington","zip":"98004-4623","country":"United States","geoPoint":{"lat":47.61038,"lon":-122.20068}},{"city":"Puyallup","state":"Washington","zip":"98372","country":"United States","geoPoint":{"lat":47.18538,"lon":-122.2929}},{"city":"Seattle","state":"Washington","zip":"98195","country":"United States","geoPoint":{"lat":47.60621,"lon":-122.33207}},{"city":"Spokane","state":"Washington","zip":"99204","country":"United States","geoPoint":{"lat":47.65966,"lon":-117.42908}},{"city":"Adrogue","state":"Buenos Aires","zip":"1846","country":"Argentina","geoPoint":{"lat":-34.80041,"lon":-58.38384}},{"city":"Bahía Blanca","state":"Buenos Aires","zip":"8000","country":"Argentina","geoPoint":{"lat":-38.71959,"lon":-62.27243}},{"city":"Coronel Suarez","state":"Buenos Aires","zip":"B7540GHD","country":"Argentina","geoPoint":{"lat":-37.45467,"lon":-61.93343}},{"city":"Junín","state":"Buenos Aires","zip":"B6000BHA","country":"Argentina","geoPoint":{"lat":-34.58382,"lon":-60.94332}},{"city":"La Plata","state":"Buenos Aires","zip":"1900","country":"Argentina","geoPoint":{"lat":-34.92145,"lon":-57.95453}},{"city":"La Plata","state":"Buenos Aires","zip":"B1902AGY","country":"Argentina","geoPoint":{"lat":-34.92145,"lon":-57.95453}},{"city":"La Plata","state":"Buenos Aires","zip":"B1902CNF","country":"Argentina","geoPoint":{"lat":-34.92145,"lon":-57.95453}},{"city":"La Plata","state":"Buenos Aires","zip":"B1902COS","country":"Argentina","geoPoint":{"lat":-34.92145,"lon":-57.95453}},{"city":"Mar del Plata","state":"Buenos Aires","zip":"B7600FZN","country":"Argentina","geoPoint":{"lat":-38.00228,"lon":-57.55754}},{"city":"Merlo","state":"Buenos Aires","zip":"B1722COV","country":"Argentina","geoPoint":{"lat":-32.34288,"lon":-65.01396}},{"city":"Munro","state":"Buenos Aires","zip":"B1605DSX","country":"Argentina","geoPoint":{"lat":-34.53021,"lon":-58.52421}},{"city":"Quilmes","state":"Buenos Aires","zip":"1878","country":"Argentina","geoPoint":{"lat":-34.72904,"lon":-58.26374}},{"city":"Ramos Mejía","state":"Buenos Aires","zip":"B1740ETD","country":"Argentina","geoPoint":{"lat":-34.6551,"lon":-58.55318}},{"city":"San Martín","state":"Buenos Aires","zip":"1650","country":"Argentina","geoPoint":{"lat":-33.08103,"lon":-68.46814}},{"city":"San Nicolás","state":"Buenos Aires","zip":"B2900DMH","country":"Argentina"},{"city":"Vicente López","state":"Buenos Aires","zip":"B1602ABQ","country":"Argentina","geoPoint":{"lat":-34.52947,"lon":-58.4737}},{"city":"Zárate","state":"Buenos Aires","zip":"B2800DGH","country":"Argentina","geoPoint":{"lat":-34.09814,"lon":-59.02858}},{"city":"Buenos Aires","state":"Ciudad Auton. De Buenos Aires","zip":"C1119ACN","country":"Argentina","geoPoint":{"lat":-34.61315,"lon":-58.37723}},{"city":"Buenos Aires","state":"Ciudad Auton. De Buenos Aires","zip":"C1428ART","country":"Argentina","geoPoint":{"lat":-34.61315,"lon":-58.37723}},{"city":"Buenos Aires","state":"Ciudad Auton. De Buenos Aires","zip":"C1440AAD","country":"Argentina","geoPoint":{"lat":-34.61315,"lon":-58.37723}},{"city":"Ciudad Autón. de Buenos Aires","state":"Ciudad Auton. De Buenos Aires","zip":"C1425AGC","country":"Argentina","geoPoint":{"lat":-34.61315,"lon":-58.37723}},{"city":"Villa Allende","state":"Córdoba","country":"Argentina","geoPoint":{"lat":-31.29458,"lon":-64.29538}},{"city":"Villa María","state":"Córdoba","zip":"X5900JKA","country":"Argentina","geoPoint":{"lat":-32.40751,"lon":-63.24016}},{"city":"Santa Rosa","state":"La Pampa","zip":"6300","country":"Argentina","geoPoint":{"lat":-36.61667,"lon":-64.28333}},{"city":"Rafaela","state":"Santa Fe","zip":"S2300MMA","country":"Argentina","geoPoint":{"lat":-31.25033,"lon":-61.4867}},{"city":"Rosario","state":"Santa Fe","zip":"2000","country":"Argentina","geoPoint":{"lat":-32.94682,"lon":-60.63932}},{"city":"Rosario","state":"Santa Fe","zip":"S2005PAF","country":"Argentina","geoPoint":{"lat":-32.94682,"lon":-60.63932}},{"city":"Rosario","state":"Santa Fe","country":"Argentina","geoPoint":{"lat":-32.94682,"lon":-60.63932}},{"city":"Venado Tuerto","state":"Santa Fe","zip":"S2600KUE","country":"Argentina","geoPoint":{"lat":-33.74556,"lon":-61.96885}},{"city":"San Miguel de Tucumán","state":"Tucuman","zip":"4000","country":"Argentina","geoPoint":{"lat":-26.82414,"lon":-65.2226}},{"city":"San Miguel de Tucumán","state":"Tucuman","zip":"T4000IFL","country":"Argentina","geoPoint":{"lat":-26.82414,"lon":-65.2226}},{"city":"Ciudad Auton. de Buenos Aires","zip":"C1023AAB","country":"Argentina","geoPoint":{"lat":-34.61315,"lon":-58.37723}},{"city":"Ciudad Auton. de Buenos Aires","zip":"C1181ACL","country":"Argentina","geoPoint":{"lat":-34.61315,"lon":-58.37723}},{"city":"Ciudad Auton. de Buenos Aires","zip":"C1405BUB","country":"Argentina","geoPoint":{"lat":-34.61315,"lon":-58.37723}},{"city":"Corrientes","zip":"3400","country":"Argentina","geoPoint":{"lat":-27.4806,"lon":-58.8341}},{"city":"Córdoba","zip":"X5000AAW Córdoba","country":"Argentina","geoPoint":{"lat":-31.4135,"lon":-64.18105}},{"city":"Córdoba","zip":"X5000AAX","country":"Argentina","geoPoint":{"lat":-31.4135,"lon":-64.18105}},{"city":"Córdoba","zip":"X5003DCE","country":"Argentina","geoPoint":{"lat":-31.4135,"lon":-64.18105}},{"city":"Córdoba","zip":"X5003DCP","country":"Argentina","geoPoint":{"lat":-31.4135,"lon":-64.18105}},{"city":"Córdoba","zip":"X5004CDT","country":"Argentina","geoPoint":{"lat":-31.4135,"lon":-64.18105}},{"city":"Córdoba","zip":"X5006IKK","country":"Argentina","geoPoint":{"lat":-31.4135,"lon":-64.18105}},{"city":"Salta","zip":"A4406CLA","country":"Argentina","geoPoint":{"lat":-24.7859,"lon":-65.41166}},{"city":"San Juan","zip":"5400","country":"Argentina","geoPoint":{"lat":-31.5375,"lon":-68.53639}},{"city":"San luis","zip":"5700","country":"Argentina","geoPoint":{"lat":-33.29501,"lon":-66.33563}},{"city":"Santa Fe","zip":"S3000FWO","country":"Argentina","geoPoint":{"lat":-31.63333,"lon":-60.7}},{"city":"Bruce","state":"Australian Capital Territory","zip":"2617","country":"Australia","geoPoint":{"lat":-32.46667,"lon":138.2}},{"city":"Gosford","state":"New South Wales","zip":"2250","country":"Australia","geoPoint":{"lat":-33.4244,"lon":151.34399}},{"city":"New Lambton Heights","state":"New South Wales","zip":"2305","country":"Australia","geoPoint":{"lat":-32.92466,"lon":151.69364}},{"city":"Taree","state":"New South Wales","zip":"2430","country":"Australia","geoPoint":{"lat":-31.91099,"lon":152.45387}},{"city":"Birtinya","state":"Queensland","zip":"4575","country":"Australia","geoPoint":{"lat":-26.74322,"lon":153.11913}},{"city":"Brisbane","state":"Queensland","zip":"4029","country":"Australia","geoPoint":{"lat":-27.46794,"lon":153.02809}},{"city":"Brisbane","state":"Queensland","zip":"4064","country":"Australia","geoPoint":{"lat":-27.46794,"lon":153.02809}},{"city":"Redcliffe","state":"Queensland","zip":"4020","country":"Australia","geoPoint":{"lat":-31.93845,"lon":115.94645}},{"city":"Woolloongabba","state":"Queensland","zip":"4102","country":"Australia","geoPoint":{"lat":-27.48855,"lon":153.03655}},{"city":"Adelaide","state":"South Australia","zip":"5042","country":"Australia","geoPoint":{"lat":-34.92866,"lon":138.59863}},{"city":"Hobart","state":"Tasmania","zip":"7000","country":"Australia","geoPoint":{"lat":-42.87936,"lon":147.32941}},{"city":"Launceston","state":"Tasmania","zip":"7250","country":"Australia","geoPoint":{"lat":-41.43876,"lon":147.13467}},{"city":"Geelong","state":"Victoria","zip":"3220","country":"Australia","geoPoint":{"lat":-38.14711,"lon":144.36069}},{"city":"Melbourne","state":"Victoria","zip":"3052","country":"Australia","geoPoint":{"lat":-37.814,"lon":144.96332}},{"city":"Melbourne","state":"Victoria","zip":"3181","country":"Australia","geoPoint":{"lat":-37.814,"lon":144.96332}},{"city":"Prahran","state":"Victoria","zip":"3181","country":"Australia","geoPoint":{"lat":-37.85114,"lon":144.99318}},{"city":"Murdoch","state":"Western Australia","zip":"6150","country":"Australia","geoPoint":{"lat":-32.06987,"lon":115.83757}},{"city":"Nedlands","state":"Western Australia","zip":"6009","country":"Australia","geoPoint":{"lat":-31.98184,"lon":115.8073}},{"city":"Antwerpen","zip":"2020","country":"Belgium","geoPoint":{"lat":51.21989,"lon":4.40346}},{"city":"Bonheiden","zip":"2820","country":"Belgium","geoPoint":{"lat":51.02261,"lon":4.54714}},{"city":"Brugge","zip":"8000","country":"Belgium","geoPoint":{"lat":51.20892,"lon":3.22424}},{"city":"Bruxelles - Brussel","zip":"1070","country":"Belgium","geoPoint":{"lat":50.85045,"lon":4.34878}},{"city":"Charleroi","zip":"6000","country":"Belgium","geoPoint":{"lat":50.41136,"lon":4.44448}},{"city":"Genk","zip":"3600","country":"Belgium","geoPoint":{"lat":50.965,"lon":5.50082}},{"city":"Hasselt","zip":"3500","country":"Belgium","geoPoint":{"lat":50.93106,"lon":5.33781}},{"city":"Kortrijk","zip":"8500","country":"Belgium","geoPoint":{"lat":50.82803,"lon":3.26487}},{"city":"Leuven","zip":"3000","country":"Belgium","geoPoint":{"lat":50.87959,"lon":4.70093}},{"city":"Liege","zip":"4000","country":"Belgium","geoPoint":{"lat":50.63373,"lon":5.56749}},{"city":"Roeselare","zip":"8800","country":"Belgium","geoPoint":{"lat":50.94653,"lon":3.12269}},{"city":"Goiania","state":"Goiás","zip":"74223 130","country":"Brazil","geoPoint":{"lat":-16.67861,"lon":-49.25389}},{"city":"Belo Horizonte","state":"Minas Gerais","zip":"30150-240","country":"Brazil","geoPoint":{"lat":-19.92083,"lon":-43.93778}},{"city":"Uberaba","state":"Minas Gerais","zip":"38025-260","country":"Brazil","geoPoint":{"lat":-19.74833,"lon":-47.93194}},{"city":"Uberlândia","state":"Minas Gerais","zip":"38400-368","country":"Brazil","geoPoint":{"lat":-18.91861,"lon":-48.27722}},{"city":"Campina Grande do Sul","state":"Parana","zip":"83430 000","country":"Brazil","geoPoint":{"lat":-25.30556,"lon":-49.05528}},{"city":"Curitiba","state":"Parana","zip":"80730-150","country":"Brazil","geoPoint":{"lat":-25.42778,"lon":-49.27306}},{"city":"Canoas","state":"Rio Grande Do Sul","zip":"92425-900","country":"Brazil","geoPoint":{"lat":-29.91778,"lon":-51.18361}},{"city":"Pelotas","state":"Rio Grande Do Sul","zip":"96015-290","country":"Brazil","geoPoint":{"lat":-31.77194,"lon":-52.3425}},{"city":"Porto Alegre","state":"Rio Grande Do Sul","zip":"90.620-001","country":"Brazil","geoPoint":{"lat":-30.03306,"lon":-51.23}},{"city":"Porto Alegre","state":"Rio Grande Do Sul","zip":"90020-090","country":"Brazil","geoPoint":{"lat":-30.03306,"lon":-51.23}},{"city":"Porto Alegre","state":"Rio Grande Do Sul","zip":"90840-440","country":"Brazil","geoPoint":{"lat":-30.03306,"lon":-51.23}},{"city":"Porto Alegre","state":"Rio Grande Do Sul","country":"Brazil","geoPoint":{"lat":-30.03306,"lon":-51.23}},{"city":"Blumenau","state":"Santa Catarina","zip":"89010 500","country":"Brazil","geoPoint":{"lat":-26.91944,"lon":-49.06611}},{"city":"Campinas","state":"Sao Paulo","zip":"13010-001","country":"Brazil","geoPoint":{"lat":-22.90556,"lon":-47.06083}},{"city":"Campinas","state":"Sao Paulo","zip":"13020-421","country":"Brazil","geoPoint":{"lat":-22.90556,"lon":-47.06083}},{"city":"Campinas","state":"Sao Paulo","zip":"13060904","country":"Brazil","geoPoint":{"lat":-22.90556,"lon":-47.06083}},{"city":"Matão","state":"Sao Paulo","zip":"15990-060","country":"Brazil","geoPoint":{"lat":-21.60333,"lon":-48.36583}},{"city":"São José do Rio Preto","state":"Sao Paulo","zip":"15015-750","country":"Brazil","geoPoint":{"lat":-20.81972,"lon":-49.37944}},{"city":"São José do Rio Preto","state":"Sao Paulo","zip":"15090","country":"Brazil","geoPoint":{"lat":-20.81972,"lon":-49.37944}},{"city":"São Paulo","state":"Sao Paulo","zip":"01506-001","country":"Brazil","geoPoint":{"lat":-23.5475,"lon":-46.63611}},{"city":"São Paulo","state":"Sao Paulo","zip":"04012-909","country":"Brazil","geoPoint":{"lat":-23.5475,"lon":-46.63611}},{"city":"Votuporanga","state":"Sao Paulo","country":"Brazil","geoPoint":{"lat":-20.42278,"lon":-49.97278}},{"city":"Sao Paulo","zip":"05403-000","country":"Brazil","geoPoint":{"lat":-23.5475,"lon":-46.63611}},{"city":"Calgary","state":"Alberta","zip":"T2N 4Z6","country":"Canada","geoPoint":{"lat":51.05011,"lon":-114.08529}},{"city":"Edmonton","state":"Alberta","zip":"T6G 2B7","country":"Canada","geoPoint":{"lat":53.55014,"lon":-113.46871}},{"city":"New Westminster","state":"British Columbia","zip":"V3L 3W4","country":"Canada","geoPoint":{"lat":49.20678,"lon":-122.91092}},{"city":"Victoria","state":"British Columbia","zip":"V8R 4R2","country":"Canada","geoPoint":{"lat":48.43294,"lon":-123.3693}},{"city":"Winnipeg","state":"Manitoba","zip":"R2H 0R8","country":"Canada","geoPoint":{"lat":49.8844,"lon":-97.14704}},{"city":"Winnipeg","state":"Manitoba","zip":"R2H 2A6","country":"Canada","geoPoint":{"lat":49.8844,"lon":-97.14704}},{"city":"Winnipeg","state":"Manitoba","zip":"R2V 4W3","country":"Canada","geoPoint":{"lat":49.8844,"lon":-97.14704}},{"city":"Winnipeg","state":"Manitoba","zip":"R3T 2E8","country":"Canada","geoPoint":{"lat":49.8844,"lon":-97.14704}},{"city":"Moncton","state":"New Brunswick","zip":"E1G 1A7","country":"Canada","geoPoint":{"lat":46.09454,"lon":-64.7965}},{"city":"Saint John","state":"New Brunswick","zip":"E2L 4L2","country":"Canada","geoPoint":{"lat":45.2727,"lon":-66.06769}},{"city":"Halifax","state":"Nova Scotia","zip":"B3H 3A7","country":"Canada","geoPoint":{"lat":44.64533,"lon":-63.57239}},{"city":"Brampton","state":"Ontario","zip":"L6W 2X7","country":"Canada","geoPoint":{"lat":43.68341,"lon":-79.76633}},{"city":"Burlington","state":"Ontario","zip":"L7M 4Y1","country":"Canada","geoPoint":{"lat":43.38621,"lon":-79.83713}},{"city":"Burlington","state":"Ontario","zip":"L7R 1E2","country":"Canada","geoPoint":{"lat":43.38621,"lon":-79.83713}},{"city":"Cambridge","state":"Ontario","zip":"N1R 6V6","country":"Canada","geoPoint":{"lat":43.3601,"lon":-80.31269}},{"city":"Cambridge","state":"Ontario","zip":"N1R 7R1","country":"Canada","geoPoint":{"lat":43.3601,"lon":-80.31269}},{"city":"Grimsby","state":"Ontario","zip":"L3M 1P3","country":"Canada","geoPoint":{"lat":43.20011,"lon":-79.56631}},{"city":"Hamilton","state":"Ontario","zip":"L8L 2X2","country":"Canada","geoPoint":{"lat":43.25011,"lon":-79.84963}},{"city":"Hamilton","state":"Ontario","zip":"L8M 1K7","country":"Canada","geoPoint":{"lat":43.25011,"lon":-79.84963}},{"city":"London","state":"Ontario","zip":"N6A 5A5","country":"Canada","geoPoint":{"lat":42.98339,"lon":-81.23304}},{"city":"London","state":"Ontario","zip":"N6G 2M1","country":"Canada","geoPoint":{"lat":42.98339,"lon":-81.23304}},{"city":"Mississauga","state":"Ontario","zip":"L5K 2L3","country":"Canada","geoPoint":{"lat":43.5789,"lon":-79.6583}},{"city":"Newmarket","state":"Ontario","zip":"L3Y 2P6","country":"Canada","geoPoint":{"lat":44.05011,"lon":-79.46631}},{"city":"Newmarket","state":"Ontario","zip":"L3Y 8C3","country":"Canada","geoPoint":{"lat":44.05011,"lon":-79.46631}},{"city":"Oakville","state":"Ontario","zip":"L6K 3W7","country":"Canada","geoPoint":{"lat":43.45011,"lon":-79.68292}},{"city":"Oshawa","state":"Ontario","zip":"L1J 2J9","country":"Canada","geoPoint":{"lat":43.90012,"lon":-78.84957}},{"city":"Oshawa","state":"Ontario","zip":"L1J 2K1","country":"Canada","geoPoint":{"lat":43.90012,"lon":-78.84957}},{"city":"Ottawa","state":"Ontario","zip":"K2H 8T5","country":"Canada","geoPoint":{"lat":45.41117,"lon":-75.69812}},{"city":"Peterborough","state":"Ontario","zip":"K9J 0B2","country":"Canada","geoPoint":{"lat":44.30012,"lon":-78.31623}},{"city":"Scarborough","state":"Ontario","zip":"M1E 5E9","country":"Canada","geoPoint":{"lat":43.77223,"lon":-79.25666}},{"city":"Sudbury","state":"Ontario","zip":"P3E 1H5","country":"Canada","geoPoint":{"lat":46.49,"lon":-80.99001}},{"city":"Sudbury","state":"Ontario","zip":"P3E 6C3","country":"Canada","geoPoint":{"lat":46.49,"lon":-80.99001}},{"city":"Toronto","state":"Ontario","zip":"M4N 3M5","country":"Canada","geoPoint":{"lat":43.70011,"lon":-79.4163}},{"city":"Waterloo","state":"Ontario","zip":"ON N2T 0C1","country":"Canada","geoPoint":{"lat":43.4668,"lon":-80.51639}},{"city":"Windsor","state":"Ontario","zip":"N8X 5A6","country":"Canada","geoPoint":{"lat":42.30008,"lon":-83.01654}},{"city":"Chicoutimi","state":"Quebec","zip":"G7H 5H6","country":"Canada","geoPoint":{"lat":48.41963,"lon":-71.06369}},{"city":"Laval","state":"Quebec","zip":"H7M 3L9","country":"Canada","geoPoint":{"lat":45.56995,"lon":-73.692}},{"city":"Levis","state":"Quebec","zip":"G6V 4Z5","country":"Canada","geoPoint":{"lat":46.80326,"lon":-71.17793}},{"city":"Montreal","state":"Quebec","zip":"H2W 1T8","country":"Canada","geoPoint":{"lat":45.50884,"lon":-73.58781}},{"city":"Montreal","state":"Quebec","zip":"H3G 1A4","country":"Canada","geoPoint":{"lat":45.50884,"lon":-73.58781}},{"city":"Sherbrooke","state":"Quebec","zip":"J1H 5N4","country":"Canada","geoPoint":{"lat":45.40008,"lon":-71.89908}},{"city":"Terrebonne","state":"Quebec","zip":"J6V 2H2","country":"Canada","geoPoint":{"lat":45.70004,"lon":-73.64732}},{"city":"Thetford Mines","state":"Quebec","zip":"G6G 2V4","country":"Canada","geoPoint":{"lat":46.09371,"lon":-71.30539}},{"city":"Trois-Rivieres","state":"Quebec","zip":"G8Z 4K4","country":"Canada","geoPoint":{"lat":46.34515,"lon":-72.5477}},{"city":"Ontario","zip":"P3E 5M4","country":"Canada"},{"city":"Quebec","zip":"G1V 4G5","country":"Canada","geoPoint":{"lat":46.81228,"lon":-71.21454}},{"city":"Temuco","state":"Araucanía","zip":"2170000","country":"Chile","geoPoint":{"lat":-38.73965,"lon":-72.59842}},{"city":"Temuco","state":"Araucanía","zip":"4781156","country":"Chile","geoPoint":{"lat":-38.73965,"lon":-72.59842}},{"city":"Temuco","state":"Araucanía","zip":"4791348","country":"Chile","geoPoint":{"lat":-38.73965,"lon":-72.59842}},{"city":"Concepción","state":"Bío-Bío","zip":"4070038","country":"Chile","geoPoint":{"lat":-36.82699,"lon":-73.04977}},{"city":"Osorno","state":"Los Lagos","zip":"5311092","country":"Chile","geoPoint":{"lat":-40.57395,"lon":-73.13348}},{"city":"Valdivia","state":"Los Lagos","country":"Chile","geoPoint":{"lat":-39.81422,"lon":-73.24589}},{"city":"Providencia","state":"Santiago","zip":"7500520","country":"Chile","geoPoint":{"lat":-33.43107,"lon":-70.60454}},{"city":"San Miguel","state":"Santiago","zip":"8910108","country":"Chile"},{"city":"Viña del Mar","state":"Valparaíso","zip":"2570017","country":"Chile","geoPoint":{"lat":-33.02457,"lon":-71.55183}},{"city":"Santiago","zip":"7500739","country":"Chile","geoPoint":{"lat":-33.45694,"lon":-70.64827}},{"city":"Santiago","country":"Chile","geoPoint":{"lat":-33.45694,"lon":-70.64827}},{"city":"Guangzhou","state":"Guangdong","zip":"510080","country":"China","geoPoint":{"lat":23.11667,"lon":113.25}},{"city":"Guangzhou","state":"Guangdong","zip":"510100","country":"China","geoPoint":{"lat":23.11667,"lon":113.25}},{"city":"Wudan","state":"Hubei","zip":"430022","country":"China"},{"city":"Wuhan","state":"Hubei","country":"China","geoPoint":{"lat":30.58333,"lon":114.26667}},{"city":"Changsha","state":"Hunan","zip":"410011","country":"China","geoPoint":{"lat":28.19874,"lon":112.97087}},{"city":"Nanjing","state":"Jiangsu","zip":"210006","country":"China","geoPoint":{"lat":32.06167,"lon":118.77778}},{"city":"Nanjing","state":"Jiangsu","zip":"210029","country":"China","geoPoint":{"lat":32.06167,"lon":118.77778}},{"city":"Changchun","state":"Jilin","zip":"130000","country":"China","geoPoint":{"lat":43.88,"lon":125.32278}},{"city":"Changchun","state":"Jilin","zip":"130033","country":"China","geoPoint":{"lat":43.88,"lon":125.32278}},{"city":"Shenyang","state":"Liaoning","zip":"110004","country":"China","geoPoint":{"lat":41.79222,"lon":123.43278}},{"city":"Xi'an","state":"Shanxi","zip":"710061","country":"China","geoPoint":{"lat":34.25833,"lon":108.92861}},{"city":"Chengdu","state":"Sichuan","zip":"610041","country":"China","geoPoint":{"lat":30.66667,"lon":104.06667}},{"city":"Hangzhou","state":"Zhejiang","zip":"310003","country":"China","geoPoint":{"lat":30.29365,"lon":120.16142}},{"city":"Hangzhou","state":"Zhejiang","zip":"310016","country":"China","geoPoint":{"lat":30.29365,"lon":120.16142}},{"city":"Wenzhou","state":"Zhejiang","zip":"325000","country":"China","geoPoint":{"lat":27.99942,"lon":120.66682}},{"city":"Beijing","zip":"100029","country":"China","geoPoint":{"lat":39.9075,"lon":116.39723}},{"city":"Beijing","zip":"100034","country":"China","geoPoint":{"lat":39.9075,"lon":116.39723}},{"city":"Beijing","zip":"100038","country":"China","geoPoint":{"lat":39.9075,"lon":116.39723}},{"city":"Beijing","zip":"100088","country":"China","geoPoint":{"lat":39.9075,"lon":116.39723}},{"city":"Beijing","zip":"100730","country":"China","geoPoint":{"lat":39.9075,"lon":116.39723}},{"city":"Beijing","country":"China","geoPoint":{"lat":39.9075,"lon":116.39723}},{"city":"Shanghai","zip":"200001","country":"China","geoPoint":{"lat":31.22222,"lon":121.45806}},{"city":"Shanghai","zip":"200003","country":"China","geoPoint":{"lat":31.22222,"lon":121.45806}},{"city":"Shanghai","zip":"200025","country":"China","geoPoint":{"lat":31.22222,"lon":121.45806}},{"city":"Shanghai","zip":"200030","country":"China","geoPoint":{"lat":31.22222,"lon":121.45806}},{"city":"Shanghai","zip":"200032","country":"China","geoPoint":{"lat":31.22222,"lon":121.45806}},{"city":"Shanghai","zip":"200080","country":"China","geoPoint":{"lat":31.22222,"lon":121.45806}},{"city":"Barranquilla","state":"Atlántico","country":"Colombia","geoPoint":{"lat":10.96854,"lon":-74.78132}},{"city":"Cartagena","state":"Bolívar","country":"Colombia","geoPoint":{"lat":10.39972,"lon":-75.51444}},{"city":"Manizales","state":"Caldas","country":"Colombia","geoPoint":{"lat":5.06889,"lon":-75.51738}},{"city":"Montería","state":"Córdoba","zip":"230002","country":"Colombia","geoPoint":{"lat":8.74798,"lon":-75.88143}},{"city":"Pasto","state":"Nariño","country":"Colombia","geoPoint":{"lat":1.21361,"lon":-77.28111}},{"city":"Armenia","state":"Quindío","country":"Colombia","geoPoint":{"lat":4.53389,"lon":-75.68111}},{"city":"Pereira","state":"Risaralda","country":"Colombia","geoPoint":{"lat":4.81333,"lon":-75.69611}},{"city":"Bucaramanga","state":"Santander","country":"Colombia","geoPoint":{"lat":7.12539,"lon":-73.1198}},{"city":"Floridablanca","state":"Santander","zip":"681004","country":"Colombia","geoPoint":{"lat":7.06222,"lon":-73.08644}},{"city":"Espinal","state":"Tolima","country":"Colombia","geoPoint":{"lat":4.14924,"lon":-74.88429}},{"city":"Cali","state":"Valle Del Cauca","zip":"760032","country":"Colombia","geoPoint":{"lat":3.43722,"lon":-76.5225}},{"city":"Barranquilla","country":"Colombia","geoPoint":{"lat":10.96854,"lon":-74.78132}},{"city":"Santafe de Bogotá","country":"Colombia","geoPoint":{"lat":4.60971,"lon":-74.08175}},{"city":"Brno","zip":"625 00","country":"Czechia","geoPoint":{"lat":49.19522,"lon":16.60796}},{"city":"Brno","zip":"656 91","country":"Czechia","geoPoint":{"lat":49.19522,"lon":16.60796}},{"city":"Ceske Budejovice","zip":"370 01","country":"Czechia","geoPoint":{"lat":48.97447,"lon":14.47434}},{"city":"Cesky Krumlov","zip":"381 27","country":"Czechia","geoPoint":{"lat":48.81091,"lon":14.31521}},{"city":"Hodonin","zip":"695 01","country":"Czechia","geoPoint":{"lat":48.84893,"lon":17.13244}},{"city":"Hradec Kralove","zip":"500 05","country":"Czechia","geoPoint":{"lat":50.20923,"lon":15.83277}},{"city":"Jablonec nad Nisou","zip":"466 60","country":"Czechia","geoPoint":{"lat":50.72431,"lon":15.17108}},{"city":"Kolin","zip":"280 02","country":"Czechia","geoPoint":{"lat":50.02806,"lon":15.1998}},{"city":"Liberec","zip":"460 63","country":"Czechia","geoPoint":{"lat":50.76711,"lon":15.05619}},{"city":"Olomouc","zip":"779 00","country":"Czechia","geoPoint":{"lat":49.59552,"lon":17.25175}},{"city":"Ostrava","zip":"708 52","country":"Czechia","geoPoint":{"lat":49.83465,"lon":18.28204}},{"city":"Ostrava","zip":"728 80","country":"Czechia","geoPoint":{"lat":49.83465,"lon":18.28204}},{"city":"Pardubice","zip":"530 03","country":"Czechia","geoPoint":{"lat":50.04075,"lon":15.77659}},{"city":"Praha 10","zip":"100 34","country":"Czechia","geoPoint":{"lat":50.08804,"lon":14.42076}},{"city":"Praha 13","zip":"158 00","country":"Czechia","geoPoint":{"lat":50.08804,"lon":14.42076}},{"city":"Praha 2","zip":"128 08","country":"Czechia","geoPoint":{"lat":50.08804,"lon":14.42076}},{"city":"Praha 4","zip":"140 21","country":"Czechia","geoPoint":{"lat":50.08804,"lon":14.42076}},{"city":"Praha 5","zip":"150 06","country":"Czechia","geoPoint":{"lat":50.08804,"lon":14.42076}},{"city":"Praha 5","zip":"150 30","country":"Czechia","geoPoint":{"lat":50.08804,"lon":14.42076}},{"city":"Praha 6","zip":"169 02","country":"Czechia","geoPoint":{"lat":50.08804,"lon":14.42076}},{"city":"Slany","zip":"274 01","country":"Czechia","geoPoint":{"lat":50.23046,"lon":14.08693}},{"city":"Susice","zip":"342 01","country":"Czechia","geoPoint":{"lat":49.23106,"lon":13.52018}},{"city":"Trebic","zip":"674 01","country":"Czechia","geoPoint":{"lat":49.21492,"lon":15.88166}},{"city":"Trinec","zip":"739 61","country":"Czechia","geoPoint":{"lat":49.67763,"lon":18.67078}},{"city":"Uherske Hradiste","zip":"686 68","country":"Czechia","geoPoint":{"lat":49.06975,"lon":17.45969}},{"city":"Zlin","zip":"762 75","country":"Czechia","geoPoint":{"lat":49.22645,"lon":17.67065}},{"city":"Aalborg","zip":"DK-9000","country":"Denmark","geoPoint":{"lat":57.048,"lon":9.9187}},{"city":"Aarhus N","zip":"8200","country":"Denmark","geoPoint":{"lat":56.15674,"lon":10.21076}},{"city":"Hellerup","zip":"2900","country":"Denmark","geoPoint":{"lat":55.73204,"lon":12.57093}},{"city":"Holbaek","zip":"4300","country":"Denmark","geoPoint":{"lat":55.71354,"lon":11.7169}},{"city":"Hvidovre","zip":"2650","country":"Denmark","geoPoint":{"lat":55.65719,"lon":12.47364}},{"city":"Kolding","zip":"6000","country":"Denmark","geoPoint":{"lat":55.4904,"lon":9.47216}},{"city":"København Ø","zip":"2100","country":"Denmark","geoPoint":{"lat":55.67594,"lon":12.56553}},{"city":"København","zip":"DK-2400","country":"Denmark","geoPoint":{"lat":55.67594,"lon":12.56553}},{"city":"Viborg","zip":"8800","country":"Denmark","geoPoint":{"lat":56.45319,"lon":9.40201}},{"city":"Guayaquil","state":"Guayas","country":"Ecuador","geoPoint":{"lat":-2.20584,"lon":-79.90795}},{"city":"Quito","state":"Pichincha","zip":"0","country":"Ecuador","geoPoint":{"lat":-0.22985,"lon":-78.52495}},{"city":"Quito","country":"Ecuador","geoPoint":{"lat":-0.22985,"lon":-78.52495}},{"city":"Kuopio","zip":"70100","country":"Finland","geoPoint":{"lat":62.89238,"lon":27.67703}},{"city":"Kuusankoski","zip":"45700","country":"Finland","geoPoint":{"lat":60.907,"lon":26.62437}},{"city":"Tampere","zip":"33200","country":"Finland","geoPoint":{"lat":61.49911,"lon":23.78712}},{"city":"Turku","zip":"FIN-20520","country":"Finland","geoPoint":{"lat":60.45148,"lon":22.26869}},{"city":"Vantaa","zip":"01600","country":"Finland","geoPoint":{"lat":60.29414,"lon":25.04099}},{"city":"Amiens cedex 1","zip":"80054","country":"France","geoPoint":{"lat":49.9,"lon":2.3}},{"city":"Clermont Ferrand","zip":"63000","country":"France","geoPoint":{"lat":45.77966,"lon":3.08628}},{"city":"Limoges Cedex","zip":"87042","country":"France","geoPoint":{"lat":45.83153,"lon":1.25781}},{"city":"Montpellier","zip":"34059","country":"France","geoPoint":{"lat":43.61092,"lon":3.87723}},{"city":"Nice","zip":"06280","country":"France","geoPoint":{"lat":43.70313,"lon":7.26608}},{"city":"NIMES cedex 9","zip":"30029","country":"France","geoPoint":{"lat":43.83333,"lon":4.35}},{"city":"Paris Cedex 15","zip":"75908","country":"France","geoPoint":{"lat":48.85341,"lon":2.3488}},{"city":"Paris","zip":"75012","country":"France","geoPoint":{"lat":48.85341,"lon":2.3488}},{"city":"Paris","zip":"75018","country":"France","geoPoint":{"lat":48.85341,"lon":2.3488}},{"city":"Saint-priest-en-jarez","zip":"42270","country":"France","geoPoint":{"lat":45.47501,"lon":4.37614}},{"city":"Nürnberg","state":"Bayern","zip":"90402","country":"Germany","geoPoint":{"lat":49.45421,"lon":11.07752}},{"city":"Würzburg","state":"Bayern","zip":"97078","country":"Germany","geoPoint":{"lat":49.79391,"lon":9.95121}},{"city":"Bad Homburg","state":"Hessen","zip":"61348","country":"Germany","geoPoint":{"lat":50.22683,"lon":8.61816}},{"city":"Frankfurt","state":"Hessen","zip":"60596","country":"Germany","geoPoint":{"lat":50.11552,"lon":8.68417}},{"city":"Kassel","state":"Hessen","zip":"34128","country":"Germany","geoPoint":{"lat":51.31667,"lon":9.5}},{"city":"Bielefeld","state":"Nordrhein-Westfalen","zip":"33604","country":"Germany","geoPoint":{"lat":52.03333,"lon":8.53333}},{"city":"Dortmund","state":"Nordrhein-Westfalen","zip":"44137","country":"Germany","geoPoint":{"lat":51.51494,"lon":7.466}},{"city":"Wuppertal","state":"Nordrhein-Westfalen","zip":"42117","country":"Germany","geoPoint":{"lat":51.27027,"lon":7.16755}},{"city":"Magdeburg","state":"Sachsen-Anhalt","zip":"39120","country":"Germany","geoPoint":{"lat":52.12773,"lon":11.62916}},{"city":"Dresden","state":"Sachsen","zip":"01067","country":"Germany","geoPoint":{"lat":51.05089,"lon":13.73832}},{"city":"Leipzig","state":"Sachsen","zip":"04289","country":"Germany","geoPoint":{"lat":51.33962,"lon":12.37129}},{"city":"Berlin","zip":"12351","country":"Germany","geoPoint":{"lat":52.52437,"lon":13.41053}},{"city":"Berlin","zip":"12559","country":"Germany","geoPoint":{"lat":52.52437,"lon":13.41053}},{"city":"Berlin","zip":"13353","country":"Germany","geoPoint":{"lat":52.52437,"lon":13.41053}},{"city":"Bottrop","zip":"46242","country":"Germany","geoPoint":{"lat":51.52392,"lon":6.9285}},{"city":"Frankfurt","zip":"65929","country":"Germany","geoPoint":{"lat":50.11552,"lon":8.68417}},{"city":"Hamburg","zip":"20099","country":"Germany","geoPoint":{"lat":53.57532,"lon":10.01534}},{"city":"Warendorf","zip":"48231","country":"Germany","geoPoint":{"lat":51.95109,"lon":7.98756}},{"city":"Balatonfured","zip":"8230","country":"Hungary","geoPoint":{"lat":46.96188,"lon":17.87187}},{"city":"Budapest","zip":"1085","country":"Hungary","geoPoint":{"lat":47.49801,"lon":19.03991}},{"city":"Budapest","zip":"1115","country":"Hungary","geoPoint":{"lat":47.49801,"lon":19.03991}},{"city":"Budapest","zip":"H-1096","country":"Hungary","geoPoint":{"lat":47.49801,"lon":19.03991}},{"city":"Budapest","zip":"H-1125","country":"Hungary","geoPoint":{"lat":47.49801,"lon":19.03991}},{"city":"Debrecen","zip":"4032","country":"Hungary","geoPoint":{"lat":47.53333,"lon":21.63333}},{"city":"Mosonmagyarovar","zip":"9200","country":"Hungary","geoPoint":{"lat":47.86789,"lon":17.26994}},{"city":"Pecs","zip":"7624","country":"Hungary","geoPoint":{"lat":46.08333,"lon":18.23333}},{"city":"Sopron","zip":"9400","country":"Hungary","geoPoint":{"lat":47.68501,"lon":16.59049}},{"city":"Szekesfehervar","zip":"8000","country":"Hungary","geoPoint":{"lat":47.18995,"lon":18.41034}},{"city":"Szekszard","zip":"7100","country":"Hungary","geoPoint":{"lat":46.35014,"lon":18.70905}},{"city":"Ballinasloe","state":"Co. Galway","country":"Ireland","geoPoint":{"lat":53.3275,"lon":-8.21944}},{"city":"Cork","country":"Ireland","geoPoint":{"lat":51.89797,"lon":-8.47061}},{"city":"Dublin","zip":"9","country":"Ireland","geoPoint":{"lat":53.33306,"lon":-6.24889}},{"city":"Dublin","zip":"D07 R2WY","country":"Ireland","geoPoint":{"lat":53.33306,"lon":-6.24889}},{"city":"Dublin","zip":"D08 NHY1","country":"Ireland","geoPoint":{"lat":53.33306,"lon":-6.24889}},{"city":"Galway","country":"Ireland","geoPoint":{"lat":53.27194,"lon":-9.04889}},{"city":"Afula","zip":"1834111","country":"Israel","geoPoint":{"lat":32.60907,"lon":35.2892}},{"city":"Ashkelon","zip":"7830604","country":"Israel","geoPoint":{"lat":31.66926,"lon":34.57149}},{"city":"Bnei Brak","country":"Israel","geoPoint":{"lat":32.08074,"lon":34.8338}},{"city":"Haifa","zip":"3109601","country":"Israel","geoPoint":{"lat":32.81841,"lon":34.9885}},{"city":"Haifa","zip":"3436212","country":"Israel","geoPoint":{"lat":32.81841,"lon":34.9885}},{"city":"Holon","zip":"5822012","country":"Israel","geoPoint":{"lat":32.01034,"lon":34.77918}},{"city":"Nahariya","zip":"2210001","country":"Israel","geoPoint":{"lat":33.00892,"lon":35.09814}},{"city":"Tel Aviv","zip":"64239","country":"Israel","geoPoint":{"lat":32.08088,"lon":34.78057}},{"city":"Tel Aviv","country":"Israel","geoPoint":{"lat":32.08088,"lon":34.78057}},{"city":"Zefat","zip":"1311001","country":"Israel","geoPoint":{"lat":32.96465,"lon":35.496}},{"city":"Caserta","state":"Campania","zip":"81027","country":"Italy","geoPoint":{"lat":41.07262,"lon":14.33231}},{"city":"Bologna","state":"Emilia-Romagna","zip":"40133","country":"Italy","geoPoint":{"lat":44.49381,"lon":11.33875}},{"city":"Forlì Cesena","state":"Emilia-Romagna","zip":"47100","country":"Italy"},{"city":"Ravenna","state":"Emilia-Romagna","zip":"48010","country":"Italy","geoPoint":{"lat":44.41344,"lon":12.20121}},{"city":"Trieste","state":"Friuli-Venezia Giulia","zip":"34149","country":"Italy","geoPoint":{"lat":45.64953,"lon":13.77679}},{"city":"Udine","state":"Friuli-Venezia Giulia","zip":"33038","country":"Italy","geoPoint":{"lat":46.0693,"lon":13.23715}},{"city":"Udine","state":"Friuli-Venezia Giulia","zip":"33057","country":"Italy","geoPoint":{"lat":46.0693,"lon":13.23715}},{"city":"Udine","state":"Friuli-Venezia Giulia","country":"Italy","geoPoint":{"lat":46.0693,"lon":13.23715}},{"city":"Brescia","state":"Lombardia","zip":"25123","country":"Italy","geoPoint":{"lat":45.53558,"lon":10.21472}},{"city":"Cremona","state":"Lombardia","zip":"26100","country":"Italy","geoPoint":{"lat":45.13325,"lon":10.02129}},{"city":"Pavia","state":"Lombardia","zip":"27100","country":"Italy","geoPoint":{"lat":45.19205,"lon":9.15917}},{"city":"Ancona","state":"Marche","zip":"60126","country":"Italy","geoPoint":{"lat":43.5942,"lon":13.50337}},{"city":"Isernia","state":"Molise","zip":"86170","country":"Italy","geoPoint":{"lat":41.59603,"lon":14.23399}},{"city":"Foggia","state":"Puglia","zip":"71100","country":"Italy","geoPoint":{"lat":41.45845,"lon":15.55188}},{"city":"Lecce","state":"Puglia","zip":"73042","country":"Italy","geoPoint":{"lat":40.35481,"lon":18.17244}},{"city":"Catania","state":"Sicilia","zip":"95126","country":"Italy","geoPoint":{"lat":37.49223,"lon":15.07041}},{"city":"Palermo","state":"Sicilia","zip":"90146","country":"Italy","geoPoint":{"lat":38.13205,"lon":13.33561}},{"city":"Arezzo","state":"Toscana","zip":"52044","country":"Italy","geoPoint":{"lat":43.46276,"lon":11.88068}},{"city":"Firenze","state":"Toscana","zip":"50053","country":"Italy","geoPoint":{"lat":43.77925,"lon":11.24626}},{"city":"Perugia","state":"Umbria","zip":"06024","country":"Italy","geoPoint":{"lat":43.1122,"lon":12.38878}},{"city":"Terni","state":"Umbria","zip":"05100","country":"Italy","geoPoint":{"lat":42.56335,"lon":12.64329}},{"city":"Nagoya","state":"Aichi","zip":"453-8511","country":"Japan","geoPoint":{"lat":35.18147,"lon":136.90641}},{"city":"Toyoake","state":"Aichi","zip":"470-1192","country":"Japan","geoPoint":{"lat":35.038,"lon":136.99931}},{"city":"Kisarazu","state":"Chiba","zip":"292-8535","country":"Japan","geoPoint":{"lat":35.38329,"lon":139.93254}},{"city":"Matsudo","state":"Chiba","zip":"270-2251","country":"Japan","geoPoint":{"lat":35.77995,"lon":139.90144}},{"city":"Imabari","state":"Ehime","zip":"794-0006","country":"Japan","geoPoint":{"lat":34.05455,"lon":133.01316}},{"city":"Matsuyama","state":"Ehime","zip":"790-0062","country":"Japan","geoPoint":{"lat":33.83916,"lon":132.76574}},{"city":"Kasuga","state":"Fukuoka","zip":"816-0864","country":"Japan"},{"city":"Kitakyushu","state":"Fukuoka","zip":"802-8555","country":"Japan","geoPoint":{"lat":33.85181,"lon":130.85034}},{"city":"Miyako-gun","state":"Fukuoka","zip":"800-0344","country":"Japan","geoPoint":{"lat":39.64691,"lon":141.94057}},{"city":"Onga-gun","state":"Fukuoka","zip":"811-4342","country":"Japan"},{"city":"Maebashi","state":"Gunma","zip":"371-0821","country":"Japan","geoPoint":{"lat":36.4,"lon":139.08333}},{"city":"Onomichi","state":"Hiroshima","zip":"722-8503","country":"Japan","geoPoint":{"lat":34.41667,"lon":133.2}},{"city":"Asahikawa","state":"Hokkaido","zip":"070-0038","country":"Japan","geoPoint":{"lat":43.77063,"lon":142.36489}},{"city":"Asahikawa","state":"Hokkaido","zip":"070-8610","country":"Japan","geoPoint":{"lat":43.77063,"lon":142.36489}},{"city":"Sapporo","state":"Hokkaido","zip":"006-0852","country":"Japan","geoPoint":{"lat":43.06667,"lon":141.35}},{"city":"Sapporo","state":"Hokkaido","zip":"006-8555","country":"Japan","geoPoint":{"lat":43.06667,"lon":141.35}},{"city":"Sapporo","state":"Hokkaido","zip":"060-0004","country":"Japan","geoPoint":{"lat":43.06667,"lon":141.35}},{"city":"Tomakomai","state":"Hokkaido","zip":"053-8567","country":"Japan","geoPoint":{"lat":42.63694,"lon":141.60333}},{"city":"Kobe","state":"Hyogo","zip":"654-0026","country":"Japan","geoPoint":{"lat":34.6913,"lon":135.183}},{"city":"Takarazuka","state":"Hyogo","zip":"665-0873","country":"Japan","geoPoint":{"lat":34.79936,"lon":135.35697}},{"city":"Kaga","state":"Ishikawa","zip":"922-8522","country":"Japan"},{"city":"Miura-gun","state":"Kanagawa","zip":"240-0116","country":"Japan","geoPoint":{"lat":35.14,"lon":139.61917}},{"city":"Sagamihara","state":"Kanagawa","zip":"252-0375","country":"Japan","geoPoint":{"lat":35.54899,"lon":139.26064}},{"city":"Yokohama","state":"Kanagawa","zip":"232-0024","country":"Japan","geoPoint":{"lat":35.43333,"lon":139.65}},{"city":"Naha","state":"Okinawa","zip":"902-8511","country":"Japan","geoPoint":{"lat":26.21667,"lon":127.68333}},{"city":"Kishiwada","state":"Osaka","zip":"596-0042","country":"Japan","geoPoint":{"lat":34.46667,"lon":135.36667}},{"city":"Takatsuki","state":"Osaka","zip":"569-1096","country":"Japan","geoPoint":{"lat":34.84833,"lon":135.61678}},{"city":"Tokorozawa","state":"Saitama","zip":"359-1141","country":"Japan","geoPoint":{"lat":35.79916,"lon":139.46903}},{"city":"Komatsushima","state":"Tokushima","zip":"773-8502","country":"Japan"},{"city":"Akishima","state":"Tokyo","zip":"196-0003","country":"Japan","geoPoint":{"lat":35.72085,"lon":139.37999}},{"city":"Bunkyo-ku","state":"Tokyo","zip":"113-8431","country":"Japan","geoPoint":{"lat":35.37517,"lon":139.92991}},{"city":"Itabashi-ku","state":"Tokyo","zip":"173-8610","country":"Japan","geoPoint":{"lat":35.74893,"lon":139.71497}},{"city":"Shimonoseki","state":"Yamaguchi","zip":"750-0061","country":"Japan","geoPoint":{"lat":33.95001,"lon":130.94999}},{"city":"Chiba","zip":"263-0043","country":"Japan","geoPoint":{"lat":35.6,"lon":140.11667}},{"city":"Fukuoka","zip":"812-0033","country":"Japan","geoPoint":{"lat":33.6,"lon":130.41667}},{"city":"Fukuoka","zip":"814-0180","country":"Japan","geoPoint":{"lat":33.6,"lon":130.41667}},{"city":"Gifu","zip":"500-8384","country":"Japan","geoPoint":{"lat":35.42291,"lon":136.76039}},{"city":"Gifu","zip":"500-8717","country":"Japan","geoPoint":{"lat":35.42291,"lon":136.76039}},{"city":"Kumamoto","zip":"861-4193","country":"Japan","geoPoint":{"lat":32.80589,"lon":130.69182}},{"city":"Kyoto","zip":"600-8558","country":"Japan","geoPoint":{"lat":35.02107,"lon":135.75385}},{"city":"Kyoto","zip":"601-1495","country":"Japan","geoPoint":{"lat":35.02107,"lon":135.75385}},{"city":"Kyoto","zip":"615-8256","country":"Japan","geoPoint":{"lat":35.02107,"lon":135.75385}},{"city":"Osaka","zip":"530-0001","country":"Japan","geoPoint":{"lat":34.69374,"lon":135.50218}},{"city":"Osaka","zip":"530-8480","country":"Japan","geoPoint":{"lat":34.69374,"lon":135.50218}},{"city":"Osaka","zip":"540-0006","country":"Japan","geoPoint":{"lat":34.69374,"lon":135.50218}},{"city":"Osaka","zip":"543-0035","country":"Japan","geoPoint":{"lat":34.69374,"lon":135.50218}},{"city":"Osaka","zip":"558-8558","country":"Japan","geoPoint":{"lat":34.69374,"lon":135.50218}},{"city":"Osaka","zip":"559-0012","country":"Japan","geoPoint":{"lat":34.69374,"lon":135.50218}},{"city":"Wonju","state":"Gang''weondo","zip":"26426","country":"Korea, Republic of","geoPoint":{"lat":37.35139,"lon":127.94528}},{"city":"Goyang-si","state":"Gyeonggido","zip":"10326","country":"Korea, Republic of","geoPoint":{"lat":37.65639,"lon":126.835}},{"city":"Seongnam-si","state":"Gyeonggido","zip":"463-707","country":"Korea, Republic of","geoPoint":{"lat":37.43861,"lon":127.13778}},{"city":"Jeju","state":"Jejudo","zip":"690767","country":"Korea, Republic of","geoPoint":{"lat":33.50972,"lon":126.52194}},{"city":"Seoul","state":"Seoul Teugbyeolsi","zip":"150-713","country":"Korea, Republic of","geoPoint":{"lat":37.566,"lon":126.9784}},{"city":"Busan","zip":"614-735","country":"Korea, Republic of","geoPoint":{"lat":35.10278,"lon":129.04028}},{"city":"Daejeon","zip":"302-718","country":"Korea, Republic of","geoPoint":{"lat":36.32139,"lon":127.41972}},{"city":"Seoul","zip":"03722","country":"Korea, Republic of","geoPoint":{"lat":37.566,"lon":126.9784}},{"city":"Seoul","zip":"110-744","country":"Korea, Republic of","geoPoint":{"lat":37.566,"lon":126.9784}},{"city":"Seoul","zip":"134-727","country":"Korea, Republic of","geoPoint":{"lat":37.566,"lon":126.9784}},{"city":"Batu Caves, Selangor","zip":"68100","country":"Malaysia"},{"city":"Kedah","zip":"05460","country":"Malaysia"},{"city":"Kuala Lumpur","zip":"50400","country":"Malaysia","geoPoint":{"lat":3.1412,"lon":101.68653}},{"city":"Kuala Lumpur","zip":"59100","country":"Malaysia","geoPoint":{"lat":3.1412,"lon":101.68653}},{"city":"Selangor","zip":"47000","country":"Malaysia"},{"city":"Sungai Buloh Selangor","zip":"47000","country":"Malaysia"},{"city":"Amsterdam","zip":"1091 AC","country":"Netherlands","geoPoint":{"lat":52.37403,"lon":4.88969}},{"city":"Apeldoorn","zip":"7334 DZ","country":"Netherlands","geoPoint":{"lat":52.21,"lon":5.96944}},{"city":"Arnhem","zip":"6815 AD","country":"Netherlands","geoPoint":{"lat":51.98,"lon":5.91111}},{"city":"Breda","zip":"4818 CK","country":"Netherlands","geoPoint":{"lat":51.58656,"lon":4.77596}},{"city":"Delft","zip":"2625 AD","country":"Netherlands","geoPoint":{"lat":52.00667,"lon":4.35556}},{"city":"Den Bosch","zip":"5223 GZ","country":"Netherlands","geoPoint":{"lat":51.27,"lon":5.59167}},{"city":"Deventer","zip":"7416 SE","country":"Netherlands","geoPoint":{"lat":52.255,"lon":6.16389}},{"city":"Doetinchem","zip":"7009 BL","country":"Netherlands","geoPoint":{"lat":51.965,"lon":6.28889}},{"city":"Drachten","zip":"9205 NN","country":"Netherlands","geoPoint":{"lat":53.11254,"lon":6.0989}},{"city":"EDE","zip":"6716 RP","country":"Netherlands","geoPoint":{"lat":52.03333,"lon":5.65833}},{"city":"Gorinchem","zip":"4204 AA","country":"Netherlands","geoPoint":{"lat":51.83652,"lon":4.97243}},{"city":"Gouda","zip":"2803 HH","country":"Netherlands","geoPoint":{"lat":52.01667,"lon":4.70833}},{"city":"Groningen","zip":"9721 SW","country":"Netherlands","geoPoint":{"lat":53.21917,"lon":6.56667}},{"city":"Heerlen","zip":"6401 CX","country":"Netherlands","geoPoint":{"lat":50.88365,"lon":5.98154}},{"city":"Helmond","zip":"5707 HA","country":"Netherlands","geoPoint":{"lat":51.48167,"lon":5.66111}},{"city":"Hoogeveen","zip":"7909 AA","country":"Netherlands","geoPoint":{"lat":52.7225,"lon":6.47639}},{"city":"Hoorn","zip":"1624 NP","country":"Netherlands","geoPoint":{"lat":52.6425,"lon":5.05978}},{"city":"Leeuwarden","zip":"8901 BR","country":"Netherlands","geoPoint":{"lat":53.20139,"lon":5.80859}},{"city":"Meppel","zip":"7943 KA","country":"Netherlands","geoPoint":{"lat":52.69583,"lon":6.19444}},{"city":"Nijmegen","zip":"6532 SZ","country":"Netherlands","geoPoint":{"lat":51.8425,"lon":5.85278}},{"city":"Roermond","zip":"6043 CV","country":"Netherlands","geoPoint":{"lat":51.19417,"lon":5.9875}},{"city":"Roosendaal","zip":"4708 AE","country":"Netherlands","geoPoint":{"lat":51.53083,"lon":4.46528}},{"city":"Rotterdam","zip":"3045 PM","country":"Netherlands","geoPoint":{"lat":51.9225,"lon":4.47917}},{"city":"Rotterdam","zip":"3083 AN","country":"Netherlands","geoPoint":{"lat":51.9225,"lon":4.47917}},{"city":"Sneek","zip":"8601 ZK","country":"Netherlands","geoPoint":{"lat":53.03297,"lon":5.6589}},{"city":"Tiel","zip":"4002 WP","country":"Netherlands","geoPoint":{"lat":51.88667,"lon":5.42917}},{"city":"Zwolle","zip":"8011 JW","country":"Netherlands","geoPoint":{"lat":52.5125,"lon":6.09444}},{"city":"Batangas","country":"Philippines","geoPoint":{"lat":13.7567,"lon":121.0584}},{"city":"Cebu City","zip":"6000","country":"Philippines","geoPoint":{"lat":10.31672,"lon":123.89071}},{"city":"Dagupan City","zip":"2400","country":"Philippines"},{"city":"Dasmarinas","zip":"4114","country":"Philippines","geoPoint":{"lat":14.32944,"lon":120.93667}},{"city":"Iloilo City","zip":"5000","country":"Philippines","geoPoint":{"lat":10.69694,"lon":122.56444}},{"city":"Laoag City","zip":"2900","country":"Philippines"},{"city":"Manila","zip":"1000","country":"Philippines","geoPoint":{"lat":14.6042,"lon":120.9822}},{"city":"Manila","country":"Philippines","geoPoint":{"lat":14.6042,"lon":120.9822}},{"city":"Metro Manila","zip":"1502","country":"Philippines"},{"city":"Muntinlupa City","zip":"1780","country":"Philippines"},{"city":"Palawan","zip":"5300","country":"Philippines"},{"city":"Pasig city","zip":"1605","country":"Philippines","geoPoint":{"lat":14.58691,"lon":121.0614}},{"city":"Quezon City","zip":"1102","country":"Philippines","geoPoint":{"lat":14.6488,"lon":121.0509}},{"city":"Quezon City","zip":"1109","country":"Philippines","geoPoint":{"lat":14.6488,"lon":121.0509}},{"city":"Quezon City","zip":"NCR 1100","country":"Philippines","geoPoint":{"lat":14.6488,"lon":121.0509}},{"city":"Tacloban City","zip":"6500","country":"Philippines","geoPoint":{"lat":11.24333,"lon":125.00472}},{"city":"Gdansk","zip":"80 -126","country":"Poland","geoPoint":{"lat":54.35205,"lon":18.64637}},{"city":"Kielce","zip":"25-315","country":"Poland","geoPoint":{"lat":50.87033,"lon":20.62752}},{"city":"Krakow","zip":"30-002","country":"Poland","geoPoint":{"lat":50.06143,"lon":19.93658}},{"city":"Krakow","zip":"31-271","country":"Poland","geoPoint":{"lat":50.06143,"lon":19.93658}},{"city":"Krakow","zip":"31-501","country":"Poland","geoPoint":{"lat":50.06143,"lon":19.93658}},{"city":"Krakow","zip":"31-534","country":"Poland","geoPoint":{"lat":50.06143,"lon":19.93658}},{"city":"Lodz","zip":"91-347","country":"Poland","geoPoint":{"lat":51.75,"lon":19.46667}},{"city":"Tarnow","zip":"33-100","country":"Poland","geoPoint":{"lat":50.01381,"lon":20.98698}},{"city":"Wroclaw","zip":"53-114","country":"Poland","geoPoint":{"lat":51.1,"lon":17.03333}},{"city":"Timisoara","state":"Timis","zip":"300254","country":"Romania","geoPoint":{"lat":45.75372,"lon":21.22571}},{"city":"Brasov","zip":"500326","country":"Romania","geoPoint":{"lat":45.64861,"lon":25.60613}},{"city":"Bucharest","zip":"011461","country":"Romania","geoPoint":{"lat":44.43225,"lon":26.10626}},{"city":"Bucharest","zip":"021659","country":"Romania","geoPoint":{"lat":44.43225,"lon":26.10626}},{"city":"Bucharest","zip":"022322","country":"Romania","geoPoint":{"lat":44.43225,"lon":26.10626}},{"city":"Bucharest","zip":"041915","country":"Romania","geoPoint":{"lat":44.43225,"lon":26.10626}},{"city":"Bucharest","zip":"042122","country":"Romania","geoPoint":{"lat":44.43225,"lon":26.10626}},{"city":"Bucharest","zip":"050098","country":"Romania","geoPoint":{"lat":44.43225,"lon":26.10626}},{"city":"Bucharest","zip":"061114","country":"Romania","geoPoint":{"lat":44.43225,"lon":26.10626}},{"city":"Bucuresti","zip":"50659","country":"Romania","geoPoint":{"lat":44.42802,"lon":26.09665}},{"city":"Cluj Napoca","zip":"400001","country":"Romania","geoPoint":{"lat":46.76667,"lon":23.6}},{"city":"Iasi","zip":"700503","country":"Romania","geoPoint":{"lat":47.16667,"lon":27.6}},{"city":"Iasi","zip":"700732","country":"Romania","geoPoint":{"lat":47.16667,"lon":27.6}},{"city":"Targu Mures","zip":"540124","country":"Romania","geoPoint":{"lat":46.54245,"lon":24.55747}},{"city":"Targu Mures","zip":"540136","country":"Romania","geoPoint":{"lat":46.54245,"lon":24.55747}},{"city":"Timisoara","zip":"300310","country":"Romania","geoPoint":{"lat":45.75372,"lon":21.22571}},{"city":"Barnaul","zip":"656038","country":"Russian Federation","geoPoint":{"lat":53.36056,"lon":83.76361}},{"city":"Kemerovo","zip":"650002","country":"Russian Federation","geoPoint":{"lat":55.33333,"lon":86.08333}},{"city":"Moscow","zip":"101990","country":"Russian Federation","geoPoint":{"lat":55.75222,"lon":37.61556}},{"city":"Moscow","zip":"107084","country":"Russian Federation","geoPoint":{"lat":55.75222,"lon":37.61556}},{"city":"Moscow","zip":"111539","country":"Russian Federation","geoPoint":{"lat":55.75222,"lon":37.61556}},{"city":"Moscow","zip":"117556","country":"Russian Federation","geoPoint":{"lat":55.75222,"lon":37.61556}},{"city":"Moscow","zip":"119435","country":"Russian Federation","geoPoint":{"lat":55.75222,"lon":37.61556}},{"city":"Moscow","zip":"121309","country":"Russian Federation","geoPoint":{"lat":55.75222,"lon":37.61556}},{"city":"Moscow","zip":"127206","country":"Russian Federation","geoPoint":{"lat":55.75222,"lon":37.61556}},{"city":"Novosibirsk","zip":"630089","country":"Russian Federation","geoPoint":{"lat":55.0415,"lon":82.9346}},{"city":"Tomsk","zip":"634012","country":"Russian Federation","geoPoint":{"lat":56.49771,"lon":84.97437}},{"city":"Zhukovskiy","zip":"140160","country":"Russian Federation","geoPoint":{"lat":55.59528,"lon":38.12028}},{"city":"Bratislava","zip":"811 04","country":"Slovakia","geoPoint":{"lat":48.14816,"lon":17.10674}},{"city":"Bratislava","zip":"813 69","country":"Slovakia","geoPoint":{"lat":48.14816,"lon":17.10674}},{"city":"Kosice","zip":"040 22","country":"Slovakia","geoPoint":{"lat":48.71395,"lon":21.25808}},{"city":"Nitra","zip":"94901","country":"Slovakia","geoPoint":{"lat":48.30763,"lon":18.08453}},{"city":"Presov","zip":"080 81","country":"Slovakia","geoPoint":{"lat":48.99839,"lon":21.23393}},{"city":"Vrable","zip":"952 01","country":"Slovakia","geoPoint":{"lat":48.24371,"lon":18.30846}},{"city":"Pinelands","state":"Eastern Cape","zip":"7503","country":"South Africa"},{"city":"Port Elizabeth","state":"Eastern Cape","zip":"6014","country":"South Africa","geoPoint":{"lat":-33.91799,"lon":25.57007}},{"city":"Bloemfontein","state":"Freestate","zip":"9300","country":"South Africa","geoPoint":{"lat":-29.12107,"lon":26.214}},{"city":"Johannesburg","state":"Gauteng","zip":"2157","country":"South Africa","geoPoint":{"lat":-26.20227,"lon":28.04363}},{"city":"Cape Town","state":"Western Cape","zip":"7531","country":"South Africa","geoPoint":{"lat":-33.92584,"lon":18.42322}},{"city":"Observatory","state":"Western Cape","zip":"7925","country":"South Africa","geoPoint":{"lat":-33.93613,"lon":18.46787}},{"city":"Pinelands","state":"Western Cape","zip":"7405","country":"South Africa"},{"city":"Worcester","state":"Western Cape","zip":"6850","country":"South Africa","geoPoint":{"lat":-33.64651,"lon":19.44852}},{"city":"Somerset West","zip":"7130","country":"South Africa","geoPoint":{"lat":-34.08401,"lon":18.82113}},{"city":"Göteborg","zip":"413 45","country":"Sweden","geoPoint":{"lat":57.70716,"lon":11.96679}},{"city":"Helsingborg","zip":"251 87","country":"Sweden","geoPoint":{"lat":56.04673,"lon":12.69437}},{"city":"Kristianstad","zip":"291 85","country":"Sweden","geoPoint":{"lat":56.03129,"lon":14.15242}},{"city":"Skellefteå","zip":"931 86","country":"Sweden","geoPoint":{"lat":64.75067,"lon":20.95279}},{"city":"Stockholm","zip":"111 35","country":"Sweden","geoPoint":{"lat":59.33258,"lon":18.0649}},{"city":"Stockholm","zip":"114 46","country":"Sweden","geoPoint":{"lat":59.33258,"lon":18.0649}},{"city":"Stockholm","zip":"141 86","country":"Sweden","geoPoint":{"lat":59.33258,"lon":18.0649}},{"city":"Stockholm","zip":"171 76","country":"Sweden","geoPoint":{"lat":59.33258,"lon":18.0649}},{"city":"Vällingby","zip":"162 68","country":"Sweden","geoPoint":{"lat":59.36441,"lon":17.87407}},{"city":"Örebro","zip":"701 85","country":"Sweden","geoPoint":{"lat":59.27412,"lon":15.2066}},{"city":"Östersund","zip":"831 83","country":"Sweden","geoPoint":{"lat":63.1792,"lon":14.63566}},{"city":"Lugano","state":"Ticino","zip":"6900","country":"Switzerland","geoPoint":{"lat":46.01008,"lon":8.96004}},{"city":"Dnipropetrovsk","zip":"49 006","country":"Ukraine","geoPoint":{"lat":48.4593,"lon":35.03864}},{"city":"Kharkiv","zip":"61002","country":"Ukraine","geoPoint":{"lat":49.98081,"lon":36.25272}},{"city":"Kharkiv","zip":"61039","country":"Ukraine","geoPoint":{"lat":49.98081,"lon":36.25272}},{"city":"Kharkiv","zip":"61176","country":"Ukraine","geoPoint":{"lat":49.98081,"lon":36.25272}},{"city":"Kiev","zip":"02 091","country":"Ukraine","geoPoint":{"lat":50.45466,"lon":30.5238}},{"city":"Kiev","zip":"02660","country":"Ukraine","geoPoint":{"lat":50.45466,"lon":30.5238}},{"city":"Kiev","zip":"03 049","country":"Ukraine","geoPoint":{"lat":50.45466,"lon":30.5238}},{"city":"Lviv","zip":"790 34","country":"Ukraine","geoPoint":{"lat":49.83826,"lon":24.02324}},{"city":"Lviv","zip":"79044","country":"Ukraine","geoPoint":{"lat":49.83826,"lon":24.02324}},{"city":"Lviv","zip":"79659","country":"Ukraine","geoPoint":{"lat":49.83826,"lon":24.02324}},{"city":"Simferopol","zip":"95006","country":"Ukraine","geoPoint":{"lat":44.95719,"lon":34.11079}},{"city":"Vinnitsa","zip":"21029","country":"Ukraine","geoPoint":{"lat":49.84639,"lon":37.71861}},{"city":"Zaporozhye","zip":"69 000","country":"Ukraine","geoPoint":{"lat":47.82289,"lon":35.19031}},{"city":"Zaporozhye","zip":"69118","country":"Ukraine","geoPoint":{"lat":47.82289,"lon":35.19031}},{"city":"Belfast","state":"Antrim","zip":"BT16 1RH","country":"United Kingdom","geoPoint":{"lat":54.59682,"lon":-5.92541}},{"city":"Londonderry Co. Londonderry","state":"Derry","zip":"BT47 6SB","country":"United Kingdom"},{"city":"Basildon","state":"Essex","zip":"SS16 5NL","country":"United Kingdom","geoPoint":{"lat":51.56844,"lon":0.45782}},{"city":"Stevenage","state":"Hertfordshire","zip":"SG1 4AB","country":"United Kingdom","geoPoint":{"lat":51.90224,"lon":-0.20256}},{"city":"Blackpool","state":"Lancashire","zip":"FY4 3AD","country":"United Kingdom","geoPoint":{"lat":53.81667,"lon":-3.05}},{"city":"Harrow","state":"London","zip":"HA1 3UJ","country":"United Kingdom","geoPoint":{"lat":51.57142,"lon":-0.33371}},{"city":"Portadown","state":"North Ireland","country":"United Kingdom","geoPoint":{"lat":54.42302,"lon":-6.44434}},{"city":"Middlesborough","state":"North Yorkshire","zip":"TS4 3BW","country":"United Kingdom","geoPoint":{"lat":54.57623,"lon":-1.23483}},{"city":"Northampton","state":"Northamptonshire","zip":"NN1 5BD","country":"United Kingdom","geoPoint":{"lat":52.25,"lon":-0.88333}},{"city":"Hardwick","state":"Stockton-on-Tees","zip":"TS29 6NH","country":"United Kingdom","geoPoint":{"lat":52.46032,"lon":1.26746}},{"city":"Nuneaton","state":"Warwickshire","zip":"CV10 7DJ","country":"United Kingdom","geoPoint":{"lat":52.52323,"lon":-1.46523}},{"city":"West Bromich","state":"West Midlands","zip":"B71 4HJ","country":"United Kingdom"},{"city":"Wolverhampton","state":"West Midlands","zip":"WV10 0QP","country":"United Kingdom","geoPoint":{"lat":52.58547,"lon":-2.12296}},{"city":"Worcester","state":"Worcestershire","zip":"WR5 1DD","country":"United Kingdom","geoPoint":{"lat":52.18935,"lon":-2.22001}}]},"referencesModule":{"references":[{"pmid":"35383832","type":"BACKGROUND","citation":"Eikelboom JW, Bosch J, Connolly SJ, Tyrwitt J, Fox KAA, Muehlhofer E, Neumann C, Tasto C, Bangdiwala SI, Diaz R, Alings M, Dagenais GR, Leong DP, Lonn EM, Avezum A, Piegas LS, Widimsky P, Parkhomenko AN, Bhatt DL, Branch KRH, Probstfield JL, Lopez-Jaramillo P, Ryden L, Pogosova N, Keltai K, Keltai M, Ertl G, Stoerk S, Dans AL, Lanas F, Liang Y, Zhu J, Torp-Pedersen C, Maggioni AP, Commerford PJ, Guzik TJ, Vanassche T, Verhamme P, O'Donnell M, Tonkin AM, Varigos JD, Vinereanu D, Felix C, Kim JH, Ibrahim KS, Lewis BS, Metsarinne KP, Aboyans V, Steg PG, Hori M, Kakkar A, Anand SS, Lamy A, Sharma M, Yusuf S. Long-Term Treatment with the Combination of Rivaroxaban and Aspirin in Patients with Chronic Coronary or Peripheral Artery Disease: Outcomes During the Open Label Extension of the COMPASS trial. Eur Heart J Cardiovasc Pharmacother. 2022 Dec 2;8(8):786-795. doi: 10.1093/ehjcvp/pvac023."},{"pmid":"29540326","type":"RESULT","citation":"Anand SS, Caron F, Eikelboom JW, Bosch J, Dyal L, Aboyans V, Abola MT, Branch KRH, Keltai K, Bhatt DL, Verhamme P, Fox KAA, Cook-Bruns N, Lanius V, Connolly SJ, Yusuf S. Major Adverse Limb Events and Mortality in Patients With Peripheral Artery Disease: The COMPASS Trial. J Am Coll Cardiol. 2018 May 22;71(20):2306-2315. doi: 10.1016/j.jacc.2018.03.008. Epub 2018 Mar 11."},{"type":"RESULT","citation":"Anand SS, Bosch J, Eikelboom JW, Connolly SJ, Diaz R, Widimsky P, Aboyans V, Alings M, Kakkar AK, Keltai K, Maggioni AP, Lewis BS, Störk S, Zhu J, Lopez-Jaramillo P, O'Donnell M, Commerford PJ, Vinereanu D, Pogosova N, Ryden L, Fox KAA, Bhatt DL, Misselwitz F, Varigos JD, Vanassche T, Avezum AA, Chen E, Branch K, Leong DP, Bangdiwala SI, Hart RG, Yusuf S. Rivaroxaban with or without aspirin in patients with stable peripheral or carotid artery disease: an international, randomised, double-blind, placebo-controlled trial. Lancet. 2017 Nov 10. pii: S0140-6736(17)32409-1. doi: 10.1016/S0140-6736(17)32409-1. PMID:29132880"},{"type":"RESULT","citation":"Connolly SJ, Eikelboom JW, Bosch J, Dagenais G, Dyal L, Lanas F, Metsarinne K, O'Donnell M, Dans AL, Ha JW, Parkhomenko AN, Avezum AA, Lonn E, Lisheng L, Torp-Pedersen C, Widimsky P, Maggioni AP, Felix C, Keltai K, Hori M, Yusoff K, Guzik TJ, Bhatt DL, Branch KRH, Cook Bruns N, Berkowitz SD, Anand SS, Varigos JD, Fox KAA, Yusuf S. Rivaroxaban with or without aspirin in patients with stable coronary artery disease: an international, randomised, double-blind, placebo-controlled trial. Lancet. 2017 Nov 10. pii: S0140-6736(17)32458-3. doi: 10.1016/S0140-6736(17)32458-3. PMID:29132879"},{"pmid":"28844192","type":"RESULT","citation":"Eikelboom JW, Connolly SJ, Bosch J, Dagenais GR, Hart RG, Shestakovska O, Diaz R, Alings M, Lonn EM, Anand SS, Widimsky P, Hori M, Avezum A, Piegas LS, Branch KRH, Probstfield J, Bhatt DL, Zhu J, Liang Y, Maggioni AP, Lopez-Jaramillo P, O'Donnell M, Kakkar AK, Fox KAA, Parkhomenko AN, Ertl G, Stork S, Keltai M, Ryden L, Pogosova N, Dans AL, Lanas F, Commerford PJ, Torp-Pedersen C, Guzik TJ, Verhamme PB, Vinereanu D, Kim JH, Tonkin AM, Lewis BS, Felix C, Yusoff K, Steg PG, Metsarinne KP, Cook Bruns N, Misselwitz F, Chen E, Leong D, Yusuf S; COMPASS Investigators. Rivaroxaban with or without Aspirin in Stable Cardiovascular Disease. N Engl J Med. 2017 Oct 5;377(14):1319-1330. doi: 10.1056/NEJMoa1709118. Epub 2017 Aug 27."},{"pmid":"28754388","type":"RESULT","citation":"Bosch J, Eikelboom JW, Connolly SJ, Bruns NC, Lanius V, Yuan F, Misselwitz F, Chen E, Diaz R, Alings M, Lonn EM, Widimsky P, Hori M, Avezum A, Piegas LS, Bhatt DL, Branch KRH, Probstfield JL, Liang Y, Liu L, Zhu J, Maggioni AP, Lopez-Jaramillo P, O'Donnell M, Fox KAA, Kakkar A, Parkhomenko AN, Ertl G, Stork S, Keltai K, Keltai M, Ryden L, Dagenais GR, Pogosova N, Dans AL, Lanas F, Commerford PJ, Torp-Pedersen C, Guzik TJ, Verhamme PB, Vinereanu D, Kim JH, Ha JW, Tonkin AM, Varigos JD, Lewis BS, Felix C, Yusoff K, Steg PG, Aboyans V, Metsarinne KP, Anand SS, Hart RG, Lamy A, Moayyedi P, Leong DP, Sharma M, Yusuf S. Rationale, Design and Baseline Characteristics of Participants in the Cardiovascular Outcomes for People Using Anticoagulation Strategies (COMPASS) Trial. Can J Cardiol. 2017 Aug;33(8):1027-1035. doi: 10.1016/j.cjca.2017.06.001. Epub 2017 Jun 8."},{"pmid":"28844176","type":"RESULT","citation":"Braunwald E. An Important Step for Thrombocardiology. N Engl J Med. 2017 Oct 5;377(14):1387-1388. doi: 10.1056/NEJMe1710241. Epub 2017 Aug 27. No abstract available."},{"pmid":"29372976","type":"RESULT","citation":"Fauchier L, Bisson A, Angoulvant D. Rivaroxaban in Stable Cardiovascular Disease. N Engl J Med. 2018 Jan 26;378(4):395. doi: 10.1056/NEJMc1714934. No abstract available."},{"pmid":"29132877","type":"RESULT","citation":"Berger JS. Antithrombotic therapy in peripheral artery disease. Lancet. 2018 Jan 20;391(10117):183-184. doi: 10.1016/S0140-6736(17)32847-7. Epub 2017 Nov 10. No abstract available."},{"pmid":"29186454","type":"RESULT","citation":"Darmon A, Bhatt DL, Elbez Y, Aboyans V, Anand S, Bosch J, Branch KR, Connolly SJ, Dyal L, Eikelboom JW, Fox KAA, Keltai K, Probstfield J, Yusuf S, Abtan J, Sorbets E, Eagle KA, Ducrocq G, Steg PG. External applicability of the COMPASS trial: an analysis of the reduction of atherothrombosis for continued health (REACH) registry. Eur Heart J. 2018 Mar 1;39(9):750-757a. doi: 10.1093/eurheartj/ehx658."},{"pmid":"29661947","type":"RESULT","citation":"Verheugt FWA. Return of Oral Anticoagulation in Chronic Stable Coronary Disease. Circulation. 2018 Apr 17;137(16):1655-1657. doi: 10.1161/CIRCULATIONAHA.117.032916. No abstract available."},{"pmid":"29945212","type":"RESULT","citation":"Fox KAA, Eikelboom JW, Anand SS, Bhatt DL, Bosch J, Connolly SJ, Harrington RA, Steg PG, Yusuf S. Anti-thrombotic options for secondary prevention in patients with chronic atherosclerotic vascular disease: what does COMPASS add? Eur Heart J. 2019 May 7;40(18):1466-1471. doi: 10.1093/eurheartj/ehy347. No abstract available."},{"pmid":"30058959","type":"RESULT","citation":"Sharma M, Hart RG, Smith EE, Bosch J, Yuan F, Casanova A, Eikelboom JW, Connolly SJ, Wong G, Diaz R, Lopez-Jaramillo P, Ertl G, Stork S, Dagenais GR, Lonn EM, Ryden L, Tonkin AM, Varigos JD, Bhatt DL, Branch KR, Probstfield JL, Kim JH, Ha JW, O'Donnell M, Vinereanu D, Fox KA, Liang Y, Liu L, Zhu J, Pogosova N, Maggioni AP, Avezum A, Piegas LS, Keltai K, Keltai M, Cook Bruns N, Berkowitz S, Yusuf S. Rationale, design, and baseline participant characteristics in the MRI and cognitive substudy of the cardiovascular outcomes for people using anticoagulation strategies trial. Int J Stroke. 2019 Apr;14(3):270-281. doi: 10.1177/1747493018784478. Epub 2018 Jul 30."},{"pmid":"29346127","type":"RESULT","citation":"Kruger PC, Eikelboom JW, Yusuf S. Rivaroxaban with or without aspirin for prevention of cardiovascular disease. Coron Artery Dis. 2018 Aug;29(5):361-365. doi: 10.1097/MCA.0000000000000605. No abstract available."},{"pmid":"30220379","type":"RESULT","citation":"Ademi Z, Zomer E, Tonkin A, Liew D. Cost-effectiveness of rivaroxaban and aspirin compared to aspirin alone in patients with stable cardiovascular disease: An Australian perspective. Int J Cardiol. 2018 Nov 1;270:54-59. doi: 10.1016/j.ijcard.2018.06.091. Epub 2018 Jun 25."},{"pmid":"30417662","type":"RESULT","citation":"Bhagirath VC, Eikelboom JW, Anand SS. Low-dose rivaroxaban plus aspirin for the prevention of cardiovascular events: an evaluation of COMPASS. Future Cardiol. 2018 Nov;14(6):443-453. doi: 10.2217/fca-2018-0059. Epub 2018 Nov 12."},{"pmid":"30213508","type":"RESULT","citation":"Kruger PC, Anand SS, de Vries TAC, Eikelboom JW. Patients with Peripheral Artery Disease in the COMPASS Trial. Eur J Vasc Endovasc Surg. 2018 Dec;56(6):772-773. doi: 10.1016/j.ejvs.2018.08.010. Epub 2018 Sep 10. No abstract available."},{"pmid":"30354448","type":"RESULT","citation":"Boden WE, Bhatt DL. Will COMPASS Point to a New Direction in Thrombotic Risk Reduction in Patients With Stable Cardiovascular Disease? Circulation. 2018 Aug 28;138(9):858-860. doi: 10.1161/CIRCULATIONAHA.118.035405. No abstract available."},{"pmid":"30654882","type":"RESULT","citation":"Lamy A, Eikelboom J, Sheth T, Connolly S, Bosch J, Fox KAA, Zhu J, Lonn E, Dagenais G, Widimsky P, Branch KRH, Bhatt DL, Zheng Z, Straka Z, Dagenais F, Kong Y, Marsden T, Lee SF, Copland I, Yusuf S. Rivaroxaban, Aspirin, or Both to Prevent Early Coronary Bypass Graft Occlusion: The COMPASS-CABG Study. J Am Coll Cardiol. 2019 Jan 22;73(2):121-130. doi: 10.1016/j.jacc.2018.10.048."},{"pmid":"30667279","type":"RESULT","citation":"Sharma M, Hart RG, Connolly SJ, Bosch J, Shestakovska O, Ng KKH, Catanese L, Keltai K, Aboyans V, Alings M, Ha JW, Varigos J, Tonkin A, O'Donnell M, Bhatt DL, Fox K, Maggioni A, Berkowitz SD, Bruns NC, Yusuf S, Eikelboom JW. Stroke Outcomes in the COMPASS Trial. Circulation. 2019 Feb 26;139(9):1134-1145. doi: 10.1161/CIRCULATIONAHA.118.035864."},{"pmid":"30702997","type":"RESULT","citation":"Coppens M, Weitz JI, Eikelboom JWA. Synergy of Dual Pathway Inhibition in Chronic Cardiovascular Disease. Circ Res. 2019 Feb;124(3):416-425. doi: 10.1161/CIRCRESAHA.118.313141."},{"pmid":"31054846","type":"RESULT","citation":"Moayyedi P, Eikelboom JW, Bosch J, Connolly SJ, Dyal L, Shestakovska O, Leong D, Anand SS, Stork S, Branch KRH, Bhatt DL, Verhamme PB, O'Donnell M, Maggioni AP, Lonn EM, Piegas LS, Ertl G, Keltai M, Cook Bruns N, Muehlhofer E, Dagenais GR, Kim JH, Hori M, Steg PG, Hart RG, Diaz R, Alings M, Widimsky P, Avezum A, Probstfield J, Zhu J, Liang Y, Lopez-Jaramillo P, Kakkar A, Parkhomenko AN, Ryden L, Pogosova N, Dans A, Lanas F, Commerford PJ, Torp-Pedersen C, Guzik T, Vinereanu D, Tonkin AM, Lewis BS, Felix C, Yusoff K, Metsarinne K, Fox KAA, Yusuf S; COMPASS Investigators. Pantoprazole to Prevent Gastroduodenal Events in Patients Receiving Rivaroxaban and/or Aspirin in a Randomized, Double-Blind, Placebo-Controlled Trial. Gastroenterology. 2019 Aug;157(2):403-412.e5. doi: 10.1053/j.gastro.2019.04.041. Epub 2019 May 2."},{"pmid":"31072566","type":"RESULT","citation":"Fox KAA, Eikelboom JW, Shestakovska O, Connolly SJ, Metsarinne KP, Yusuf S. Rivaroxaban Plus Aspirin in Patients With Vascular Disease and Renal Dysfunction: From the COMPASS Trial. J Am Coll Cardiol. 2019 May 14;73(18):2243-2250. doi: 10.1016/j.jacc.2019.02.048."},{"pmid":"31146821","type":"RESULT","citation":"Cairns JA, Eikelboom JW, Shestakovska O, Yusuf S, DeMets D. Monitoring Emerging Data From the COMPASS Trial of an Antithrombotic Agent. J Am Coll Cardiol. 2019 Jun 4;73(21):2769-2772. doi: 10.1016/j.jacc.2019.03.479. No abstract available."},{"pmid":"31152740","type":"RESULT","citation":"Moayyedi P, Eikelboom JW, Bosch J, Connolly SJ, Dyal L, Shestakovska O, Leong D, Anand SS, Stork S, Branch KRH, Bhatt DL, Verhamme PB, O'Donnell M, Maggioni AP, Lonn EM, Piegas LS, Ertl G, Keltai M, Bruns NC, Muehlhofer E, Dagenais GR, Kim JH, Hori M, Steg PG, Hart RG, Diaz R, Alings M, Widimsky P, Avezum A, Probstfield J, Zhu J, Liang Y, Lopez-Jaramillo P, Kakkar AK, Parkhomenko AN, Ryden L, Pogosova N, Dans AL, Lanas F, Commerford PJ, Torp-Pedersen C, Guzik TJ, Vinereanu D, Tonkin AM, Lewis BS, Felix C, Yusoff K, Metsarinne KP, Fox KAA, Yusuf S; COMPASS Investigators. Safety of Proton Pump Inhibitors Based on a Large, Multi-Year, Randomized Trial of Patients Receiving Rivaroxaban or Aspirin. Gastroenterology. 2019 Sep;157(3):682-691.e2. doi: 10.1053/j.gastro.2019.05.056. Epub 2019 May 29."},{"pmid":"31144674","type":"RESULT","citation":"Kruger PC, Guzik TJ, Eikelboom JW. How can the results of the COMPASS trial benefit patients with coronary or peripheral artery disease in Poland? Kardiol Pol. 2019 Aug 23;77(7-8):661-669. doi: 10.33963/KP.14855. Epub 2019 May 30."},{"pmid":"31163978","type":"RESULT","citation":"Branch KR, Probstfield JL, Eikelboom JW, Bosch J, Maggioni AP, Cheng RK, Bhatt DL, Avezum A, Fox KAA, Connolly SJ, Shestakovska O, Yusuf S. Rivaroxaban With or Without Aspirin in Patients With Heart Failure and Chronic Coronary or Peripheral Artery Disease. Circulation. 2019 Aug 13;140(7):529-537. doi: 10.1161/CIRCULATIONAHA.119.039609. Epub 2019 Jun 5."},{"pmid":"31248549","type":"RESULT","citation":"Darmon A, Sorbets E, Ducrocq G, Elbez Y, Abtan J, Popovic B, Ohman EM, Rother J, Wilson PF, Montalescot G, Zeymer U, Bhatt DL, Steg PG; REACH Registry Investigators. Association of Multiple Enrichment Criteria With Ischemic and Bleeding Risks Among COMPASS-Eligible Patients. J Am Coll Cardiol. 2019 Jul 2;73(25):3281-3291. doi: 10.1016/j.jacc.2019.04.046."},{"pmid":"31248548","type":"RESULT","citation":"Anand SS, Eikelboom JW, Dyal L, Bosch J, Neumann C, Widimsky P, Avezum AA, Probstfield J, Cook Bruns N, Fox KAA, Bhatt DL, Connolly SJ, Yusuf S; COMPASS Trial Investigators. Rivaroxaban Plus Aspirin Versus Aspirin in Relation to Vascular Risk in the COMPASS Trial. J Am Coll Cardiol. 2019 Jul 2;73(25):3271-3280. doi: 10.1016/j.jacc.2019.02.079."},{"pmid":"31358978","type":"RESULT","citation":"Fox KAA, Metra M, Morais J, Atar D. The myth of 'stable' coronary artery disease. Nat Rev Cardiol. 2020 Jan;17(1):9-21. doi: 10.1038/s41569-019-0233-y. Epub 2019 Jul 29."},{"pmid":"31504399","type":"RESULT","citation":"de Vries TI, Eikelboom JW, Bosch J, Westerink J, Dorresteijn JAN, Alings M, Dyal L, Berkowitz SD, van der Graaf Y, Fox KAA, Visseren FLJ. Estimating individual lifetime benefit and bleeding risk of adding rivaroxaban to aspirin for patients with stable cardiovascular disease: results from the COMPASS trial. Eur Heart J. 2019 Dec 7;40(46):3771-3778a. doi: 10.1093/eurheartj/ehz404."},{"pmid":"31510769","type":"RESULT","citation":"Eikelboom JW, Connolly SJ, Bosch J, Shestakovska O, Aboyans V, Alings M, Anand SS, Avezum A, Berkowitz SD, Bhatt DL, Cook-Bruns N, Felix C, Fox KAA, Hart RG, Maggioni AP, Moayyedi P, O'Donnell M, Ryden L, Verhamme P, Widimsky P, Zhu J, Yusuf S. Bleeding and New Cancer Diagnosis in Patients With Atherosclerosis. Circulation. 2019 Oct 29;140(18):1451-1459. doi: 10.1161/CIRCULATIONAHA.119.041949. Epub 2019 Sep 12."},{"pmid":"31524941","type":"RESULT","citation":"Perera KS, Ng KKH, Nayar S, Catanese L, Dyal L, Sharma M, Connolly SJ, Yusuf S, Bosch J, Eikelboom JW, Hart RG. Association Between Low-Dose Rivaroxaban With or Without Aspirin and Ischemic Stroke Subtypes: A Secondary Analysis of the COMPASS Trial. JAMA Neurol. 2020 Jan 1;77(1):43-48. doi: 10.1001/jamaneurol.2019.2984."},{"pmid":"31537259","type":"RESULT","citation":"Eikelboom JW, Bosch JJ, Connolly SJ, Shestakovska O, Dagenais GR, Hart RG, Leong DP, O'Donnell M, Fox KAA, Bhatt DL, Cairns JA, Tasto C, Berkowitz SD, Cook Bruns N, Muehlhofer E, Diaz R, Maggioni AP, Yusuf S. Major Bleeding in Patients With Coronary or Peripheral Artery Disease Treated With Rivaroxaban Plus Aspirin. J Am Coll Cardiol. 2019 Sep 24;74(12):1519-1528. doi: 10.1016/j.jacc.2019.07.065."},{"pmid":"30916315","type":"RESULT","citation":"Wurtz M, Olesen KKW, Thim T, Kristensen SD, Eikelboom JW, Maeng M. External applicability of the COMPASS trial: the Western Denmark Heart Registry. Eur Heart J Cardiovasc Pharmacother. 2019 Oct 1;5(4):192-199. doi: 10.1093/ehjcvp/pvz013."},{"pmid":"31615291","type":"RESULT","citation":"Vanassche T, Verhamme P, Anand SS, Shestakovska O, Fox KA, Bhatt DL, Avezum A, Alings M, Aboyans V, Maggioni AP, Widimsky P, Berkowitz SD, Yusuf S, Connolly SJ, Eikelboom JW, Bosch J. Risk factors and clinical outcomes in chronic coronary and peripheral artery disease: An analysis of the randomized, double-blind COMPASS trial. Eur J Prev Cardiol. 2020 Feb;27(3):296-307. doi: 10.1177/2047487319882154. Epub 2019 Oct 15."},{"pmid":"31807773","type":"RESULT","citation":"Cowie MR, Lamy A, Levy P, Mealing S, Millier A, Mernagh P, Cristeau O, Bowrin K, Briere JB. Health economic evaluation of rivaroxaban in the treatment of patients with chronic coronary artery disease or peripheral artery disease. Cardiovasc Res. 2020 Sep 1;116(11):1918-1924. doi: 10.1093/cvr/cvz278."},{"pmid":"31715433","type":"RESULT","citation":"Welsh RC, Peterson ED, De Caterina R, Bode C, Gersh B, Eikelboom JW. Applying contemporary antithrombotic therapy in the secondary prevention of chronic atherosclerotic cardiovascular disease. Am Heart J. 2019 Dec;218:100-109. doi: 10.1016/j.ahj.2019.09.006. Epub 2019 Oct 23."},{"pmid":"30538057","type":"RESULT","citation":"Schiele F, Puymirat E, Ferrieres J, Simon T, Fox KAA, Eikelboom J, Danchin N; FAST-MI investigators. The FAST-MI 2005-2010-2015 registries in the light of the COMPASS trial: The COMPASS criteria applied to a post-MI population. Int J Cardiol. 2019 Mar 1;278:7-13. doi: 10.1016/j.ijcard.2018.11.138. Epub 2018 Dec 3."},{"pmid":"32178526","type":"RESULT","citation":"Bainey KR, Welsh RC, Connolly SJ, Marsden T, Bosch J, Fox KAA, Steg PG, Vinereanu D, Connolly DL, Berkowitz SD, Foody JM, Probstfield JL, Branch KR, Lewis BS, Diaz R, Muehlhofer E, Widimsky P, Yusuf S, Eikelboom JW, Bhatt DL; COMPASS Investigators. Rivaroxaban Plus Aspirin Versus Aspirin Alone in Patients With Prior Percutaneous Coronary Intervention (COMPASS-PCI). Circulation. 2020 Apr 7;141(14):1141-1151. doi: 10.1161/CIRCULATIONAHA.119.044598. Epub 2020 Mar 17. Erratum In: Circulation. 2020 Jun 9;141(23):e905."},{"pmid":"32289159","type":"RESULT","citation":"Liang Y, Zhu J, Liu L, Anand SS, Connolly SJ, Bosch J, Guzik TJ, O'Donnell M, Dagenais GR, Fox KA, Shestakovska O, Berkowitz SD, Muehlhofer E, Keller L, Yusuf S, Eikelboom JW; COMPASS Investigators. Efficacy and safety of rivaroxaban plus aspirin in women and men with chronic coronary or peripheral artery disease. Cardiovasc Res. 2021 Feb 22;117(3):942-949. doi: 10.1093/cvr/cvaa100. Erratum In: Cardiovasc Res. 2021 May 25;117(6):1577."},{"pmid":"32223318","type":"RESULT","citation":"Bhatt DL, Eikelboom JW, Connolly SJ, Steg PG, Anand SS, Verma S, Branch KRH, Probstfield J, Bosch J, Shestakovska O, Szarek M, Maggioni AP, Widimsky P, Avezum A, Diaz R, Lewis BS, Berkowitz SD, Fox KAA, Ryden L, Yusuf S; COMPASS Steering Committee and Investigators. Role of Combination Antiplatelet and Anticoagulation Therapy in Diabetes Mellitus and Cardiovascular Disease: Insights From the COMPASS Trial. Circulation. 2020 Jun 9;141(23):1841-1854. doi: 10.1161/CIRCULATIONAHA.120.046448. Epub 2020 Mar 28."},{"pmid":"32436455","type":"RESULT","citation":"Steffel J, Eikelboom JW, Anand SS, Shestakovska O, Yusuf S, Fox KAA. The COMPASS Trial: Net Clinical Benefit of Low-Dose Rivaroxaban Plus Aspirin as Compared With Aspirin in Patients With Chronic Vascular Disease. Circulation. 2020 Jul 7;142(1):40-48. doi: 10.1161/CIRCULATIONAHA.120.046048. Epub 2020 May 21. Erratum In: Circulation. 2020 Jul 7;142(1):e23."},{"pmid":"32951537","type":"RESULT","citation":"Sharma M, Hart RG, Smith EE, Bosch J, Eikelboom JW, Connolly SJ, Dyal L, Reeh KW, Casanova A, Diaz R, Lopez-Jaramillo P, Ertl G, Stork S, Dagenais GR, Lonn EM, Ryden L, Tonkin AM, Varigos JD, Bhatt DL, Branch KRH, Probstfield JL, Kim JH, O'Donnell M, Vinereanu D, A A Fox K, Liang Y, Liu L, Zhu J, Pogosova N, Maggioni AP, Avezum A, Piegas LS, Keltai K, Keltai M, Berkowitz SD, Yusuf S. Rivaroxaban for Prevention of Covert Brain Infarcts and Cognitive Decline: The COMPASS MRI Substudy. Stroke. 2020 Oct;51(10):2901-2909. doi: 10.1161/STROKEAHA.120.029762. Epub 2020 Sep 21. Erratum In: Stroke. 2021 Jan;52(2):e90."},{"pmid":"32997098","type":"RESULT","citation":"Kaplovitch E, Eikelboom JW, Dyal L, Aboyans V, Abola MT, Verhamme P, Avezum A, Fox KAA, Berkowitz SD, Bangdiwala SI, Yusuf S, Anand SS. Rivaroxaban and Aspirin in Patients With Symptomatic Lower Extremity Peripheral Artery Disease: A Subanalysis of the COMPASS Randomized Clinical Trial. JAMA Cardiol. 2021 Jan 1;6(1):21-29. doi: 10.1001/jamacardio.2020.4390. Erratum In: JAMA Cardiol. 2021 Feb 1;6(2):246."},{"pmid":"33538248","type":"RESULT","citation":"Guzik TJ, Ramasundarahettige C, Pogosova N, Lopez-Jaramillo P, Dyal L, Berkowitz SD, Muehlhofer E, Bhatt DL, Fox KAA, Yusuf S, Eikelboom JW. Rivaroxaban Plus Aspirin in Obese and Overweight Patients With Vascular Disease in the COMPASS Trial. J Am Coll Cardiol. 2021 Feb 9;77(5):511-525. doi: 10.1016/j.jacc.2020.11.061."},{"pmid":"33957178","type":"RESULT","citation":"Sen J, Tonkin A, Varigos J, Fonguh S, Berkowitz SD, Yusuf S, Verhamme P, Vanassche T, Anand SS, Fox KAA, Eikelboom JW, Amerena J; COMPASS Trial Investigators. Risk stratification of cardiovascular complications using CHA2DS2-VASc and CHADS2 scores in chronic atherosclerotic cardiovascular disease. Int J Cardiol. 2021 Aug 15;337:9-15. doi: 10.1016/j.ijcard.2021.04.067. Epub 2021 May 3."},{"pmid":"34021038","type":"RESULT","citation":"Dagenais GR, Dyal L, Bosch JJ, Leong DP, Aboyans V, Berkowitz SD, Bhatt DL, Connolly SJ, Fox KAA, Muehlhofer E, Probstfield JL, Widimsky P, Winkelmann BR, Yusuf S, Eikelboom JW. Cardiovascular consequences of discontinuing low-dose rivaroxaban in people with chronic coronary or peripheral artery disease. Heart. 2021 Jul;107(14):1130-1137. doi: 10.1136/heartjnl-2020-318758. Epub 2021 May 21."},{"pmid":"34132753","type":"RESULT","citation":"Lamy A, Browne A, Sheth T, Zheng Z, Dagenais F, Noiseux N, Chen X, Bakaeen FG, Brtko M, Stevens LM, Alboom M, Lee SF, Copland I, Salim Y, Eikelboom J; COMPASS Investigators. Skeletonized vs Pedicled Internal Mammary Artery Graft Harvesting in Coronary Artery Bypass Surgery: A Post Hoc Analysis From the COMPASS Trial. JAMA Cardiol. 2021 Sep 1;6(9):1042-1049. doi: 10.1001/jamacardio.2021.1686. Erratum In: JAMA Cardiol. 2021 Aug 18;:null."},{"pmid":"34191011","type":"RESULT","citation":"Vanassche T, Verhamme P, Anand SS, Shestakovska O, Leong DP, Fox KAA, Bhatt DL, Avezum A, Alings M, Aboyans V, Maggioni AP, Widimsky P, Muehlhofer E, Berkowitz SD, Yusuf S, Connolly SJ, Eikelboom JW, Bosch J. Low-dose rivaroxaban plus aspirin in patients with polypharmacy and multimorbidity: an analysis from the COMPASS trial. Eur Heart J Cardiovasc Pharmacother. 2022 Aug 11;8(5):462-473. doi: 10.1093/ehjcvp/pvab050."},{"pmid":"34210409","type":"RESULT","citation":"Eikelboom JW, Bhatt DL, Fox KAA, Bosch J, Connolly SJ, Anand SS, Avezum A, Berkowitz SD, Branch KRH, Dagenais GR, Felix C, Guzik TJ, Hart RG, Maggioni AP, Muehlhofer E, Sharma M, Shestakovska O, Yusuf S. Mortality Benefit of Rivaroxaban Plus Aspirin in Patients With Chronic Coronary or Peripheral Artery Disease. J Am Coll Cardiol. 2021 Jul 6;78(1):14-23. doi: 10.1016/j.jacc.2021.04.083."},{"pmid":"34463737","type":"RESULT","citation":"Anand SS, Hiatt W, Dyal L, Bauersachs R, Berkowitz SD, Branch KRH, Debus S, Fox KAA, Liang Y, Muehlhofer E, Nehler M, Haskell LP, Patel M, Szarek M, Yusuf S, Eikelboom J, Bonaca MP. Low-dose rivaroxaban and aspirin among patients with peripheral artery disease: a meta-analysis of the COMPASS and VOYAGER trials. Eur J Prev Cardiol. 2022 May 5;29(5):e181-e189. doi: 10.1093/eurjpc/zwab128."},{"pmid":"31321405","type":"RESULT","citation":"Kaplovitch E, Anand SS. The evolving treatment of peripheral arterial disease: preventing ischaemic events in the post-COMPASS era. Cardiovasc Res. 2019 Oct 1;115(12):e121-e124. doi: 10.1093/cvr/cvz170. No abstract available."},{"pmid":"36001989","type":"DERIVED","citation":"Lamy A, Eikelboom J, Tong W, Yuan F, Bangdiwala SI, Bosch J, Connolly S, Lonn E, Dagenais GR, Branch KRH, Wang WJ, Bhatt DL, Probstfield J, Ertl G, Stork S, Steg PG, Aboyans V, Durand-Zaleski I, Ryden L, Yusuf S. The cost-effectiveness of rivaroxaban with or without aspirin in the COMPASS trial. Eur Heart J Qual Care Clin Outcomes. 2023 Aug 7;9(5):502-510. doi: 10.1093/ehjqcco/qcac054."},{"pmid":"32651298","type":"DERIVED","citation":"Catanese L, Eikelboom JW, Bosch J, Shestakovska O, Ng K, Nayar S, Perera KS, Shoamanesh A, Sharma M, Hart RG. Oral factor Xa inhibitors and risk of subdural hematoma: COMPASS trial results and meta-analysis. Neurology. 2020 Aug 4;95(5):e480-e487. doi: 10.1212/WNL.0000000000009826. Epub 2020 Jul 10."},{"pmid":"29132880","type":"DERIVED","citation":"Anand SS, Bosch J, Eikelboom JW, Connolly SJ, Diaz R, Widimsky P, Aboyans V, Alings M, Kakkar AK, Keltai K, Maggioni AP, Lewis BS, Stork S, Zhu J, Lopez-Jaramillo P, O'Donnell M, Commerford PJ, Vinereanu D, Pogosova N, Ryden L, Fox KAA, Bhatt DL, Misselwitz F, Varigos JD, Vanassche T, Avezum AA, Chen E, Branch K, Leong DP, Bangdiwala SI, Hart RG, Yusuf S; COMPASS Investigators. Rivaroxaban with or without aspirin in patients with stable peripheral or carotid artery disease: an international, randomised, double-blind, placebo-controlled trial. Lancet. 2018 Jan 20;391(10117):219-229. doi: 10.1016/S0140-6736(17)32409-1. Epub 2017 Nov 10."},