{"protocolSection":{"identificationModule":{"nctId":"NCT03872401","orgStudyIdInfo":{"id":"20170625"},"secondaryIdInfos":[{"id":"2018-004565-14","type":"EUDRACT_NUMBER"}],"organization":{"fullName":"Amgen","class":"INDUSTRY"},"briefTitle":"Effect of Evolocumab in Patients at High Cardiovascular Risk Without Prior Myocardial Infarction or Stroke","officialTitle":"A Double-blind, Randomized, Placebo-controlled, Multicenter Study to Evaluate the Impact of Evolocumab on Major Cardiovascular Events in Patients at High Cardiovascular Risk Without Prior Myocardial Infarction or Stroke","acronym":"VESALIUS-CV"},"statusModule":{"statusVerifiedDate":"2023-10","overallStatus":"ACTIVE_NOT_RECRUITING","expandedAccessInfo":{"hasExpandedAccess":false},"startDateStruct":{"date":"2019-06-11","type":"ACTUAL"},"primaryCompletionDateStruct":{"date":"2025-07-26","type":"ESTIMATED"},"completionDateStruct":{"date":"2025-07-26","type":"ESTIMATED"},"studyFirstSubmitDate":"2019-03-11","studyFirstSubmitQcDate":"2019-03-11","studyFirstPostDateStruct":{"date":"2019-03-13","type":"ACTUAL"},"lastUpdateSubmitDate":"2023-10-18","lastUpdatePostDateStruct":{"date":"2023-10-19","type":"ACTUAL"}},"sponsorCollaboratorsModule":{"responsibleParty":{"type":"SPONSOR"},"leadSponsor":{"name":"Amgen","class":"INDUSTRY"}},"oversightModule":{"oversightHasDmc":true,"isFdaRegulatedDrug":true,"isFdaRegulatedDevice":false},"descriptionModule":{"briefSummary":"This study will assess the effect of lowering low-density lipoprotein cholesterol (LDL-C) with evolocumab on major cardiovascular events in adults without a prior myocardial infarction (MI) or stroke who are at high risk of a cardiovascular event."},"conditionsModule":{"conditions":["Coronary Heart Disease (CHD)"],"keywords":["High Cardiovascular Risk","No prior Myocardial Infarction stroke",">= 50 years of age (men)",">= 55 years of age (women)","lipid-lowering therapy"]},"designModule":{"studyType":"INTERVENTIONAL","phases":["PHASE3"],"designInfo":{"allocation":"RANDOMIZED","interventionModel":"PARALLEL","primaryPurpose":"TREATMENT","maskingInfo":{"masking":"QUADRUPLE","whoMasked":["PARTICIPANT","CARE_PROVIDER","INVESTIGATOR","OUTCOMES_ASSESSOR"]}},"enrollmentInfo":{"count":12301,"type":"ACTUAL"}},"armsInterventionsModule":{"armGroups":[{"label":"Placebo","type":"PLACEBO_COMPARATOR","description":"Participants will receive placebo subcutaneous injection once every 2 weeks (Q2W).","interventionNames":["Drug: Placebo"]},{"label":"Evolocumab 140 mg Q2W","type":"EXPERIMENTAL","description":"Participants will receive 140 mg evolocumab by subcutaneous injection Q2W.","interventionNames":["Drug: Evolocumab"]}],"interventions":[{"type":"DRUG","name":"Evolocumab","description":"Administered subcutaneously using an autoinjector pen.","armGroupLabels":["Evolocumab 140 mg Q2W"],"otherNames":["AMG 145","Repatha"]},{"type":"DRUG","name":"Placebo","description":"Administered subcutaneously using an autoinjector pen.","armGroupLabels":["Placebo"]}]},"outcomesModule":{"primaryOutcomes":[{"measure":"Time to Coronary Heart Disease Death, Myocardial Infarction, or Ischemic Stroke","description":"Time to coronary heart disease (CHD) death, myocardial infarction (MI), or ischemic stroke, whichever occurs first.","timeFrame":"From randomization; for approximately a median of 4.5 years"},{"measure":"Time to Coronary Heart Disease Death, Myocardial Infarction, Ischemic Stroke, or Any Ischemia-driven Arterial Sroke","description":"Time to CHD death, MI, ischemic stroke, or any ischemia-driven arterial revascularization, whichever occurs first.","timeFrame":"From randomization; for approximately a median of 4.5 years"}],"secondaryOutcomes":[{"measure":"Time to MI, Ischemic Stroke, or Any Ischemia-driven Arterial Revascularization","timeFrame":"From randomization; for approximately a median of 4.5 years"},{"measure":"Time to CHD Death, MI, or Any Ischemia-driven Arterial Revascularization","timeFrame":"From randomization; for approximately a median of 4.5 years"},{"measure":"Time to Cardiovascular Death, MI, or Ischemic Stroke","timeFrame":"From randomization; for approximately a median of 4.5 years"},{"measure":"Time to CHD Death or MI","timeFrame":"From randomization; for approximately a median of 4.5 years"},{"measure":"Time to Myocardial Infarction","timeFrame":"From randomization; for approximately a median of 4.5 years"},{"measure":"Time to Any Ischemia-driven Arterial Revascularization","timeFrame":"From randomization; for approximately a median of 4.5 years"},{"measure":"Time to CHD Death","timeFrame":"From randomization; for approximately a median of 4.5 years"},{"measure":"Time to Cardiovascular Death","timeFrame":"From randomization; for approximately a median of 4.5 years"},{"measure":"Time to All Cause of Death","timeFrame":"From randomization; for approximately a median of 4.5 years"},{"measure":"Time to Ischemic Stroke","timeFrame":"From randomization; for approximately a median of 4.5 years"}]},"eligibilityModule":{"eligibilityCriteria":"Inclusion criteria:\n\n1. Age: Adult subjects ≥ 50 (men) or ≥ 55 (women) to ˂ 80 years of age (either sex) and meeting lipid criteria\n2. Low-density lipoprotein cholesterol (LDL-C) ≥ 90 mg/dL (≥ 2.3 mmol/L) or non-high-density lipoprotein cholesterol (non-HDL) ≥ 120 mg/dL (≥ 3.1 mmol/L), or apolipoprotein B ≥ 80 mg/dL (≥ 1.56 µmol/L)\n3. Evidence of at least one of the following at screening (without prior myocardial infarction or stroke):\n\n   A. Significant coronary artery disease (CAD) B. Significant atherosclerotic cerebrovascular disease C. Significant peripheral arterial disease D. Diabetes mellitus\n4. At least 1 high-risk feature\n\nExclusion criteria\n\n* MI or stroke prior to randomization\n* Coronary artery bypass grafting (CABG) ˂ 3 months prior to screening\n* Estimated glomerular filtration rate (eGFR) ˂ 15 mL/min/1.73 m²\n* Uncontrolled or recurrent ventricular tachycardia in the absence of an implantable-cardioverter defibrillator.\n* Atrial fibrillation or atrial flutter not on anticoagulation therapy (vitamin K antagonist, heparin, low molecular weight heparin, fondaparinux,or non-Vitamin K antagonist oral anticoagulant)\n* Triglycerides ≥ 500 mg/dL (5.7 mmol/L) measured up to 3 months prior to screening. The most recent results must be used.\n* Last measured left-ventricular ejection fraction ˂ 30% or New York Heart Association (NYHA) Functional Class III/IV\n* Planned arterial revascularization","healthyVolunteers":false,"sex":"ALL","minimumAge":"50 Years","maximumAge":"79 Years","stdAges":["ADULT","OLDER_ADULT"]},"contactsLocationsModule":{"overallOfficials":[{"name":"MD","affiliation":"Amgen","role":"STUDY_DIRECTOR"}],"locations":[{"facility":"North Alabama Research Center LLC","city":"Athens","state":"Alabama","zip":"35611","country":"United States","geoPoint":{"lat":34.80243,"lon":-86.97219}},{"facility":"Cardiovascular Associates","city":"Birmingham","state":"Alabama","zip":"35243","country":"United States","geoPoint":{"lat":33.52066,"lon":-86.80249}},{"facility":"Heart Center Research LLC","city":"Huntsville","state":"Alabama","zip":"35801","country":"United States","geoPoint":{"lat":34.7304,"lon":-86.58594}},{"facility":"Mobile Heart Specialists PC","city":"Mobile","state":"Alabama","zip":"36608","country":"United States","geoPoint":{"lat":30.69436,"lon":-88.04305}},{"facility":"Arkansas Cardiology","city":"Little Rock","state":"Arkansas","zip":"72205","country":"United States","geoPoint":{"lat":34.74648,"lon":-92.28959}},{"facility":"Central Arkansas Veterans Healthcare System","city":"Little Rock","state":"Arkansas","zip":"72205","country":"United States","geoPoint":{"lat":34.74648,"lon":-92.28959}},{"facility":"Cardiovascular Research Foundation of Southern California","city":"Beverly Hills","state":"California","zip":"90210","country":"United States","geoPoint":{"lat":34.07362,"lon":-118.40036}},{"facility":"Westside Medical Associates of Los Angeles","city":"Beverly Hills","state":"California","zip":"90211","country":"United States","geoPoint":{"lat":34.07362,"lon":-118.40036}},{"facility":"West Coast Research LLC","city":"Dublin","state":"California","zip":"94568","country":"United States","geoPoint":{"lat":37.70215,"lon":-121.93579}},{"facility":"Desert Oasis Healthcare Medical Group","city":"Palm Springs","state":"California","zip":"92262","country":"United States","geoPoint":{"lat":33.8303,"lon":-116.54529}},{"facility":"Covigilant Research, LLC","city":"Riverside","state":"California","zip":"92506","country":"United States","geoPoint":{"lat":33.95335,"lon":-117.39616}},{"facility":"Sierra Clinical Research","city":"Roseville","state":"California","zip":"95661","country":"United States","geoPoint":{"lat":38.75212,"lon":-121.28801}},{"facility":"Center for Clinical Trials of Sacramento Inc","city":"Sacramento","state":"California","zip":"95823","country":"United States","geoPoint":{"lat":38.58157,"lon":-121.4944}},{"facility":"Harbor University of California Los Angeles Medical Center","city":"Torrance","state":"California","zip":"90502","country":"United States","geoPoint":{"lat":33.83585,"lon":-118.34063}},{"facility":"Optumcare Colorado Springs LLC","city":"Colorado Springs","state":"Colorado","zip":"80906","country":"United States","geoPoint":{"lat":38.83388,"lon":-104.82136}},{"facility":"University of Colorado Memorial Health System","city":"Colorado Springs","state":"Colorado","zip":"80909","country":"United States","geoPoint":{"lat":38.83388,"lon":-104.82136}},{"facility":"New West Physicians","city":"Golden","state":"Colorado","zip":"80401","country":"United States","geoPoint":{"lat":39.75554,"lon":-105.2211}},{"facility":"South Denver Cardiology Associates","city":"Littleton","state":"Colorado","zip":"80120","country":"United States","geoPoint":{"lat":39.61332,"lon":-105.01665}},{"facility":"Cardiology Associates of Fairfield County, PC","city":"Stamford","state":"Connecticut","zip":"06905","country":"United States","geoPoint":{"lat":41.05343,"lon":-73.53873}},{"facility":"Excel Medical Clinical Trials","city":"Boca Raton","state":"Florida","zip":"33434","country":"United States","geoPoint":{"lat":26.3669,"lon":-80.13033}},{"facility":"Bay Area Cardiology","city":"Brandon","state":"Florida","zip":"33511","country":"United States","geoPoint":{"lat":27.9378,"lon":-82.28592}},{"facility":"Nature Coast Clinical Research LLC","city":"Crystal River","state":"Florida","zip":"34429","country":"United States","geoPoint":{"lat":28.90248,"lon":-82.5926}},{"facility":"Daytona Heart Group","city":"Daytona Beach","state":"Florida","zip":"32114","country":"United States","geoPoint":{"lat":29.21081,"lon":-81.02283}},{"facility":"Cardiology Research Associates","city":"Daytona Beach","state":"Florida","zip":"32117","country":"United States","geoPoint":{"lat":29.21081,"lon":-81.02283}},{"facility":"Complete Health Research","city":"DeLand","state":"Florida","zip":"32720","country":"United States","geoPoint":{"lat":29.02832,"lon":-81.30312}},{"facility":"Cohen Medical Associates PA","city":"Delray Beach","state":"Florida","zip":"33446","country":"United States","geoPoint":{"lat":26.46146,"lon":-80.07282}},{"facility":"Jellinger and Lerman MD PA dba The Center for Diabetes and Endocrine Care","city":"Fort Lauderdale","state":"Florida","zip":"33312","country":"United States","geoPoint":{"lat":26.12231,"lon":-80.14338}},{"facility":"George E Platt MD","city":"Green Cove Springs","state":"Florida","zip":"32043","country":"United States","geoPoint":{"lat":29.99191,"lon":-81.67815}},{"facility":"Research Physicians Network Alliance","city":"Hollywood","state":"Florida","zip":"33021","country":"United States","geoPoint":{"lat":26.0112,"lon":-80.14949}},{"facility":"Baptist Health Research Institute","city":"Jacksonville Beach","state":"Florida","zip":"32250","country":"United States","geoPoint":{"lat":30.29469,"lon":-81.39314}},{"facility":"University of Florida and Shands Hospital","city":"Jacksonville","state":"Florida","zip":"32209","country":"United States","geoPoint":{"lat":30.33218,"lon":-81.65565}},{"facility":"Jacksonville Center for Clinical Research","city":"Jacksonville","state":"Florida","zip":"32216","country":"United States","geoPoint":{"lat":30.33218,"lon":-81.65565}},{"facility":"First Coast Cardiovascular Institute PA","city":"Jacksonville","state":"Florida","zip":"32256","country":"United States","geoPoint":{"lat":30.33218,"lon":-81.65565}},{"facility":"Gad Research Center","city":"Miami","state":"Florida","zip":"33155","country":"United States","geoPoint":{"lat":25.77427,"lon":-80.19366}},{"facility":"Cardiovascular Research Center of South Florida","city":"Miami","state":"Florida","zip":"33173","country":"United States","geoPoint":{"lat":25.77427,"lon":-80.19366}},{"facility":"Ocala Research Institute, Inc","city":"Ocala","state":"Florida","zip":"34471","country":"United States","geoPoint":{"lat":29.1872,"lon":-82.14009}},{"facility":"Cardiology Consultants","city":"Pensacola","state":"Florida","zip":"32501","country":"United States","geoPoint":{"lat":30.42131,"lon":-87.21691}},{"facility":"Charlotte Heart Group Research Center","city":"Port Charlotte","state":"Florida","zip":"33952","country":"United States","geoPoint":{"lat":26.97617,"lon":-82.09064}},{"facility":"Intercoastal Medical Group","city":"Sarasota","state":"Florida","zip":"34232","country":"United States","geoPoint":{"lat":27.33643,"lon":-82.53065}},{"facility":"Cardiovascular Center of Sarasota","city":"Sarasota","state":"Florida","zip":"34239","country":"United States","geoPoint":{"lat":27.33643,"lon":-82.53065}},{"facility":"Florida Cardiology Group","city":"Winter Park","state":"Florida","zip":"32792","country":"United States","geoPoint":{"lat":28.6,"lon":-81.33924}},{"facility":"The Florida Lipid Institute","city":"Winter Park","state":"Florida","zip":"32792","country":"United States","geoPoint":{"lat":28.6,"lon":-81.33924}},{"facility":"NSC Research","city":"Johns Creek","state":"Georgia","zip":"30024","country":"United States","geoPoint":{"lat":34.02893,"lon":-84.19858}},{"facility":"Kootenai Heart Clinics, LLC","city":"Coeur d'Alene","state":"Idaho","zip":"83814","country":"United States","geoPoint":{"lat":47.67768,"lon":-116.78047}},{"facility":"Northwest Heart Clinical Research LLC","city":"Arlington Heights","state":"Illinois","zip":"60005","country":"United States","geoPoint":{"lat":42.08836,"lon":-87.98063}},{"facility":"Deaconess Clinic","city":"Evansville","state":"Indiana","zip":"47713","country":"United States","geoPoint":{"lat":37.97476,"lon":-87.55585}},{"facility":"LaPorte County Institute for Clinical Research","city":"Michigan City","state":"Indiana","zip":"46360","country":"United States","geoPoint":{"lat":41.70754,"lon":-86.89503}},{"facility":"Midwest Cardiovascular Research Foundation","city":"Davenport","state":"Iowa","zip":"52801","country":"United States","geoPoint":{"lat":41.52364,"lon":-90.57764}},{"facility":"The University of Iowa College of Public Health","city":"Iowa City","state":"Iowa","zip":"52242","country":"United States","geoPoint":{"lat":41.66113,"lon":-91.53017}},{"facility":"MercyOne Iowa Heart Center","city":"West Des Moines","state":"Iowa","zip":"50266","country":"United States","geoPoint":{"lat":41.57721,"lon":-93.71133}},{"facility":"The University of Kansas Medical Center","city":"Kansas City","state":"Kansas","zip":"66160-7601","country":"United States","geoPoint":{"lat":39.11417,"lon":-94.62746}},{"facility":"Saint Elizabeth Covington","city":"Covington","state":"Kentucky","zip":"41011","country":"United States","geoPoint":{"lat":39.08367,"lon":-84.50855}},{"facility":"The Research Group of Lexington LLC","city":"Lexington","state":"Kentucky","zip":"40503","country":"United States","geoPoint":{"lat":37.98869,"lon":-84.47772}},{"facility":"Alexandria Cardiology Clinic","city":"Alexandria","state":"Louisiana","zip":"71301","country":"United States","geoPoint":{"lat":31.31129,"lon":-92.44514}},{"facility":"Grace Research LLC","city":"Bossier City","state":"Louisiana","zip":"71111","country":"United States","geoPoint":{"lat":32.51599,"lon":-93.73212}},{"facility":"Horizon Research Group of Opelousas LLC","city":"Eunice","state":"Louisiana","zip":"70535","country":"United States","geoPoint":{"lat":30.49437,"lon":-92.41763}},{"facility":"Louisiana Heart Center","city":"Hammond","state":"Louisiana","zip":"70403","country":"United States","geoPoint":{"lat":30.50463,"lon":-90.46293}},{"facility":"Barnum Medical Research","city":"Natchitoches","state":"Louisiana","zip":"71457","country":"United States","geoPoint":{"lat":31.76072,"lon":-93.08627}},{"facility":"Grace Research LLC","city":"Shreveport","state":"Louisiana","zip":"71105","country":"United States","geoPoint":{"lat":32.52515,"lon":-93.75018}},{"facility":"Louisiana Heart Center","city":"Slidell","state":"Louisiana","zip":"70458","country":"United States","geoPoint":{"lat":30.27519,"lon":-89.78117}},{"facility":"Northern Light Eastern Maine Medical Center","city":"Bangor","state":"Maine","zip":"04401","country":"United States","geoPoint":{"lat":44.80118,"lon":-68.77781}},{"facility":"Southern Maine Health Care","city":"Biddeford","state":"Maine","zip":"04005","country":"United States","geoPoint":{"lat":43.49258,"lon":-70.45338}},{"facility":"Maryland Cardiovascular Specialists","city":"Baltimore","state":"Maryland","zip":"21229","country":"United States","geoPoint":{"lat":39.29038,"lon":-76.61219}},{"facility":"Metropolitan Cardiovascular Consultants LLC","city":"Beltsville","state":"Maryland","zip":"20705","country":"United States","geoPoint":{"lat":39.03483,"lon":-76.90747}},{"facility":"TidalHealth Peninsula Regional, Inc","city":"Salisbury","state":"Maryland","zip":"21804","country":"United States","geoPoint":{"lat":38.36067,"lon":-75.59937}},{"facility":"Brigham and Womens Hospital","city":"Boston","state":"Massachusetts","zip":"02215","country":"United States","geoPoint":{"lat":42.35843,"lon":-71.05977}},{"facility":"Charles River Medical Associates","city":"Framingham","state":"Massachusetts","zip":"01701","country":"United States","geoPoint":{"lat":42.27926,"lon":-71.41617}},{"facility":"East Mountain Medical Associates, PC","city":"Great Barrington","state":"Massachusetts","zip":"01230","country":"United States","geoPoint":{"lat":42.19592,"lon":-73.36206}},{"facility":"Baystate Health Center","city":"Springfield","state":"Massachusetts","zip":"01199","country":"United States","geoPoint":{"lat":42.10148,"lon":-72.58981}},{"facility":"Ahmed Arif Medical Research Center LLC","city":"Flint","state":"Michigan","zip":"48504","country":"United States","geoPoint":{"lat":43.01253,"lon":-83.68746}},{"facility":"Healthy Heart Cardiology","city":"Grand Rapids","state":"Michigan","zip":"49546","country":"United States","geoPoint":{"lat":42.96336,"lon":-85.66809}},{"facility":"Rajendra H Mehta, MD, PC","city":"Jackson","state":"Michigan","zip":"49201","country":"United States","geoPoint":{"lat":42.24587,"lon":-84.40135}},{"facility":"Munson Medical Center","city":"Traverse City","state":"Michigan","zip":"49684","country":"United States","geoPoint":{"lat":44.76306,"lon":-85.62063}},{"facility":"Saint Marys Medical Center","city":"Duluth","state":"Minnesota","zip":"55805","country":"United States","geoPoint":{"lat":46.78327,"lon":-92.10658}},{"facility":"Minneapolis Heart Institute Foundation","city":"Minneapolis","state":"Minnesota","zip":"55407","country":"United States","geoPoint":{"lat":44.97997,"lon":-93.26384}},{"facility":"Saint Cloud Hospital","city":"Saint Cloud","state":"Minnesota","zip":"56303","country":"United States","geoPoint":{"lat":45.5608,"lon":-94.16249}},{"facility":"HealthEast Medical Research Institute","city":"Saint Paul","state":"Minnesota","zip":"55102","country":"United States","geoPoint":{"lat":44.94441,"lon":-93.09327}},{"facility":"Kansas City Veterans Affairs Medical Center","city":"Kansas City","state":"Missouri","zip":"64128","country":"United States","geoPoint":{"lat":39.09973,"lon":-94.57857}},{"facility":"Mercy Research","city":"Saint Louis","state":"Missouri","zip":"63141","country":"United States","geoPoint":{"lat":38.62727,"lon":-90.19789}},{"facility":"Great Falls Clinic LLP","city":"Great Falls","state":"Montana","zip":"59405","country":"United States","geoPoint":{"lat":47.50024,"lon":-111.30081}},{"facility":"Bryan Heart","city":"Lincoln","state":"Nebraska","zip":"68506","country":"United States","geoPoint":{"lat":40.8,"lon":-96.66696}},{"facility":"Nebraska Western Iowa Health Care System","city":"Omaha","state":"Nebraska","zip":"68105","country":"United States","geoPoint":{"lat":41.25626,"lon":-95.94043}},{"facility":"Palm Research Center Inc","city":"Las Vegas","state":"Nevada","zip":"89128","country":"United States","geoPoint":{"lat":36.17497,"lon":-115.13722}},{"facility":"Virtua Health, Inc.","city":"Voorhees","state":"New Jersey","zip":"08043","country":"United States","geoPoint":{"lat":40.48122,"lon":-74.48321}},{"facility":"Healthwise Medical Associates","city":"Brooklyn","state":"New York","zip":"11206","country":"United States","geoPoint":{"lat":40.6501,"lon":-73.94958}},{"facility":"Trinity Medical Western New York, PC","city":"Cheektowaga","state":"New York","zip":"14227","country":"United States","geoPoint":{"lat":42.90339,"lon":-78.75475}},{"facility":"WMCHealth Heart and Vascular Institute Kingston Division of Cardiology","city":"Kingston","state":"New York","zip":"12401","country":"United States","geoPoint":{"lat":41.92704,"lon":-73.99736}},{"facility":"Northwell Health Physician Partners Cardiology","city":"Manhasset","state":"New York","zip":"11030","country":"United States","geoPoint":{"lat":40.79788,"lon":-73.69957}},{"facility":"North Shore Diabetes and Endocrine Associates","city":"New Hyde Park","state":"New York","zip":"11042","country":"United States","geoPoint":{"lat":40.7351,"lon":-73.68791}},{"facility":"Northwell Health Lenox Hill Heart and Vascular","city":"New York","state":"New York","zip":"10022","country":"United States","geoPoint":{"lat":40.71427,"lon":-74.00597}},{"facility":"Hudson Valley Cardiovascular Physicians PC","city":"Poughkeepsie","state":"New York","zip":"12601","country":"United States","geoPoint":{"lat":41.70037,"lon":-73.92097}},{"facility":"Saratoga Clinical Research, LLC","city":"Saratoga Springs","state":"New York","zip":"12866","country":"United States","geoPoint":{"lat":43.08313,"lon":-73.78457}},{"facility":"Division of Cardiovascular Research at Peconic Bay Medical Center","city":"Southampton","state":"New York","zip":"11968","country":"United States","geoPoint":{"lat":40.88427,"lon":-72.38953}},{"facility":"Asheville Cardiology Associates","city":"Asheville","state":"North Carolina","zip":"28803","country":"United States","geoPoint":{"lat":35.60095,"lon":-82.55402}},{"facility":"University of North Carolina at Chapel Hill","city":"Chapel Hill","state":"North Carolina","zip":"27599","country":"United States","geoPoint":{"lat":35.9132,"lon":-79.05584}},{"facility":"Novant Health Heart and Vascular Institute","city":"Charlotte","state":"North Carolina","zip":"28204","country":"United States","geoPoint":{"lat":35.22709,"lon":-80.84313}},{"facility":"Moses H Cone Memorial Hospital","city":"Greensboro","state":"North Carolina","zip":"27401","country":"United States","geoPoint":{"lat":36.07264,"lon":-79.79198}},{"facility":"Crossroads Clinical Research Inc","city":"Mooresville","state":"North Carolina","zip":"28117","country":"United States","geoPoint":{"lat":35.58486,"lon":-80.81007}},{"facility":"Piedmont Medical Group Research of Rocky Mount","city":"Rocky Mount","state":"North Carolina","zip":"27804","country":"United States","geoPoint":{"lat":35.93821,"lon":-77.79053}},{"facility":"PMG Research of Salisbury","city":"Salisbury","state":"North Carolina","zip":"28144","country":"United States","geoPoint":{"lat":35.67097,"lon":-80.47423}},{"facility":"Novant Health Forsyth Medical Center","city":"Winston-Salem","state":"North Carolina","zip":"27103","country":"United States","geoPoint":{"lat":36.09986,"lon":-80.24422}},{"facility":"Wake Forest University Health Sciences","city":"Winston-Salem","state":"North Carolina","zip":"27157","country":"United States","geoPoint":{"lat":36.09986,"lon":-80.24422}},{"facility":"Lillestol Research LLC","city":"Fargo","state":"North Dakota","zip":"58104","country":"United States","geoPoint":{"lat":46.87719,"lon":-96.7898}},{"facility":"The Christ Hospital","city":"Cincinnati","state":"Ohio","zip":"45219","country":"United States","geoPoint":{"lat":39.12713,"lon":-84.51435}},{"facility":"University Hospitals Cleveland Medical Center","city":"Cleveland","state":"Ohio","zip":"44106","country":"United States","geoPoint":{"lat":41.4995,"lon":-81.69541}},{"facility":"North Ohio Heart Center","city":"Elyria","state":"Ohio","zip":"44035","country":"United States","geoPoint":{"lat":41.36838,"lon":-82.10765}},{"facility":"Sanjay Vora Research LLC","city":"Marion","state":"Ohio","zip":"43302","country":"United States","geoPoint":{"lat":40.58867,"lon":-83.12852}},{"facility":"North Ohio Heart Center-Sandusky","city":"Sandusky","state":"Ohio","zip":"44870","country":"United States","geoPoint":{"lat":41.44894,"lon":-82.70796}},{"facility":"Heart House Research Foundation","city":"Springfield","state":"Ohio","zip":"45504","country":"United States","geoPoint":{"lat":39.92423,"lon":-83.80882}},{"facility":"Intend Research","city":"Norman","state":"Oklahoma","zip":"73069","country":"United States","geoPoint":{"lat":35.22257,"lon":-97.43948}},{"facility":"Oklahoma Heart Institute","city":"Tulsa","state":"Oklahoma","zip":"74133","country":"United States","geoPoint":{"lat":36.15398,"lon":-95.99277}},{"facility":"Oregon Health and Science University","city":"Portland","state":"Oregon","zip":"97239","country":"United States","geoPoint":{"lat":45.52345,"lon":-122.67621}},{"facility":"Capital Area Research LLC","city":"Camp Hill","state":"Pennsylvania","zip":"17011","country":"United States","geoPoint":{"lat":40.23981,"lon":-76.91997}},{"facility":"Geisinger Holy Spirit","city":"Camp Hill","state":"Pennsylvania","zip":"17011","country":"United States","geoPoint":{"lat":40.23981,"lon":-76.91997}},{"facility":"Doylestown Health Cardiology","city":"Doylestown","state":"Pennsylvania","zip":"18901","country":"United States","geoPoint":{"lat":40.31011,"lon":-75.12989}},{"facility":"Lycoming Internal Medicine Inc","city":"Jersey Shore","state":"Pennsylvania","zip":"17740","country":"United States","geoPoint":{"lat":41.20202,"lon":-77.26442}},{"facility":"Perelman Center for Advanced Medicine","city":"Philadelphia","state":"Pennsylvania","zip":"19104","country":"United States","geoPoint":{"lat":39.95233,"lon":-75.16379}},{"facility":"Cardiology Consultants of Philadelphia CCP","city":"Philadelphia","state":"Pennsylvania","zip":"19107","country":"United States","geoPoint":{"lat":39.95233,"lon":-75.16379}},{"facility":"University of Pittsburgh Medical Center","city":"Pittsburgh","state":"Pennsylvania","zip":"15213","country":"United States","geoPoint":{"lat":40.44062,"lon":-79.99589}},{"facility":"Miriam Hospital","city":"Providence","state":"Rhode Island","zip":"02906","country":"United States","geoPoint":{"lat":41.82399,"lon":-71.41283}},{"facility":"Pharmacorp Clinical Trials Inc","city":"Charleston","state":"South Carolina","zip":"29412","country":"United States","geoPoint":{"lat":32.77657,"lon":-79.93092}},{"facility":"Piedmont Research Partners","city":"Fort Mill","state":"South Carolina","zip":"29707","country":"United States","geoPoint":{"lat":35.00737,"lon":-80.94508}},{"facility":"Tribe Clinical Research LLC DBA Mountain View Clinical Research","city":"Greenville","state":"South Carolina","zip":"29607","country":"United States","geoPoint":{"lat":34.85262,"lon":-82.39401}},{"facility":"Main Street Physicians Care Waterway","city":"Little River","state":"South Carolina","zip":"29566","country":"United States","geoPoint":{"lat":33.87323,"lon":-78.61418}},{"facility":"The Diabetes Center","city":"Murrells Inlet","state":"South Carolina","zip":"29576","country":"United States","geoPoint":{"lat":33.551,"lon":-79.04143}},{"facility":"Palmetto Clinical Research","city":"Summerville","state":"South Carolina","zip":"29485","country":"United States","geoPoint":{"lat":33.0185,"lon":-80.17565}},{"facility":"Monument Health Clinical Research","city":"Rapid City","state":"South Dakota","zip":"57701","country":"United States","geoPoint":{"lat":44.08054,"lon":-103.23101}},{"facility":"Parkway Cardiology Associates","city":"Oak Ridge","state":"Tennessee","zip":"37830","country":"United States","geoPoint":{"lat":36.01036,"lon":-84.26964}},{"facility":"Soltero Cardiovascular Research Center","city":"Dallas","state":"Texas","zip":"75226","country":"United States","geoPoint":{"lat":32.78306,"lon":-96.80667}},{"facility":"Southwest Family Medicine Associates","city":"Dallas","state":"Texas","zip":"75235","country":"United States","geoPoint":{"lat":32.78306,"lon":-96.80667}},{"facility":"Humble Cardiology Associates","city":"Kingwood","state":"Texas","zip":"77339","country":"United States","geoPoint":{"lat":30.03355,"lon":-95.26104}},{"facility":"Texas Cardiology Associates of Houston","city":"Kingwood","state":"Texas","zip":"77339","country":"United States","geoPoint":{"lat":30.03355,"lon":-95.26104}},{"facility":"Texas Institute for Kidney and Endocrine Disorders","city":"Lufkin","state":"Texas","zip":"75904","country":"United States","geoPoint":{"lat":31.33824,"lon":-94.7291}},{"facility":"Texas Institute of Cardiology","city":"McKinney","state":"Texas","zip":"75071","country":"United States","geoPoint":{"lat":33.19762,"lon":-96.61527}},{"facility":"Southern Endocrinology Associates PA","city":"Mesquite","state":"Texas","zip":"75149","country":"United States","geoPoint":{"lat":32.7668,"lon":-96.59916}},{"facility":"Permian Research Foundation","city":"Odessa","state":"Texas","zip":"79761","country":"United States","geoPoint":{"lat":31.84568,"lon":-102.36764}},{"facility":"South Texas Cardiovascular Consultants PLLC","city":"San Antonio","state":"Texas","zip":"78201","country":"United States","geoPoint":{"lat":29.42412,"lon":-98.49363}},{"facility":"Mercury Medical Conversions LTD","city":"San Antonio","state":"Texas","zip":"78229","country":"United States","geoPoint":{"lat":29.42412,"lon":-98.49363}},{"facility":"Northwest Houston Heart Center","city":"Tomball","state":"Texas","zip":"77375","country":"United States","geoPoint":{"lat":30.09716,"lon":-95.61605}},{"facility":"Alpine Research Organization","city":"Farmington","state":"Utah","zip":"84025","country":"United States","geoPoint":{"lat":40.9805,"lon":-111.88744}},{"facility":"Suffolk Multispecialty Research LLC","city":"Suffolk","state":"Virginia","zip":"23435","country":"United States","geoPoint":{"lat":36.72836,"lon":-76.58496}},{"facility":"Selma Medical Associates","city":"Winchester","state":"Virginia","zip":"22601","country":"United States","geoPoint":{"lat":39.18566,"lon":-78.16333}},{"facility":"Multicare Institute for Research and Innovation","city":"Puyallup","state":"Washington","zip":"98372","country":"United States","geoPoint":{"lat":47.18538,"lon":-122.2929}},{"facility":"Universal Research Group LLC","city":"Tacoma","state":"Washington","zip":"98405","country":"United States","geoPoint":{"lat":47.25288,"lon":-122.44429}},{"facility":"Aspirus Research Institute","city":"Wausau","state":"Wisconsin","zip":"54401","country":"United States","geoPoint":{"lat":44.95914,"lon":-89.63012}},{"facility":"Instituto de Investigaciones Clinicas Bahia Blanca","city":"Bahia Blanca","state":"Buenos Aires","zip":"B8000FTD","country":"Argentina","geoPoint":{"lat":-38.71959,"lon":-62.27243}},{"facility":"Stat Research","city":"Caba","state":"Buenos Aires","zip":"C1023AAB","country":"Argentina","geoPoint":{"lat":-34.61315,"lon":-58.37723}},{"facility":"Cinme - Centro de Investigaciones Metabolicas","city":"Caba","state":"Buenos Aires","zip":"C1027AAP","country":"Argentina","geoPoint":{"lat":-34.61315,"lon":-58.37723}},{"facility":"Ciprec - Centro de Investigacion y Prevencion Cardiovascular","city":"Caba","state":"Buenos Aires","zip":"C1119ACN","country":"Argentina","geoPoint":{"lat":-34.61315,"lon":-58.37723}},{"facility":"Consultorio Medico Dr Litvak Bruno","city":"Caba","state":"Buenos Aires","zip":"C1406BOA","country":"Argentina","geoPoint":{"lat":-34.61315,"lon":-58.37723}},{"facility":"Centro de Especialidades Medicas - Cemedic","city":"Caba","state":"Buenos Aires","zip":"C1407GTN","country":"Argentina","geoPoint":{"lat":-34.61315,"lon":-58.37723}},{"facility":"Centro Medico Laura Maffei","city":"Caba","state":"Buenos Aires","zip":"C1425AGC","country":"Argentina","geoPoint":{"lat":-34.61315,"lon":-58.37723}},{"facility":"Cardiología Palermo","city":"Caba","state":"Buenos Aires","zip":"C1425BNG","country":"Argentina","geoPoint":{"lat":-34.61315,"lon":-58.37723}},{"facility":"Cedic - Centro de Investigacion Clinica","city":"Caba","state":"Buenos Aires","zip":"C1425DES","country":"Argentina","geoPoint":{"lat":-34.61315,"lon":-58.37723}},{"facility":"Centro Medico Dra De Salvo","city":"Caba","state":"Buenos Aires","zip":"C1426ABP","country":"Argentina","geoPoint":{"lat":-34.61315,"lon":-58.37723}},{"facility":"Fundacion Respirar","city":"Caba","state":"Buenos Aires","zip":"C1426ABP","country":"Argentina","geoPoint":{"lat":-34.61315,"lon":-58.37723}},{"facility":"Instituto de Investigaciones Metabolicas - Idim","city":"Ciudad Autonoma de Buenos Aires","state":"Buenos Aires","zip":"C1012AAR","country":"Argentina","geoPoint":{"lat":-34.61315,"lon":-58.37723}},{"facility":"Hospital Universitario Fundacion Favaloro","city":"Ciudad Autonoma de Buenos Aires","state":"Buenos Aires","zip":"C1093AAS","country":"Argentina","geoPoint":{"lat":-34.61315,"lon":-58.37723}},{"facility":"Icba - Instituto Cardiovascular de Buenos Aires","city":"Ciudad Autonoma de Buenos Aires","state":"Buenos Aires","zip":"C1428ART","country":"Argentina","geoPoint":{"lat":-34.61315,"lon":-58.37723}},{"facility":"Glenny Corp SA","city":"Ciudad Autonoma de Buenos Aires","state":"Buenos Aires","zip":"C1430CKE","country":"Argentina","geoPoint":{"lat":-34.61315,"lon":-58.37723}},{"facility":"Instituto de Investigaciones Clinicas Mar del Plata","city":"Mar del Plata","state":"Buenos Aires","zip":"B7600FZN","country":"Argentina","geoPoint":{"lat":-38.00228,"lon":-57.55754}},{"facility":"Ciad - Consultorio Integral de Atencion al Diabetico","city":"Moron","state":"Buenos Aires","zip":"B1708EPE","country":"Argentina","geoPoint":{"lat":-34.6509,"lon":-58.61956}},{"facility":"Dim Clinica Privada","city":"Ramos Mejia","state":"Buenos Aires","zip":"B1704ETD","country":"Argentina","geoPoint":{"lat":-34.6551,"lon":-58.55318}},{"facility":"Instituto de Investigaciones Clinicas de San Nicolas","city":"San Nicolas","state":"Buenos Aires","zip":"B2900DMH","country":"Argentina"},{"facility":"Instituto de Investigaciones Clinicas Zarate","city":"Zarate","state":"Buenos Aires","zip":"B2800DGH","country":"Argentina","geoPoint":{"lat":-34.09814,"lon":-59.02858}},{"facility":"Clinica Privada del Prado","city":"Cordoba","state":"Córdoba","zip":"5000","country":"Argentina","geoPoint":{"lat":-31.4135,"lon":-64.18105}},{"facility":"Clinica Fusavim Privada SRL","city":"Villa Maria","state":"Córdoba","zip":"X5900JKA","country":"Argentina","geoPoint":{"lat":-32.40751,"lon":-63.24016}},{"facility":"Sanatorio Santa Rosa Srl","city":"Santa Rosa","state":"La Pampa","zip":"6300","country":"Argentina","geoPoint":{"lat":-36.61667,"lon":-64.28333}},{"facility":"Instituto de Investigaciones Clínicas Rosario-Sanatorio Delta","city":"Rosario","state":"Santa Fe","zip":"2000","country":"Argentina","geoPoint":{"lat":-32.94682,"lon":-60.63932}},{"facility":"Sanatorio Plaza","city":"Rosario","state":"Santa Fe","zip":"2000","country":"Argentina","geoPoint":{"lat":-32.94682,"lon":-60.63932}},{"facility":"Centro Modelo de Cardiologia","city":"San Miguel de Tucuman","state":"Tucuman","zip":"4000","country":"Argentina","geoPoint":{"lat":-26.82414,"lon":-65.2226}},{"facility":"Clinical Mayo de Urgencias Medicas Cruz Blanca SRL","city":"San Miguel de Tucuman","state":"Tucuman","zip":"4000","country":"Argentina","geoPoint":{"lat":-26.82414,"lon":-65.2226}},{"facility":"Instituto de Cardiologia de Corrientes Juana Francisca Cabral","city":"Corrientes","zip":"W3400AMZ","country":"Argentina","geoPoint":{"lat":-27.4806,"lon":-58.8341}},{"facility":"Instituto Medico DAMIC - Fundacion Rusculleda","city":"Córdoba","zip":"X5003DCE","country":"Argentina","geoPoint":{"lat":-31.4135,"lon":-64.18105}},{"facility":"Cordis Sa","city":"Salta","zip":"A4400ANW","country":"Argentina","geoPoint":{"lat":-24.7859,"lon":-65.41166}},{"facility":"Clinica El Castano","city":"San Juan","zip":"J5400ARW","country":"Argentina","geoPoint":{"lat":-31.5375,"lon":-68.53639}},{"facility":"Instituto Cardiovascular San Luis","city":"San Luis","zip":"D5702JRS","country":"Argentina","geoPoint":{"lat":-33.29501,"lon":-66.33563}},{"facility":"Centro de Investigaciones Clinicas del Litoral","city":"Santa Fe","zip":"S3000FWO","country":"Argentina","geoPoint":{"lat":-31.63333,"lon":-60.7}},{"facility":"Canberra Hospital","city":"Garran","state":"Australian Capital Territory","zip":"2605","country":"Australia","geoPoint":{"lat":-35.34206,"lon":149.10846}},{"facility":"Royal Prince Alfred Hospital","city":"Camperdown","state":"New South Wales","zip":"2050","country":"Australia","geoPoint":{"lat":-33.88965,"lon":151.17642}},{"facility":"Liverpool Hospital","city":"Liverpool","state":"New South Wales","zip":"2170","country":"Australia","geoPoint":{"lat":-33.90011,"lon":150.93328}},{"facility":"Australian Clinical Research Network","city":"Maroubra","state":"New South Wales","zip":"2035","country":"Australia","geoPoint":{"lat":-33.95,"lon":151.23333}},{"facility":"Heartcare Partners","city":"Auchenflower","state":"Queensland","zip":"4066","country":"Australia","geoPoint":{"lat":-27.47443,"lon":152.99213}},{"facility":"Bundaberg Cardiology","city":"Bundaberg","state":"Queensland","zip":"4670","country":"Australia","geoPoint":{"lat":-24.86621,"lon":152.3479}},{"facility":"Holdsworth House Medical Brisbane","city":"Fortitude Valley","state":"Queensland","zip":"4006","country":"Australia","geoPoint":{"lat":-27.45706,"lon":153.03178}},{"facility":"Core Research Group Pty Ltd","city":"Milton","state":"Queensland","zip":"4064","country":"Australia","geoPoint":{"lat":-35.31644,"lon":150.4361}},{"facility":"Heart and Vascular Research","city":"Adelaide","state":"South Australia","zip":"5000","country":"Australia","geoPoint":{"lat":-34.92866,"lon":138.59863}},{"facility":"Royal Adelaide Hospital","city":"Adelaide","state":"South Australia","zip":"5000","country":"Australia","geoPoint":{"lat":-34.92866,"lon":138.59863}},{"facility":"SA Heart","city":"Ashford","state":"South Australia","zip":"5035","country":"Australia","geoPoint":{"lat":-29.32191,"lon":151.09308}},{"facility":"Adelaide Cardiology Practice - Leabrook Clinic","city":"Leabrook","state":"South Australia","zip":"5068","country":"Australia","geoPoint":{"lat":-34.92976,"lon":138.65862}},{"facility":"Royal Hobart Hospital","city":"Hobart","state":"Tasmania","zip":"7000","country":"Australia","geoPoint":{"lat":-42.87936,"lon":147.32941}},{"facility":"HeartCare Victoria - Berwick","city":"Berwick","state":"Victoria","zip":"3806","country":"Australia","geoPoint":{"lat":-38.03333,"lon":145.35}},{"facility":"Monash Medical Centre","city":"Clayton","state":"Victoria","zip":"3168","country":"Australia","geoPoint":{"lat":-37.91667,"lon":145.11667}},{"facility":"The Cardiologists Proprietary Limited","city":"Epping","state":"Victoria","zip":"3076","country":"Australia","geoPoint":{"lat":-37.65,"lon":145.03333}},{"facility":"Barwon Health Geelong Hospital","city":"Geelong","state":"Victoria","zip":"3220","country":"Australia","geoPoint":{"lat":-38.14711,"lon":144.36069}},{"facility":"GenesisCare Ringwood","city":"Ringwood","state":"Victoria","zip":"3134","country":"Australia","geoPoint":{"lat":-37.81667,"lon":145.23333}},{"facility":"Curtin University Centre of Clinical Research and Education","city":"Bentley","state":"Western Australia","zip":"6102","country":"Australia","geoPoint":{"lat":-32.0,"lon":115.91667}},{"facility":"HeartCare Western Australia - Joondalup","city":"Joondalup","state":"Western Australia","zip":"5068","country":"Australia","geoPoint":{"lat":-31.74445,"lon":115.76835}},{"facility":"Fiona Stanley Hospital","city":"Murdoch","state":"Western Australia","zip":"6150","country":"Australia","geoPoint":{"lat":-32.06987,"lon":115.83757}},{"facility":"Dr Heart Pty Ltd","city":"Woolloongabba","zip":"4102","country":"Australia","geoPoint":{"lat":-27.48855,"lon":153.03655}},{"facility":"Landeskrankenhaus Feldkirch","city":"Feldkirch","zip":"6800","country":"Austria","geoPoint":{"lat":47.23306,"lon":9.6}},{"facility":"Medizinische Universitaet Graz","city":"Graz","zip":"8036","country":"Austria","geoPoint":{"lat":47.06667,"lon":15.45}},{"facility":"Medizinische Universitaet Innsbruck","city":"Innsbruck","zip":"6020","country":"Austria","geoPoint":{"lat":47.26266,"lon":11.39454}},{"facility":"Klinikum Klagenfurt am Woerthersee","city":"Klagenfurt","zip":"9020","country":"Austria","geoPoint":{"lat":46.62472,"lon":14.30528}},{"facility":"Ordensklinikum Linz Barmherzige Schwestern","city":"Linz","zip":"4010","country":"Austria","geoPoint":{"lat":48.30639,"lon":14.28611}},{"facility":"Klinik Landstrasse","city":"Wien","zip":"1030","country":"Austria","geoPoint":{"lat":48.20849,"lon":16.37208}},{"facility":"Zentrum fuer klinische Studien - Dr Hanusch GmbH","city":"Wien","zip":"1060","country":"Austria","geoPoint":{"lat":48.20849,"lon":16.37208}},{"facility":"Universitaetsklinikum Allgemeines Krankenhaus Wien","city":"Wien","zip":"1090","country":"Austria","geoPoint":{"lat":48.20849,"lon":16.37208}},{"facility":"Klinik Hietzing","city":"Wien","zip":"1130","country":"Austria","geoPoint":{"lat":48.20849,"lon":16.37208}},{"facility":"Klinik Ottakring","city":"Wien","zip":"1160","country":"Austria","geoPoint":{"lat":48.20849,"lon":16.37208}},{"facility":"Algemeen Stedelijk Ziekenhuis Aalst","city":"Aalst","zip":"9300","country":"Belgium","geoPoint":{"lat":50.93604,"lon":4.0355}},{"facility":"Onze Lieve Vrouw Ziekenhuis - campus Aalst","city":"Aalst","zip":"9300","country":"Belgium","geoPoint":{"lat":50.93604,"lon":4.0355}},{"facility":"Ziekenhuis Netwerk Antwerpen Middelheim","city":"Antwerpen","zip":"2020","country":"Belgium","geoPoint":{"lat":51.21989,"lon":4.40346}},{"facility":"Ziekenhuis Netwerk Antwerpen Stuivenberg","city":"Antwerpen","zip":"2060","country":"Belgium","geoPoint":{"lat":51.21989,"lon":4.40346}},{"facility":"Universite Catholique de Louvain Cliniques Universitaires Saint Luc","city":"Bruxelles","zip":"1200","country":"Belgium","geoPoint":{"lat":50.85045,"lon":4.34878}},{"facility":"AZ Sint Blasius","city":"Dendermonde","zip":"9200","country":"Belgium","geoPoint":{"lat":51.02869,"lon":4.10106}},{"facility":"Algemeen Ziekenhuis Sint Lucas","city":"Gent","zip":"9000","country":"Belgium","geoPoint":{"lat":51.05,"lon":3.71667}},{"facility":"Medif sprl","city":"Gozee","zip":"6534","country":"Belgium","geoPoint":{"lat":50.33461,"lon":4.35273}},{"facility":"Dokter Mortelmans bvba","city":"Ham","zip":"3945","country":"Belgium"},{"facility":"Jessa Ziekenhuis - Campus Virga Jesse","city":"Hasselt","zip":"3500","country":"Belgium","geoPoint":{"lat":50.93106,"lon":5.33781}},{"facility":"Universitair Ziekenhuis Leuven - Campus Gasthuisberg","city":"Leuven","zip":"3000","country":"Belgium","geoPoint":{"lat":50.87959,"lon":4.70093}},{"facility":"Medilink sprl","city":"Linkebeek","zip":"1630","country":"Belgium","geoPoint":{"lat":50.76781,"lon":4.33688}},{"facility":"Centre Hospitalier Universitair Ambroise Pare","city":"Mons","zip":"7000","country":"Belgium","geoPoint":{"lat":50.45413,"lon":3.95229}},{"facility":"Maria Ziekenhuis Noord-Limburg","city":"Pelt","zip":"3900","country":"Belgium"},{"facility":"Testumed vzw","city":"Tessenderlo","zip":"3980","country":"Belgium","geoPoint":{"lat":51.06513,"lon":5.08856}},{"facility":"Centro de Pesquisas em Diabetes e Doencas Endocrino Metabolicas","city":"Fortaleza","state":"Ceará","zip":"60430-350","country":"Brazil","geoPoint":{"lat":-3.71722,"lon":-38.54306}},{"facility":"Centro de Pesquisa Clinica do Brasil","city":"Brasília","state":"Distrito Federal","zip":"71625-175","country":"Brazil","geoPoint":{"lat":-15.77972,"lon":-47.92972}},{"facility":"Cardresearch Cardiologia Assistencial de Pesquisa","city":"Belo Horizonte","state":"Minas Gerais","zip":"30150-240","country":"Brazil","geoPoint":{"lat":-19.92083,"lon":-43.93778}},{"facility":"Fundaçao Hospitalar Sao Francisco de Assis","city":"Belo Horizonte","state":"Minas Gerais","zip":"31110-580","country":"Brazil","geoPoint":{"lat":-19.92083,"lon":-43.93778}},{"facility":"Eurolatino Pesquisas Medicas","city":"Uberlandia","state":"Minas Gerais","zip":"38411-186","country":"Brazil","geoPoint":{"lat":-18.91861,"lon":-48.27722}},{"facility":"Sociedade Hospitalar Angelina Caron","city":"Campina Grande do Sul","state":"Paraná","zip":"83430-000","country":"Brazil","geoPoint":{"lat":-25.30556,"lon":-49.05528}},{"facility":"Quanta Diagnosticos e Terapia","city":"Curitiba","state":"Paraná","zip":"80045-170","country":"Brazil","geoPoint":{"lat":-25.42778,"lon":-49.27306}},{"facility":"Puc Trials - Núcleo de Pesquisa Clínica da Escola de Medicina da Pucpr/Epicenter","city":"Curitiba","state":"Paraná","zip":"80230-130","country":"Brazil","geoPoint":{"lat":-25.42778,"lon":-49.27306}},{"facility":"Nucleo de Pesquisa Clinica","city":"Curitiba","state":"Paraná","zip":"80730-150","country":"Brazil","geoPoint":{"lat":-25.42778,"lon":-49.27306}},{"facility":"Núcleo de Pesquisa em Cirurgia Vascular","city":"Porto Alegre","state":"Rio Grande Do Sul","zip":"90035-903","country":"Brazil","geoPoint":{"lat":-30.03306,"lon":-51.23}},{"facility":"Hospital Sao Lucas da Pontificia Universidade Catolica do Rio Grande do Sul","city":"Porto Alegre","state":"Rio Grande Do Sul","zip":"90610-000","country":"Brazil","geoPoint":{"lat":-30.03306,"lon":-51.23}},{"facility":"Hospital Nossa Senhora da Conceicao","city":"Porto Alegre","state":"Rio Grande Do Sul","zip":"91350-200","country":"Brazil","geoPoint":{"lat":-30.03306,"lon":-51.23}},{"facility":"AngioCor Blumenau","city":"Blumenau","state":"Santa Catarina","zip":"89020-430","country":"Brazil","geoPoint":{"lat":-26.91944,"lon":-49.06611}},{"facility":"Centro Especializado em Cardiologia","city":"Campinas","state":"São Paulo","zip":"13010-001","country":"Brazil","geoPoint":{"lat":-22.90556,"lon":-47.06083}},{"facility":"Instituto de Pesquisa Clinica de Campinas","city":"Campinas","state":"São Paulo","zip":"13060-080","country":"Brazil","geoPoint":{"lat":-22.90556,"lon":-47.06083}},{"facility":"Instituto do Coracao de Marilia","city":"Marilia","state":"São Paulo","zip":"17515-000","country":"Brazil","geoPoint":{"lat":-22.21389,"lon":-49.94583}},{"facility":"Centro de Pesquisas Clinicas Cpclin","city":"Sao Paulo","state":"São Paulo","zip":"01228-200","country":"Brazil","geoPoint":{"lat":-23.5475,"lon":-46.63611}},{"facility":"Fundacao Faculdade Regional de Medicina de Sao Jose do Rio Preto","city":"São José do Rio Preto","state":"São Paulo","zip":"15090-000","country":"Brazil","geoPoint":{"lat":-20.81972,"lon":-49.37944}},{"facility":"IBPClin Instituto Brasil de Pesquisa Clinica","city":"Rio de Janeiro","zip":"20241-180","country":"Brazil","geoPoint":{"lat":-22.90278,"lon":-43.2075}},{"facility":"Instituto do Coracao do Hospital das Clinicas da Faculdade de Medicina da Universidade de Sao Paulo","city":"São Paulo","zip":"05403-000","country":"Brazil","geoPoint":{"lat":-23.5475,"lon":-46.63611}},{"facility":"Ambulatory for special outpatient medical aid in Cardiology-Private Practice Dr Elena Dotcheva EOOD","city":"Burgas","zip":"8000","country":"Bulgaria","geoPoint":{"lat":42.50606,"lon":27.46781}},{"facility":"Multiprofile Hospital for Active Treatment - Haskovo AD","city":"Haskovo","zip":"6300","country":"Bulgaria","geoPoint":{"lat":41.93415,"lon":25.55557}},{"facility":"Specialty Hospital for Active treatment in Cardiology Sveti Georgi - Pernik OOD","city":"Pernik","zip":"2300","country":"Bulgaria","geoPoint":{"lat":42.6,"lon":23.03333}},{"facility":"Medical Center Medconsult OOD","city":"Pleven","zip":"5800","country":"Bulgaria","geoPoint":{"lat":43.41667,"lon":24.61667}},{"facility":"University Multiprofile Hospital for Active Treatment Dr Georgi Stranski EAD","city":"Pleven","zip":"5800","country":"Bulgaria","geoPoint":{"lat":43.41667,"lon":24.61667}},{"facility":"University Multiprofile Hospital for Active Treatment Sveti Georgi EAD","city":"Plovdiv","zip":"4001","country":"Bulgaria","geoPoint":{"lat":42.15,"lon":24.75}},{"facility":"Multiprofile Hospital for Active Treatment- Medical Complex- Sveti Ivan Rilski EOOD","city":"Plovdiv","zip":"4003","country":"Bulgaria","geoPoint":{"lat":42.15,"lon":24.75}},{"facility":"Fifth Multiprofile Hospital for Active Treatment - Sofia EAD","city":"Sofia","zip":"1233","country":"Bulgaria","geoPoint":{"lat":42.69751,"lon":23.32415}},{"facility":"National Multiprofile Transport Hospital Tzar Boris III","city":"Sofia","zip":"1233","country":"Bulgaria","geoPoint":{"lat":42.69751,"lon":23.32415}},{"facility":"Medical Center for Specialized Medical Care of Cardiovascular Diseases OOD","city":"Sofia","zip":"1309","country":"Bulgaria","geoPoint":{"lat":42.69751,"lon":23.32415}},{"facility":"Acibadem City Clinic Multiprofile Hospital for Active Treatment Tokuda EAD","city":"Sofia","zip":"1407","country":"Bulgaria","geoPoint":{"lat":42.69751,"lon":23.32415}},{"facility":"Medical Center Excelsior OOD","city":"Sofia","zip":"1407","country":"Bulgaria","geoPoint":{"lat":42.69751,"lon":23.32415}},{"facility":"University Multiprofile Hospital for Active Treatment Tsaritsa Yoanna - ISUL EAD","city":"Sofia","zip":"1527","country":"Bulgaria","geoPoint":{"lat":42.69751,"lon":23.32415}},{"facility":"University Multiprofile Hospital for Active Treatment and Emergency Medicine N I Pirogov EAD","city":"Sofia","zip":"1606","country":"Bulgaria","geoPoint":{"lat":42.69751,"lon":23.32415}},{"facility":"Diagnostic-Consultative Center Convex EOOD","city":"Sofia","zip":"1680","country":"Bulgaria","geoPoint":{"lat":42.69751,"lon":23.32415}},{"facility":"Medical Center Kalimat EOOD","city":"Sofia","zip":"1680","country":"Bulgaria","geoPoint":{"lat":42.69751,"lon":23.32415}},{"facility":"Multiprofile Hospital for Active Treatment Sveta Anna Sofia AD","city":"Sofia","zip":"1750","country":"Bulgaria","geoPoint":{"lat":42.69751,"lon":23.32415}},{"facility":"Medical Center Orpheus OOD","city":"Stara Zagora","zip":"6000","country":"Bulgaria","geoPoint":{"lat":42.43278,"lon":25.64194}},{"facility":"Multiprofile Regional Hospital for Active Treatment Dr Stefan Cherkezov AD","city":"Veliko Tarnovo","zip":"5002","country":"Bulgaria","geoPoint":{"lat":43.08124,"lon":25.62904}},{"facility":"LMC Clinical Research Incorporated","city":"Calgary","state":"Alberta","zip":"T2H 2G4","country":"Canada","geoPoint":{"lat":51.05011,"lon":-114.08529}},{"facility":"SMH Cardiology Clinical Trials Incorporated","city":"Surrey","state":"British Columbia","zip":"V3V 0C6","country":"Canada","geoPoint":{"lat":49.10635,"lon":-122.82509}},{"facility":"Dr T G Elliott Incorporated - BC Diabetes","city":"Vancouver","state":"British Columbia","zip":"V5Y 3W2","country":"Canada","geoPoint":{"lat":49.24966,"lon":-123.11934}},{"facility":"Winnipeg Clinic","city":"Winnipeg","state":"Manitoba","zip":"R3C 0N2","country":"Canada","geoPoint":{"lat":49.8844,"lon":-97.14704}},{"facility":"G A Research Associates Limited","city":"Moncton","state":"New Brunswick","zip":"E1G 1A7","country":"Canada","geoPoint":{"lat":46.09454,"lon":-64.7965}},{"facility":"Commonwealth Medical Clinic","city":"Mount Pearl","state":"Newfoundland and Labrador","zip":"A1N 1W7","country":"Canada","geoPoint":{"lat":47.51659,"lon":-52.78135}},{"facility":"Queen Elizabeth II Health Sciences Centre, Halifax Infirmary","city":"Halifax","state":"Nova Scotia","zip":"B3H 3A7","country":"Canada","geoPoint":{"lat":44.64533,"lon":-63.57239}},{"facility":"Heart Health Institute","city":"Ajax","state":"Ontario","zip":"L1Z 0B1","country":"Canada","geoPoint":{"lat":43.85012,"lon":-79.03288}},{"facility":"LMC Clinical Research Incorporated","city":"Barrie","state":"Ontario","zip":"L4N 7L3","country":"Canada","geoPoint":{"lat":44.40011,"lon":-79.66634}},{"facility":"LMC Clinical Research Incorporated","city":"Brampton","state":"Ontario","zip":"L6S 0C6","country":"Canada","geoPoint":{"lat":43.68341,"lon":-79.76633}},{"facility":"Brampton Clinical Trials","city":"Brampton","state":"Ontario","zip":"L6Z 4N5","country":"Canada","geoPoint":{"lat":43.68341,"lon":-79.76633}},{"facility":"LMC Clinical Research Incorporated Thornhill","city":"Concord","state":"Ontario","zip":"L4K 4M2","country":"Canada","geoPoint":{"lat":43.80011,"lon":-79.48291}},{"facility":"LMC Clinical Research Incorporated","city":"Etobicoke","state":"Ontario","zip":"M9R 4E1","country":"Canada","geoPoint":{"lat":43.65421,"lon":-79.56711}},{"facility":"Hamilton Health Sciences Hamilton General Hospital","city":"Hamilton","state":"Ontario","zip":"L8L 2X2","country":"Canada","geoPoint":{"lat":43.25011,"lon":-79.84963}},{"facility":"Western Centre for Public Health and Family Medicine - Western University","city":"London","state":"Ontario","zip":"N6G 2M1","country":"Canada","geoPoint":{"lat":42.98339,"lon":-81.23304}},{"facility":"My Endo Diabetes and Endocrinology Center","city":"Markham","state":"Ontario","zip":"L3P 7P2","country":"Canada","geoPoint":{"lat":43.86682,"lon":-79.2663}},{"facility":"LMC Clinical Research Incorporated","city":"Nepean","state":"Ontario","zip":"K2J 0V2","country":"Canada","geoPoint":{"lat":45.2775,"lon":-75.77306}},{"facility":"Partners in Advanced Cardiac Evaluation","city":"Newmarket","state":"Ontario","zip":"L3Y 2P6","country":"Canada","geoPoint":{"lat":44.05011,"lon":-79.46631}},{"facility":"SKDS Research Incorporated","city":"Newmarket","state":"Ontario","zip":"L3Y 5G8","country":"Canada","geoPoint":{"lat":44.05011,"lon":-79.46631}},{"facility":"Oakville Cardiovascular Research","city":"Oakville","state":"Ontario","zip":"L6K 3W7","country":"Canada","geoPoint":{"lat":43.45011,"lon":-79.68292}},{"facility":"Dr James Cha","city":"Oshawa","state":"Ontario","zip":"L1J 2K1","country":"Canada","geoPoint":{"lat":43.90012,"lon":-78.84957}},{"facility":"Kawartha Cardiology Clinical Trials","city":"Peterborough","state":"Ontario","zip":"K9J 0B2","country":"Canada","geoPoint":{"lat":44.30012,"lon":-78.31623}},{"facility":"Bluewater Clinical Research Group Incorporated","city":"Sarnia","state":"Ontario","zip":"N7T 4X3","country":"Canada","geoPoint":{"lat":42.97866,"lon":-82.40407}},{"facility":"Heart Health Institute Research Incorporated","city":"Scarborough","state":"Ontario","zip":"M1B 4Z8","country":"Canada","geoPoint":{"lat":43.77223,"lon":-79.25666}},{"facility":"Corcare Cardiovascular Research","city":"Scarborough","state":"Ontario","zip":"M1B 5N1","country":"Canada","geoPoint":{"lat":43.77223,"lon":-79.25666}},{"facility":"Womens College Hospital","city":"Toronto","state":"Ontario","zip":"M5S 1B2","country":"Canada","geoPoint":{"lat":43.70011,"lon":-79.4163}},{"facility":"North York Diagnostic and Cardiac Centre","city":"Toronto","state":"Ontario","zip":"M6B 3H7","country":"Canada","geoPoint":{"lat":43.70011,"lon":-79.4163}},{"facility":"Office of Dr Louis Yao","city":"Weston","state":"Ontario","zip":"M9N 1W4","country":"Canada"},{"facility":"Ecogene-21","city":"Chicoutimi","state":"Quebec","zip":"G7H 7K9","country":"Canada","geoPoint":{"lat":48.41963,"lon":-71.06369}},{"facility":"Manna Research Incorporated","city":"Levis","state":"Quebec","zip":"G6W 0M5","country":"Canada","geoPoint":{"lat":46.80326,"lon":-71.17793}},{"facility":"Clinique Sante Cardio MC","city":"Montreal","state":"Quebec","zip":"H1T 3Y7","country":"Canada","geoPoint":{"lat":45.50884,"lon":-73.58781}},{"facility":"Institut de recherches cliniques de Montreal","city":"Montreal","state":"Quebec","zip":"H2W 1R7","country":"Canada","geoPoint":{"lat":45.50884,"lon":-73.58781}},{"facility":"McGill University Health Centre - Montreal General Hospital","city":"Montreal","state":"Quebec","zip":"H3G 1A4","country":"Canada","geoPoint":{"lat":45.50884,"lon":-73.58781}},{"facility":"Applied Medical Informatics Research Incorporated","city":"Montreal","state":"Quebec","zip":"H4A 3T2","country":"Canada","geoPoint":{"lat":45.50884,"lon":-73.58781}},{"facility":"Centre intégré de santé et de services sociaux (CISSS) des Laurentides - Unité de recherche clini","city":"St Jerome","state":"Quebec","zip":"J7Z 5T3","country":"Canada","geoPoint":{"lat":45.78036,"lon":-74.00365}},{"facility":"Clinique des Maladies Lipidiques de Quebec Incorporated","city":"Quebec","zip":"G1V 4W2","country":"Canada","geoPoint":{"lat":46.81228,"lon":-71.21454}},{"facility":"MUDr Igor Karen","city":"Benatky nad Jizerou","zip":"294 71","country":"Czechia","geoPoint":{"lat":50.29085,"lon":14.82343}},{"facility":"Jessenia as, Nemocnice Beroun","city":"Beroun","zip":"266 01","country":"Czechia","geoPoint":{"lat":49.96382,"lon":14.072}},{"facility":"Medicentrum Beroun sro","city":"Beroun","zip":"266 01","country":"Czechia","geoPoint":{"lat":49.96382,"lon":14.072}},{"facility":"Medicus Services sro","city":"Brandys nad Labem","zip":"250 01","country":"Czechia","geoPoint":{"lat":50.18356,"lon":14.67244}},{"facility":"Amkardia sro","city":"Brno","zip":"602 00","country":"Czechia","geoPoint":{"lat":49.19522,"lon":16.60796}},{"facility":"CCR Brno sro","city":"Brno","zip":"602 00","country":"Czechia","geoPoint":{"lat":49.19522,"lon":16.60796}},{"facility":"Centrum pro zdravi sro","city":"Brno","zip":"603 00","country":"Czechia","geoPoint":{"lat":49.19522,"lon":16.60796}},{"facility":"Kardiologicka ambulance Brno sro","city":"Brno","zip":"612 00","country":"Czechia","geoPoint":{"lat":49.19522,"lon":16.60796}},{"facility":"Fakultni nemocnice Brno","city":"Brno","zip":"625 00","country":"Czechia","geoPoint":{"lat":49.19522,"lon":16.60796}},{"facility":"Vojenska nemocnice Brno","city":"Brno","zip":"636 00","country":"Czechia","geoPoint":{"lat":49.19522,"lon":16.60796}},{"facility":"prof MUDr Lubomir Elbl, CSc, Kardiologicka ambulance","city":"Brno","zip":"638 00","country":"Czechia","geoPoint":{"lat":49.19522,"lon":16.60796}},{"facility":"Edumed sro, Kardiologicka ambulance","city":"Broumov","zip":"550 01","country":"Czechia","geoPoint":{"lat":50.58566,"lon":16.33181}},{"facility":"Cevni centrum Ceske Budejovice sro","city":"Ceske Budejovice","zip":"370 11","country":"Czechia","geoPoint":{"lat":48.97447,"lon":14.47434}},{"facility":"Dika centrum sro","city":"Havirov - Mesto","zip":"736 01","country":"Czechia"},{"facility":"Clinical Trial Center Hodonin sro","city":"Hodonin","zip":"695 01","country":"Czechia","geoPoint":{"lat":48.84893,"lon":17.13244}},{"facility":"Kardio Holesov sro","city":"Holesov","zip":"769 01","country":"Czechia","geoPoint":{"lat":49.33331,"lon":17.57832}},{"facility":"MUDr Ladislava Harrerova, kardiologicka ordinace","city":"Hradec Kralove","zip":"500 02","country":"Czechia","geoPoint":{"lat":50.20923,"lon":15.83277}},{"facility":"Karlovarska krajska nemocnice","city":"Karlovy Vary","zip":"360 01","country":"Czechia","geoPoint":{"lat":50.23271,"lon":12.87117}},{"facility":"Oblastni nemocnice Kladno as","city":"Kladno","zip":"272 59","country":"Czechia","geoPoint":{"lat":50.14734,"lon":14.10285}},{"facility":"Kardio Michal Cepelak sro","city":"Klatovy IV","zip":"339 01","country":"Czechia"},{"facility":"Oblastni nemocnice Kolin as","city":"Kolin III","zip":"280 02","country":"Czechia"},{"facility":"Krajska nemocnice Liberec as","city":"Liberec","zip":"460 63","country":"Czechia","geoPoint":{"lat":50.76711,"lon":15.05619}},{"facility":"KardioBusak sro","city":"Louny","zip":"440 01","country":"Czechia","geoPoint":{"lat":50.35699,"lon":13.79667}},{"facility":"Kardio Pudich s.r.o.","city":"Ludgerovice","zip":"747 14","country":"Czechia","geoPoint":{"lat":49.89042,"lon":18.24008}},{"facility":"Vseobecna intermi ambulance sro","city":"Milevsko","zip":"399 01","country":"Czechia","geoPoint":{"lat":49.45089,"lon":14.36}},{"facility":"MUDr Zbynek Kosek, kardiologicka ambulance sro","city":"Mlada Boleslav","zip":"293 01","country":"Czechia","geoPoint":{"lat":50.41135,"lon":14.90318}},{"facility":"Pozdisek sro, Kardiologicka ambulance","city":"Mohelnice","zip":"789 85","country":"Czechia","geoPoint":{"lat":49.77698,"lon":16.91946}},{"facility":"Benedor sro - Kardiologicka, cevni a interni ambulance","city":"Ostrava - Poruba","zip":"708 00","country":"Czechia","geoPoint":{"lat":49.83465,"lon":18.28204}},{"facility":"Kardiologicka a angiologicka ambulance","city":"Ostrava-Dubina","zip":"700 30","country":"Czechia","geoPoint":{"lat":49.83465,"lon":18.28204}},{"facility":"CCR Ostrava sro","city":"Ostrava","zip":"702 00","country":"Czechia","geoPoint":{"lat":49.83465,"lon":18.28204}},{"facility":"Mestska nemocnice Ostrava","city":"Ostrava","zip":"728 80","country":"Czechia","geoPoint":{"lat":49.83465,"lon":18.28204}},{"facility":"Center for Clinical Research Pardubice, sro","city":"Pardubice","zip":"530 02","country":"Czechia","geoPoint":{"lat":50.04075,"lon":15.77659}},{"facility":"Nemocnice Pardubickeho kraje as","city":"Pardubice","zip":"532 03","country":"Czechia","geoPoint":{"lat":50.04075,"lon":15.77659}},{"facility":"Kardiologie v sadech sro","city":"Plzen 1","zip":"310 01","country":"Czechia","geoPoint":{"lat":49.74747,"lon":13.37759}},{"facility":"Kardiologie Cor sro","city":"Praha 10 - Zabehlice","zip":"106 00","country":"Czechia"},{"facility":"Ordinace pro choroby srdce a cev","city":"Praha 10","zip":"101 00","country":"Czechia","geoPoint":{"lat":50.08804,"lon":14.42076}},{"facility":"Diabet2 sro","city":"Praha 1","zip":"110 00","country":"Czechia","geoPoint":{"lat":50.08804,"lon":14.42076}},{"facility":"Vseobecna fakultni nemocnice v Praze","city":"Praha 2","zip":"128 08","country":"Czechia","geoPoint":{"lat":50.08804,"lon":14.42076}},{"facility":"CCR Prague sro","city":"Praha 3","zip":"130 00","country":"Czechia","geoPoint":{"lat":50.08804,"lon":14.42076}},{"facility":"Thomayerova nemocnice","city":"Praha 4","zip":"140 59","country":"Czechia","geoPoint":{"lat":50.08804,"lon":14.42076}},{"facility":"Milan Kvapil sro","city":"Praha 4","zip":"149 00","country":"Czechia","geoPoint":{"lat":50.08804,"lon":14.42076}},{"facility":"Kardiologicke centrum MUDr Janky Skrobakove sro","city":"Praha 5 - Smichov","zip":"150 00","country":"Czechia","geoPoint":{"lat":50.08804,"lon":14.42076}},{"facility":"Fakultni nemocnice v Motole","city":"Praha 5","zip":"150 06","country":"Czechia","geoPoint":{"lat":50.08804,"lon":14.42076}},{"facility":"Interni a kardiologicka ordinace","city":"Praha 5","zip":"158 00","country":"Czechia","geoPoint":{"lat":50.08804,"lon":14.42076}},{"facility":"Endokrinologie Cerny Most sro","city":"Praha 9","zip":"198 00","country":"Czechia","geoPoint":{"lat":50.08804,"lon":14.42076}},{"facility":"Kardio Vaclavik sro, Interni a kardiologicka ambulance","city":"Prerov","zip":"750 02","country":"Czechia","geoPoint":{"lat":49.45511,"lon":17.4509}},{"facility":"Vestra Clinics sro","city":"Rychnov nad Kneznou","zip":"516 01","country":"Czechia","geoPoint":{"lat":50.16284,"lon":16.27488}},{"facility":"Nemocnice Pardubickeho kraje as, Svitavska nemocnice","city":"Svitavy","zip":"568 25","country":"Czechia","geoPoint":{"lat":49.75594,"lon":16.46829}},{"facility":"AeskuLab ks, Lipidova poradna","city":"Teplice","zip":"415 01","country":"Czechia","geoPoint":{"lat":50.6404,"lon":13.82451}},{"facility":"Nemocnice Podlesi as","city":"Trinec","zip":"739 61","country":"Czechia","geoPoint":{"lat":49.67763,"lon":18.67078}},{"facility":"Clinical Trials Service sro","city":"Uherske Hradiste","zip":"686 01","country":"Czechia","geoPoint":{"lat":49.06975,"lon":17.45969}},{"facility":"Interni ambulance","city":"Uherske Hradiste","zip":"686 01","country":"Czechia","geoPoint":{"lat":49.06975,"lon":17.45969}},{"facility":"Lekarsky dum Ormiga","city":"Zlin","zip":"760 01","country":"Czechia","geoPoint":{"lat":49.22645,"lon":17.67065}},{"facility":"KIGE sro","city":"Znojmo","zip":"669 02","country":"Czechia","geoPoint":{"lat":48.8555,"lon":16.0488}},{"facility":"Aalborg Hospital","city":"Aalborg","zip":"9000","country":"Denmark","geoPoint":{"lat":57.048,"lon":9.9187}},{"facility":"Center for Clinical and Basic Research Aalborg","city":"Aalborg","zip":"9000","country":"Denmark","geoPoint":{"lat":57.048,"lon":9.9187}},{"facility":"Aarhus Universitetshospital","city":"Aarhus N","zip":"8200","country":"Denmark","geoPoint":{"lat":56.15674,"lon":10.21076}},{"facility":"Centre for Clinical and Basic Research Ballerup","city":"Ballerup","zip":"2750","country":"Denmark","geoPoint":{"lat":55.73165,"lon":12.36328}},{"facility":"Sydvestjysk Sygehus","city":"Esbjerg","zip":"6700","country":"Denmark","geoPoint":{"lat":55.47028,"lon":8.45187}},{"facility":"Sanos Clinic","city":"Herlev","zip":"2730","country":"Denmark","geoPoint":{"lat":55.72366,"lon":12.43998}},{"facility":"Steno Diabetes Center","city":"Herlev","zip":"2730","country":"Denmark","geoPoint":{"lat":55.72366,"lon":12.43998}},{"facility":"Regionhospitalet Herning","city":"Herning","zip":"7400","country":"Denmark","geoPoint":{"lat":56.13932,"lon":8.97378}},{"facility":"Hillerod Hospital","city":"Hillerod","zip":"3400","country":"Denmark","geoPoint":{"lat":55.92791,"lon":12.30081}},{"facility":"Rigshospitalet Kobenhavn","city":"Kobenhavn O","zip":"2100","country":"Denmark","geoPoint":{"lat":55.67594,"lon":12.56553}},{"facility":"Amager Hospital","city":"Kobenhavn S","zip":"2300","country":"Denmark","geoPoint":{"lat":55.67594,"lon":12.56553}},{"facility":"Kolding Sygehus","city":"Kolding","zip":"6000","country":"Denmark","geoPoint":{"lat":55.4904,"lon":9.47216}},{"facility":"Regionshospitalet Silkeborg","city":"Silkeborg","zip":"8600","country":"Denmark","geoPoint":{"lat":56.1697,"lon":9.54508}},{"facility":"Svendborg Sygehus","city":"Svendborg","zip":"5700","country":"Denmark","geoPoint":{"lat":55.05982,"lon":10.60677}},{"facility":"Center for Clinical and Basic Research Vejle","city":"Vejle","zip":"7100","country":"Denmark","geoPoint":{"lat":55.70927,"lon":9.5357}},{"facility":"Regionshospitalet Viborg","city":"Viborg","zip":"8800","country":"Denmark","geoPoint":{"lat":56.45319,"lon":9.40201}},{"facility":"Liina Viitas OU","city":"Parnu","zip":"80014","country":"Estonia","geoPoint":{"lat":58.38588,"lon":24.49711}},{"facility":"Center for Clinical and Basic Research Tallinn","city":"Tallinn","zip":"10128","country":"Estonia","geoPoint":{"lat":59.43696,"lon":24.75353}},{"facility":"Dr Arvo Rosenthal LLC","city":"Tallinn","zip":"13419","country":"Estonia","geoPoint":{"lat":59.43696,"lon":24.75353}},{"facility":"North Estonia Medical Centre Foundation","city":"Tallinn","zip":"13419","country":"Estonia","geoPoint":{"lat":59.43696,"lon":24.75353}},{"facility":"Helsinki University Central Hospital","city":"Helsinki","zip":"00029","country":"Finland","geoPoint":{"lat":60.16952,"lon":24.93545}},{"facility":"GERI-MED Oy","city":"Helsinki","zip":"00100","country":"Finland","geoPoint":{"lat":60.16952,"lon":24.93545}},{"facility":"Pohjois-Karjalan keskussairaala","city":"Joensuu","zip":"80210","country":"Finland","geoPoint":{"lat":62.60118,"lon":29.76316}},{"facility":"Terveystalo Jyvaskyla","city":"Jyvaskyla","zip":"40100","country":"Finland","geoPoint":{"lat":62.24147,"lon":25.72088}},{"facility":"Studycor Oy","city":"Jyvaskyla","zip":"40620","country":"Finland","geoPoint":{"lat":62.24147,"lon":25.72088}},{"facility":"Satucon Oy/Kuopion tyoterveys","city":"Kuopio","zip":"70100","country":"Finland","geoPoint":{"lat":62.89238,"lon":27.67703}},{"facility":"University of Eastern Finland","city":"Kuopio","zip":"70210","country":"Finland","geoPoint":{"lat":62.89238,"lon":27.67703}},{"facility":"Oulu University Hospital","city":"Oulu","zip":"90029","country":"Finland","geoPoint":{"lat":65.01236,"lon":25.46816}},{"facility":"Oulu University Hospital","city":"Oulu","zip":"90220","country":"Finland","geoPoint":{"lat":65.01236,"lon":25.46816}},{"facility":"Tampere University Hospital","city":"Tampere","zip":"33520","country":"Finland","geoPoint":{"lat":61.49911,"lon":23.78712}},{"facility":"Terveystalo Pulssi","city":"Turku","zip":"20100","country":"Finland","geoPoint":{"lat":60.45148,"lon":22.26869}},{"facility":"Centre Hospitalier Universitaire Amiens - Hopital Sud","city":"Amiens Cedex 1","zip":"80054","country":"France","geoPoint":{"lat":49.9,"lon":2.3}},{"facility":"Hospices Civils de Lyon Groupement Hospitalier Est, Hopital Louis Pradel","city":"Bron","zip":"69677","country":"France","geoPoint":{"lat":45.73333,"lon":4.91667}},{"facility":"Centre Hospitalier Universitaire de Caen - Hôpital Côte de Nacre","city":"Caen Cedex 9","zip":"14033","country":"France","geoPoint":{"lat":49.18585,"lon":-0.35912}},{"facility":"Centre Hospitalier Sud Francilien","city":"Corbeil Essonnes","zip":"91106","country":"France","geoPoint":{"lat":48.60603,"lon":2.48757}},{"facility":"Centre Hospitalier Universitaire de Dijon - Hopital Francois Mitterrand","city":"Dijon","zip":"21079","country":"France","geoPoint":{"lat":47.31667,"lon":5.01667}},{"facility":"Groupement Hospitalier Mutualiste","city":"Grenoble","zip":"38000","country":"France","geoPoint":{"lat":45.16667,"lon":5.71667}},{"facility":"Centre Hospitalier Universitaire de Grenoble - Hopital Nord Michallon","city":"Grenoble","zip":"38700","country":"France","geoPoint":{"lat":45.16667,"lon":5.71667}},{"facility":"Centre Hospitalier de Versailles - Hopital Andre Mignot","city":"Le Chesnay","zip":"78150","country":"France","geoPoint":{"lat":48.8222,"lon":2.12213}},{"facility":"Hopital Louis Pasteur","city":"Le Coudray","zip":"28630","country":"France","geoPoint":{"lat":48.42115,"lon":1.50057}},{"facility":"Centre Hospitalier Régional Universitaire de Lille - Institut Coeur Poumon","city":"Lille","zip":"59037","country":"France","geoPoint":{"lat":50.63297,"lon":3.05858}},{"facility":"Centre Hospitalier Universitaire de Lyon - Hopital Edouard Herriot","city":"Lyon Cédex 3","zip":"69437","country":"France","geoPoint":{"lat":45.74848,"lon":4.84669}},{"facility":"Centre Hospitalier Universitaire de Marseille - Hôpital de la Timone","city":"Marseille cedex 05","zip":"13385","country":"France","geoPoint":{"lat":43.29551,"lon":5.38958}},{"facility":"Hopital Saint-Joseph","city":"Marseille Cedex 08","zip":"13285","country":"France","geoPoint":{"lat":43.29551,"lon":5.38958}},{"facility":"Centre Hospitalier Regional Universitaire de Montpellier - Hopital Arnaud de Villeneuve","city":"Montpellier cedex 05","zip":"34295","country":"France","geoPoint":{"lat":43.61092,"lon":3.87723}},{"facility":"Centre Hospitalier Universitaire de Nantes - Hopital Guillaume et Rene Laennec","city":"Nantes Cedex 1","zip":"44093","country":"France","geoPoint":{"lat":47.21725,"lon":-1.55336}},{"facility":"Centre Hospitalier Universitaire de Nice - Hopital Pasteur","city":"Nice Cedex 1","zip":"06002","country":"France","geoPoint":{"lat":43.70313,"lon":7.26608}},{"facility":"Centre Hospitalier Universitaire de Nimes","city":"Nimes","zip":"30029","country":"France","geoPoint":{"lat":43.83333,"lon":4.35}},{"facility":"Hopital Saint Antoine","city":"Paris","zip":"75012","country":"France","geoPoint":{"lat":48.85341,"lon":2.3488}},{"facility":"Hopital Pitie-Salpetriere","city":"Paris","zip":"75013","country":"France","geoPoint":{"lat":48.85341,"lon":2.3488}},{"facility":"Hopital Europeen Georges Pompidou","city":"Paris","zip":"75015","country":"France","geoPoint":{"lat":48.85341,"lon":2.3488}},{"facility":"Hopital Bichat Claude Bernard","city":"Paris","zip":"75018","country":"France","geoPoint":{"lat":48.85341,"lon":2.3488}},{"facility":"Centre Hospitalier de Pau - Hopital Francois Mitterrand","city":"Pau","zip":"64000","country":"France","geoPoint":{"lat":43.3,"lon":-0.36667}},{"facility":"Centre Hospitalier Universitaire de Rennes - Hopital Pontchaillou","city":"Rennes","zip":"35033","country":"France","geoPoint":{"lat":48.11198,"lon":-1.67429}},{"facility":"Clinique Saint Hilaire","city":"Rouen","zip":"76000","country":"France","geoPoint":{"lat":49.44313,"lon":1.09932}},{"facility":"Clinique Pasteur","city":"Toulouse Cedex 3","zip":"31076","country":"France","geoPoint":{"lat":43.60426,"lon":1.44367}},{"facility":"Centre Hospitalier Universitaire de Toulouse - Hopital Rangueil","city":"Toulouse Cedex 9","zip":"31059","country":"France","geoPoint":{"lat":43.60426,"lon":1.44367}},{"facility":"Polyclinique Vauban","city":"Valenciennes","zip":"59300","country":"France","geoPoint":{"lat":50.35,"lon":3.53333}},{"facility":"Universitaets-Herzzentrum Freiburg - Bad Krozingen","city":"Bad Krozingen","zip":"79189","country":"Germany","geoPoint":{"lat":47.91933,"lon":7.69045}},{"facility":"Kerckhoff-Klinik Forschungs GmbH","city":"Bad Neuheim","zip":"61231","country":"Germany"},{"facility":"Klinische Forschung Berlin GbR","city":"Berlin","zip":"10787","country":"Germany","geoPoint":{"lat":52.52437,"lon":13.41053}},{"facility":"Charite Universitätsmedizin Berlin, Charité Campus Virchow-Klinikum","city":"Berlin","zip":"13353","country":"Germany","geoPoint":{"lat":52.52437,"lon":13.41053}},{"facility":"Kardiologisch - Angiologische Praxis - Herzzentrum Bremen","city":"Bremen","zip":"28277","country":"Germany","geoPoint":{"lat":53.07516,"lon":8.80777}},{"facility":"Sankt-Johannes-Hospital","city":"Dortmund","zip":"44137","country":"Germany","geoPoint":{"lat":51.51494,"lon":7.466}},{"facility":"Cardiologicum Dresden und Pirna","city":"Dresden","zip":"01277","country":"Germany","geoPoint":{"lat":51.05089,"lon":13.73832}},{"facility":"Diabetologische Gemeinschaftspraxis Dr Schaper und Dr Faulmann","city":"Dresden","zip":"01279","country":"Germany","geoPoint":{"lat":51.05089,"lon":13.73832}},{"facility":"Universitaetsklinikum Carl Gustav Carus, Medizinische Klinik und Poliklinik III","city":"Dresden","zip":"01307","country":"Germany","geoPoint":{"lat":51.05089,"lon":13.73832}},{"facility":"Klinikum und Fachbereich Medizin Johann Wolfgang Goethe-Universität Frankfurt am Main","city":"Frankfurt am Main","zip":"60590","country":"Germany","geoPoint":{"lat":50.11552,"lon":8.68417}},{"facility":"Clin Phenomics GmbH Co KG","city":"Frankfurt am Main","zip":"60596","country":"Germany","geoPoint":{"lat":50.11552,"lon":8.68417}},{"facility":"Medizinisches Versorgungszentrum im Altstadt-Carree Fulda","city":"Fulda","zip":"36037","country":"Germany","geoPoint":{"lat":50.55162,"lon":9.67518}},{"facility":"Cardiologicum Hamburg","city":"Hamburg","zip":"22041","country":"Germany","geoPoint":{"lat":53.57532,"lon":10.01534}},{"facility":"Universitätsklinikum Heidelberg","city":"Heidelberg","zip":"69120","country":"Germany","geoPoint":{"lat":49.40768,"lon":8.69079}},{"facility":"Ambulantes Herzzentrum Kassel","city":"Kassel","zip":"34121","country":"Germany","geoPoint":{"lat":51.31667,"lon":9.5}},{"facility":"Universitätsklinikum Leipzig","city":"Leipzig","zip":"4103","country":"Germany","geoPoint":{"lat":51.33962,"lon":12.37129}},{"facility":"Otto von Guericke Universität Magdeburg","city":"Magdeburg","zip":"39120","country":"Germany","geoPoint":{"lat":52.12773,"lon":11.62916}},{"facility":"Johannes Gutenberg Universitaet Mainz","city":"Mainz","zip":"55131","country":"Germany","geoPoint":{"lat":49.98419,"lon":8.2791}},{"facility":"Universitätsklinikum Mannheim","city":"Mannheim","zip":"68167","country":"Germany","geoPoint":{"lat":49.4891,"lon":8.46694}},{"facility":"Praxis Doktor Jens Taggeselle","city":"Markleeberg","zip":"04416","country":"Germany"},{"facility":"Deutsches Herzzentrum München des Freistaates Bayern","city":"München","zip":"80636","country":"Germany","geoPoint":{"lat":48.13743,"lon":11.57549}},{"facility":"Herz Gefaess Zentrum Nymphenburg","city":"München","zip":"80638","country":"Germany","geoPoint":{"lat":48.13743,"lon":11.57549}},{"facility":"Universitaetsklinikum Muenster","city":"Münster","zip":"48149","country":"Germany","geoPoint":{"lat":51.96236,"lon":7.62571}},{"facility":"Kardiologische Gemeinschaftspraxis Papenburg","city":"Papenburg","zip":"26871","country":"Germany","geoPoint":{"lat":53.07738,"lon":7.40444}},{"facility":"Klinikum Ernst von Bergmann gGmbH","city":"Potsdam","zip":"14467","country":"Germany","geoPoint":{"lat":52.39886,"lon":13.06566}},{"facility":"Universitätsklinikum Regensburg","city":"Regensburg","zip":"93053","country":"Germany","geoPoint":{"lat":49.01513,"lon":12.10161}},{"facility":"CardioConsil GmbH","city":"Rostock","zip":"18059","country":"Germany","geoPoint":{"lat":54.0887,"lon":12.14049}},{"facility":"I Medizinische Klinik Gesundheitsverbund Landkreis Konstanz","city":"Singen","zip":"78224","country":"Germany","geoPoint":{"lat":47.75935,"lon":8.8403}},{"facility":"Universitätsklinikum Ulm","city":"Ulm","zip":"89081","country":"Germany","geoPoint":{"lat":48.39841,"lon":9.99155}},{"facility":"Nephrologisches Zentrum Villingen-Schwenningen","city":"Villingen-Schwenningen","zip":"78052","country":"Germany","geoPoint":{"lat":48.06226,"lon":8.49358}},{"facility":"Forschungszentrum Ruhr","city":"Witten","zip":"58455","country":"Germany","geoPoint":{"lat":51.44362,"lon":7.35258}},{"facility":"General Hospital of Athens Evaggelismos","city":"Athens","zip":"10676","country":"Greece","geoPoint":{"lat":37.97945,"lon":23.71622}},{"facility":"Athens Naval Hospital","city":"Athens","zip":"11521","country":"Greece","geoPoint":{"lat":37.97945,"lon":23.71622}},{"facility":"General Hospital of Athens Georgios Gennimatas","city":"Athens","zip":"11527","country":"Greece","geoPoint":{"lat":37.97945,"lon":23.71622}},{"facility":"General Hospital of Athens Ippokrateio","city":"Athens","zip":"11527","country":"Greece","geoPoint":{"lat":37.97945,"lon":23.71622}},{"facility":"General Hospital of Athens Laiko","city":"Athens","zip":"11527","country":"Greece","geoPoint":{"lat":37.97945,"lon":23.71622}},{"facility":"Alexandra Hospital","city":"Athens","zip":"11528","country":"Greece","geoPoint":{"lat":37.97945,"lon":23.71622}},{"facility":"Konstantopoulio - Agia Olga Hospital of Nea Ionia","city":"Athens","zip":"14233","country":"Greece","geoPoint":{"lat":37.97945,"lon":23.71622}},{"facility":"Hygeia Hospital","city":"Athens","zip":"15123","country":"Greece","geoPoint":{"lat":37.97945,"lon":23.71622}},{"facility":"University Hospital of Heraklion","city":"Heraklion","zip":"71110","country":"Greece","geoPoint":{"lat":35.32787,"lon":25.14341}},{"facility":"University Hospital of Ioannina","city":"Ioannina","zip":"45500","country":"Greece","geoPoint":{"lat":39.66486,"lon":20.85189}},{"facility":"University Hospital of Larissa","city":"Larissa","zip":"41110","country":"Greece","geoPoint":{"lat":39.63689,"lon":22.41761}},{"facility":"Ahepa University Hospital","city":"Thessaloniki","zip":"54636","country":"Greece","geoPoint":{"lat":40.64361,"lon":22.93086}},{"facility":"General Hospital of Thessaloniki Ahepa","city":"Thessaloniki","zip":"54636","country":"Greece","geoPoint":{"lat":40.64361,"lon":22.93086}},{"facility":"Papageorgiou General Hospital of Thessaloniki","city":"Thessaloniki","zip":"56403","country":"Greece","geoPoint":{"lat":40.64361,"lon":22.93086}},{"facility":"Interbalkan Medical Center","city":"Thessaloniki","zip":"57001","country":"Greece","geoPoint":{"lat":40.64361,"lon":22.93086}},{"facility":"Lausmed Kft","city":"Baja","zip":"6500","country":"Hungary","geoPoint":{"lat":46.17496,"lon":18.95639}},{"facility":"Allami Szivkorhaz Balatonfured","city":"Balatonfured","zip":"8230","country":"Hungary","geoPoint":{"lat":46.96188,"lon":17.87187}},{"facility":"Balatonmariafurdo Kozseg Onkormanyzatanak Haziorvosi Rendeloje","city":"Balatonkeresztur","zip":"8647","country":"Hungary","geoPoint":{"lat":46.69743,"lon":17.37076}},{"facility":"Med-Edu Bt","city":"Balloszog","zip":"6035","country":"Hungary","geoPoint":{"lat":46.86216,"lon":19.57092}},{"facility":"Dr Lakatos Ferenc Private Cardiology Practice","city":"Bekescsaba","zip":"5600","country":"Hungary","geoPoint":{"lat":46.68333,"lon":21.1}},{"facility":"Grof Tisza Istvan Korhaz","city":"Berettyoujfalu","zip":"4100","country":"Hungary","geoPoint":{"lat":47.21667,"lon":21.55}},{"facility":"Betegapolo Irgalmas Rend - Budai Irgalmasrendi Korhaz","city":"Budapest","zip":"1023","country":"Hungary","geoPoint":{"lat":47.49801,"lon":19.03991}},{"facility":"Clinexpert Kft","city":"Budapest","zip":"1033","country":"Hungary","geoPoint":{"lat":47.49801,"lon":19.03991}},{"facility":"Obudai Egeszsegugyi Centrum Kft","city":"Budapest","zip":"1036","country":"Hungary","geoPoint":{"lat":47.49801,"lon":19.03991}},{"facility":"Semmelweis Egyetem Varosmajori Sziv- es Ergyogyaszati Klinika","city":"Budapest","zip":"1085","country":"Hungary","geoPoint":{"lat":47.49801,"lon":19.03991}},{"facility":"Gottsegen Gyorgy Orszagos Kardiologiai Intezet","city":"Budapest","zip":"1096","country":"Hungary","geoPoint":{"lat":47.49801,"lon":19.03991}},{"facility":"Bajcsy-Zsilinszky Korhaz es Rendelointezet","city":"Budapest","zip":"1106","country":"Hungary","geoPoint":{"lat":47.49801,"lon":19.03991}},{"facility":"Semmelweis Egyetem","city":"Budapest","zip":"1122","country":"Hungary","geoPoint":{"lat":47.49801,"lon":19.03991}},{"facility":"Magyar Honvedseg Egeszsegugyi Kozpont","city":"Budapest","zip":"1134","country":"Hungary","geoPoint":{"lat":47.49801,"lon":19.03991}},{"facility":"Uzsoki Utcai Korhaz","city":"Budapest","zip":"1145","country":"Hungary","geoPoint":{"lat":47.49801,"lon":19.03991}},{"facility":"Zugloi Egeszsegugyi Szolgalat","city":"Budapest","zip":"1148","country":"Hungary","geoPoint":{"lat":47.49801,"lon":19.03991}},{"facility":"Jahn Ferenc Del-pesti Korhaz es Rendelointezet","city":"Budapest","zip":"1204","country":"Hungary","geoPoint":{"lat":47.49801,"lon":19.03991}},{"facility":"Debreceni Egyetem Klinikai Kozpont","city":"Debrecen","zip":"4032","country":"Hungary","geoPoint":{"lat":47.53333,"lon":21.63333}},{"facility":"Markhot Ferenc Oktatokorhaz es Rendelointezet","city":"Eger","zip":"3300","country":"Hungary","geoPoint":{"lat":47.90265,"lon":20.37329}},{"facility":"Erzsebet Gondozohaz","city":"Godollo","zip":"2100","country":"Hungary","geoPoint":{"lat":47.59657,"lon":19.35515}},{"facility":"Bugat Pal Korhaz","city":"Gyongyos","zip":"3200","country":"Hungary","geoPoint":{"lat":47.78257,"lon":19.928}},{"facility":"Pharma4 Trial Kft","city":"Gyongyos","zip":"3200","country":"Hungary","geoPoint":{"lat":47.78257,"lon":19.928}},{"facility":"Bekes Megyei Kozponti Korhaz Pandy Kalman Tagkorhaz","city":"Gyula","zip":"5700","country":"Hungary","geoPoint":{"lat":46.65,"lon":21.28333}},{"facility":"BKS Research Kft","city":"Hatvan","zip":"3000","country":"Hungary","geoPoint":{"lat":47.66667,"lon":19.68333}},{"facility":"Bacs-Kiskun Megyei Korhaz Szegedi Tudomanyegyetem Altalanos Orvostudomanyi Kar Oktato Korhaza","city":"Kalocsa","zip":"6300","country":"Hungary","geoPoint":{"lat":46.52639,"lon":18.98583}},{"facility":"Selye Janos Korhaz","city":"Komarom","zip":"2921","country":"Hungary","geoPoint":{"lat":47.74318,"lon":18.11913}},{"facility":"Borsod-Abauj-Zemplen Megyei Kozponti Korhaz es Egyetemi Oktatokorhaz","city":"Miskolc","zip":"3526","country":"Hungary","geoPoint":{"lat":48.1,"lon":20.78333}},{"facility":"CRU Hungary Kft","city":"Miskolc","zip":"3529","country":"Hungary","geoPoint":{"lat":48.1,"lon":20.78333}},{"facility":"Pecsi Tudomanyegyetem Klinikai Kozpont","city":"Pecs","zip":"7624","country":"Hungary","geoPoint":{"lat":46.08333,"lon":18.23333}},{"facility":"Soproni Erzsebet Oktato Korhaz es Rehabilitacios Intezet","city":"Sopron","zip":"9400","country":"Hungary","geoPoint":{"lat":47.68501,"lon":16.59049}},{"facility":"Szegedi Tudomanyegyetem Szent Gyorgyi Albert Klinikai Kozpont Altalanos Orvostudomanyi Kar","city":"Szeged","zip":"6725","country":"Hungary","geoPoint":{"lat":46.253,"lon":20.14824}},{"facility":"Szegedi Tudomanyegyetem Szent-Gyorgyi Albert Klinikai Kozpont Altalanos Orvostudomanyi Kar","city":"Szeged","zip":"6725","country":"Hungary","geoPoint":{"lat":46.253,"lon":20.14824}},{"facility":"Praxispont Belvarosi Maganegeszsegugyi Kozpont","city":"Szekesfehervar","zip":"8000","country":"Hungary","geoPoint":{"lat":47.18995,"lon":18.41034}},{"facility":"Tolna Megyei Balassa Janos Korhaz","city":"Szekszard","zip":"7100","country":"Hungary","geoPoint":{"lat":46.35014,"lon":18.70905}},{"facility":"Csongrad Megyei Dr Bugyi Istvan Korhaz","city":"Szentes","zip":"6600","country":"Hungary","geoPoint":{"lat":46.65628,"lon":20.27194}},{"facility":"Jasz-Nagykun-Szolnok Megyei Hetenyi Geza Korhaz-Rendelointezet","city":"Szolnok","zip":"5004","country":"Hungary","geoPoint":{"lat":47.18333,"lon":20.2}},{"facility":"Belvarosi Egeszseghaz Kft","city":"Zalaegerszeg","zip":"8900","country":"Hungary","geoPoint":{"lat":46.84,"lon":16.84389}},{"facility":"Hjartamidstodin","city":"Kopavogur","zip":"201","country":"Iceland","geoPoint":{"lat":64.11234,"lon":-21.91298}},{"facility":"Landspitali","city":"Reykjavik","zip":"101","country":"Iceland","geoPoint":{"lat":64.13548,"lon":-21.89541}},{"facility":"Ospedale Muscatello","city":"Augusta","zip":"96011","country":"Italy","geoPoint":{"lat":37.24065,"lon":15.22121}},{"facility":"Azienda Socio Sanitaria Territoriale Papa Giovanni XXIII","city":"Bergamo","zip":"24127","country":"Italy","geoPoint":{"lat":45.69601,"lon":9.66721}},{"facility":"Azienda Ospedaliero Universitaria di Bologna Policlinico S Orsola Malpighi","city":"Bologna","zip":"40138","country":"Italy","geoPoint":{"lat":44.49381,"lon":11.33875}},{"facility":"Azienda Ospedaliero Universitaria Mater Domini","city":"Catanzaro","zip":"88100","country":"Italy","geoPoint":{"lat":38.88247,"lon":16.60086}},{"facility":"Universita degli Studi Gabriele D Annunzio di Chieti e Pescara","city":"Chieti","zip":"66100","country":"Italy","geoPoint":{"lat":42.34827,"lon":14.16494}},{"facility":"Fondazione Toscana Gabriele Monasterio Ospedale del Cuore G Pasquinucci","city":"Massa","zip":"54100","country":"Italy","geoPoint":{"lat":44.03541,"lon":10.13927}},{"facility":"IRCCS Ospedale San Raffaele","city":"Milano","zip":"20132","country":"Italy","geoPoint":{"lat":45.46427,"lon":9.18951}},{"facility":"Centro Cardiologico Monzino","city":"Milano","zip":"20138","country":"Italy","geoPoint":{"lat":45.46427,"lon":9.18951}},{"facility":"Azienda Socio Sanitaria Territoriale Grande Ospedale Metropolitano Niguarda","city":"Milano","zip":"20162","country":"Italy","geoPoint":{"lat":45.46427,"lon":9.18951}},{"facility":"Azienda Ospedaliero Universitaria Pisana","city":"Pisa","zip":"56100","country":"Italy","geoPoint":{"lat":43.70853,"lon":10.4036}},{"facility":"Presidio Ospedaliero Santa Maria delle Grazie","city":"Pozzuoli","zip":"80078","country":"Italy","geoPoint":{"lat":40.84394,"lon":14.0952}},{"facility":"Policlinico Universitario Campus Biomedico","city":"Roma","zip":"00128","country":"Italy","geoPoint":{"lat":41.89193,"lon":12.51133}},{"facility":"Azienda Ospedaliera Sant Andrea","city":"Roma","zip":"00189","country":"Italy","geoPoint":{"lat":41.89193,"lon":12.51133}},{"facility":"IRCCS Policlinico San Donato","city":"San Donato Milanese","zip":"20097","country":"Italy","geoPoint":{"lat":45.41047,"lon":9.26838}},{"facility":"Azienda Ospedaliera Citta della Salute e della Scienza di Torino","city":"Torino","zip":"10126","country":"Italy","geoPoint":{"lat":45.07049,"lon":7.68682}},{"facility":"Azienda Ospedaliero Universitaria Integrata di Udine","city":"Udine","zip":"33100","country":"Italy","geoPoint":{"lat":46.0693,"lon":13.23715}},{"facility":"Inje University Busan Paik Hospital","city":"Busan","zip":"47392","country":"Korea, Republic of","geoPoint":{"lat":35.10278,"lon":129.04028}},{"facility":"Dong-A University Hospital","city":"Busan","zip":"49201","country":"Korea, Republic of","geoPoint":{"lat":35.10278,"lon":129.04028}},{"facility":"Chungbuk National University Hospital","city":"Cheongju-si, Chungcheongbuk-do","zip":"28644","country":"Korea, Republic of"},{"facility":"Yeungnam University Medical Center","city":"Daegu","zip":"42415","country":"Korea, Republic of","geoPoint":{"lat":35.87028,"lon":128.59111}},{"facility":"Keimyung University, Dongsan Hospital","city":"Daegu","zip":"42601","country":"Korea, Republic of","geoPoint":{"lat":35.87028,"lon":128.59111}},{"facility":"Chonnam National University Hospital","city":"Gwangju","zip":"501-757","country":"Korea, Republic of","geoPoint":{"lat":35.15472,"lon":126.91556}},{"facility":"Gachon University Gil Medical Center","city":"Incheon","zip":"21565","country":"Korea, Republic of","geoPoint":{"lat":37.45646,"lon":126.70515}},{"facility":"Seoul National University Bundang Hospital","city":"Seongnam-si, Gyeonggi-do","zip":"13620","country":"Korea, Republic of"},{"facility":"Kyung Hee University Hospital","city":"Seoul","zip":"02447","country":"Korea, Republic of","geoPoint":{"lat":37.566,"lon":126.9784}},{"facility":"Korea University Anam Hospital","city":"Seoul","zip":"02841","country":"Korea, Republic of","geoPoint":{"lat":37.566,"lon":126.9784}},{"facility":"Seoul National University Hospital","city":"Seoul","zip":"03080","country":"Korea, Republic of","geoPoint":{"lat":37.566,"lon":126.9784}},{"facility":"Kangbuk Samsung Hospital","city":"Seoul","zip":"03181","country":"Korea, Republic of","geoPoint":{"lat":37.566,"lon":126.9784}},{"facility":"Severance Hospital, Yonsei University Health System","city":"Seoul","zip":"03722","country":"Korea, Republic of","geoPoint":{"lat":37.566,"lon":126.9784}},{"facility":"Asan Medical Center","city":"Seoul","zip":"05505","country":"Korea, Republic of","geoPoint":{"lat":37.566,"lon":126.9784}},{"facility":"Samsung Medical Center","city":"Seoul","zip":"06351","country":"Korea, Republic of","geoPoint":{"lat":37.566,"lon":126.9784}},{"facility":"The Catholic University of Korea Seoul St Marys Hospital","city":"Seoul","zip":"06591","country":"Korea, Republic of","geoPoint":{"lat":37.566,"lon":126.9784}},{"facility":"Gangnam Severance Hospital","city":"Seoul","zip":"135-700","country":"Korea, Republic of","geoPoint":{"lat":37.566,"lon":126.9784}},{"facility":"Ajou University Hospital","city":"Suwon-si, Gyeonggi-do","zip":"16499","country":"Korea, Republic of","geoPoint":{"lat":37.29111,"lon":127.00889}},{"facility":"Yonsei University Wonju Severance Christian Hospital","city":"Wonju-si, Gangwon-do","zip":"26426","country":"Korea, Republic of"},{"facility":"Daugavpils Regional Hospital","city":"Daugavpils","zip":"5417","country":"Latvia","geoPoint":{"lat":55.88333,"lon":26.53333}},{"facility":"Dace Teterovska Doctor Practice in Endocrinology","city":"Ogre","zip":"5001","country":"Latvia","geoPoint":{"lat":56.8162,"lon":24.61401}},{"facility":"Inga Jasinkevica Cardiologist Practice","city":"Ogre","zip":"5001","country":"Latvia","geoPoint":{"lat":56.8162,"lon":24.61401}},{"facility":"Pauls Stradins Clinical University Hospital","city":"Riga","zip":"1002","country":"Latvia","geoPoint":{"lat":56.946,"lon":24.10589}},{"facility":"Outpatient Clinic Veselibas Centrs 4","city":"Riga","zip":"1012","country":"Latvia","geoPoint":{"lat":56.946,"lon":24.10589}},{"facility":"Klinikiniai sprendimai, UAB","city":"Alytus","zip":"63200","country":"Lithuania","geoPoint":{"lat":54.39636,"lon":24.04143}},{"facility":"Klinikiniai sprendimai, UAB","city":"Kaunas","zip":"49387","country":"Lithuania","geoPoint":{"lat":54.90272,"lon":23.90961}},{"facility":"Saules Seimos Medicinos Centras","city":"Kaunas","zip":"49456","country":"Lithuania","geoPoint":{"lat":54.90272,"lon":23.90961}},{"facility":"Hospital of Lithuanian University of Health Sciences Kaunas Clinics Public Institution","city":"Kaunas","zip":"50009","country":"Lithuania","geoPoint":{"lat":54.90272,"lon":23.90961}},{"facility":"Kardiologijos ir reabilitacijos klinika, UAB","city":"Klaipeda","zip":"91131","country":"Lithuania","geoPoint":{"lat":55.70888,"lon":21.14311}},{"facility":"Siauliai Republican Hospital, Public Institution","city":"Siauliai","zip":"76231","country":"Lithuania","geoPoint":{"lat":55.93333,"lon":23.31667}},{"facility":"Vilnius University Hospital Santaros Clinic Public Institution","city":"Vilnius","zip":"08661","country":"Lithuania","geoPoint":{"lat":54.68916,"lon":25.2798}},{"facility":"Clinstile SA de CV","city":"Cd De Mexico","state":"Distrito Federal","zip":"06700","country":"Mexico"},{"facility":"Unidad Biomedica Avanzada Monterrey","city":"Monterrey","state":"Nuevo León","zip":"64460","country":"Mexico","geoPoint":{"lat":25.67507,"lon":-100.31847}},{"facility":"Centro de Estudios Clinicos de Queretaro","city":"Queretaro","state":"Querétaro","zip":"76000","country":"Mexico"},{"facility":"Centro para el Desarrollo de la Medicina y de Asistencia Medica Especializada SC","city":"Culiacan","state":"Sinaloa","zip":"80230","country":"Mexico","geoPoint":{"lat":24.79032,"lon":-107.38782}},{"facility":"Centro de investigacion Cardiometabolica","city":"Aguascalientes","zip":"20230","country":"Mexico","geoPoint":{"lat":21.88234,"lon":-102.28259}},{"facility":"Scientia Investigacion Clinica Sc","city":"Chihuahua","zip":"31203","country":"Mexico","geoPoint":{"lat":28.63528,"lon":-106.08889}},{"facility":"Noordwest Ziekenhuisgroep","city":"Alkmaar","zip":"1815 JD","country":"Netherlands","geoPoint":{"lat":52.63167,"lon":4.74861}},{"facility":"Ziekenhuisgroep Twente","city":"Almelo","zip":"7609 PP","country":"Netherlands","geoPoint":{"lat":52.35667,"lon":6.6625}},{"facility":"Emotional Brain","city":"Almere","zip":"1311 RL","country":"Netherlands","geoPoint":{"lat":52.37535,"lon":5.25295}},{"facility":"Meander Medisch Centrum","city":"Amersfoort","zip":"3813 TZ","country":"Netherlands","geoPoint":{"lat":52.155,"lon":5.3875}},{"facility":"Onze Lieve Vrouwe Gasthuis","city":"Amsterdam","zip":"1061 AE","country":"Netherlands","geoPoint":{"lat":52.37403,"lon":4.88969}},{"facility":"Onze Lieve Vrouwe Gasthuis","city":"Amsterdam","zip":"1091 AC","country":"Netherlands","geoPoint":{"lat":52.37403,"lon":4.88969}},{"facility":"Academisch Medisch Centrum","city":"Amsterdam","zip":"1105 AZ","country":"Netherlands","geoPoint":{"lat":52.37403,"lon":4.88969}},{"facility":"Gelre Ziekenhuis","city":"Apeldoorn","zip":"7334 DZ","country":"Netherlands","geoPoint":{"lat":52.21,"lon":5.96944}},{"facility":"Rijnstate Ziekenhuis","city":"Arnhem","zip":"6815 AD","country":"Netherlands","geoPoint":{"lat":51.98,"lon":5.91111}},{"facility":"Rode Kruis Ziekenhuis","city":"Beverwijk","zip":"1942 LE","country":"Netherlands","geoPoint":{"lat":52.48333,"lon":4.65694}},{"facility":"Amphia ziekenhuis","city":"Breda","zip":"4818 CK","country":"Netherlands","geoPoint":{"lat":51.58656,"lon":4.77596}},{"facility":"Reinier de Graaf Gasthuis","city":"Delft","zip":"2625 AD","country":"Netherlands","geoPoint":{"lat":52.00667,"lon":4.35556}},{"facility":"Huisartsenpraktijk Rambharose","city":"Den Haag","zip":"2572 GM","country":"Netherlands","geoPoint":{"lat":52.07667,"lon":4.29861}},{"facility":"Deventer Ziekenhuis","city":"Deventer","zip":"7416 SE","country":"Netherlands","geoPoint":{"lat":52.255,"lon":6.16389}},{"facility":"Van Weel Bethesda Ziekenhuis","city":"Dirksland","zip":"3247 BW","country":"Netherlands","geoPoint":{"lat":51.74917,"lon":4.1}},{"facility":"Albert Schweitzer Ziekenhuis location Dordwijk","city":"Dordrecht","zip":"3318 AT","country":"Netherlands","geoPoint":{"lat":51.81,"lon":4.67361}},{"facility":"Albert Schweitzer Ziekenhuis, Locatie Dordwijk","city":"Dordrecht","zip":"3318 AT","country":"Netherlands","geoPoint":{"lat":51.81,"lon":4.67361}},{"facility":"Ziekenhuis Gelderse Vallei","city":"Ede","zip":"6716 RP","country":"Netherlands","geoPoint":{"lat":52.03333,"lon":5.65833}},{"facility":"Catharina Ziekenhuis","city":"Eindhoven","zip":"5623 EJ","country":"Netherlands","geoPoint":{"lat":51.44083,"lon":5.47778}},{"facility":"Treant Zorggroep, locatie Scheper ziekenhuis Emmen","city":"Emmen","zip":"7824 AA","country":"Netherlands","geoPoint":{"lat":52.77917,"lon":6.90694}},{"facility":"Medisch Spectrum Twente","city":"Enschede","zip":"7512 KZ","country":"Netherlands","geoPoint":{"lat":52.21833,"lon":6.89583}},{"facility":"Admiraal de Ruyter Ziekenhuis","city":"Goes","zip":"4462 RA","country":"Netherlands","geoPoint":{"lat":51.50417,"lon":3.88889}},{"facility":"Groene Hart Ziekenhuis","city":"Gouda","zip":"2803 HH","country":"Netherlands","geoPoint":{"lat":52.01667,"lon":4.70833}},{"facility":"Martini Ziekenhuis","city":"Groningen","zip":"9728 NT","country":"Netherlands","geoPoint":{"lat":53.21917,"lon":6.56667}},{"facility":"Sint Jansdal Ziekenhuis","city":"Harderwijk","zip":"3844 DG","country":"Netherlands","geoPoint":{"lat":52.34167,"lon":5.62083}},{"facility":"Zuyderland Medisch Centrum","city":"Heerlen","zip":"6419 PC","country":"Netherlands","geoPoint":{"lat":50.88365,"lon":5.98154}},{"facility":"Elkerliek Ziekenhuis","city":"Helmond","zip":"5707 HA","country":"Netherlands","geoPoint":{"lat":51.48167,"lon":5.66111}},{"facility":"Tergooi","city":"Hilversum","zip":"1213 XZ","country":"Netherlands","geoPoint":{"lat":52.22333,"lon":5.17639}},{"facility":"Bethesda Diabetes Research Center","city":"Hoogeveen","zip":"7909 AA","country":"Netherlands","geoPoint":{"lat":52.7225,"lon":6.47639}},{"facility":"Dijklander Ziekenhuis Hoorn","city":"Hoorn","zip":"1624 NP","country":"Netherlands","geoPoint":{"lat":52.6425,"lon":5.05978}},{"facility":"Medisch Centrum Leeuwarden","city":"Leeuwarden","zip":"8934 AD","country":"Netherlands","geoPoint":{"lat":53.20139,"lon":5.80859}},{"facility":"Leids Universitair Medisch Centrum","city":"Leiden","zip":"2333 ZA","country":"Netherlands","geoPoint":{"lat":52.15833,"lon":4.49306}},{"facility":"Isala Diaconessenhuis","city":"Meppel","zip":"7943 KA","country":"Netherlands","geoPoint":{"lat":52.69583,"lon":6.19444}},{"facility":"Sint Antonius Ziekenhuis, locatie Nieuwegein","city":"Nieuwegein","zip":"3435 CM","country":"Netherlands","geoPoint":{"lat":52.02917,"lon":5.08056}},{"facility":"Radboudumc","city":"Nijmegen","zip":"6525 GA","country":"Netherlands","geoPoint":{"lat":51.8425,"lon":5.85278}},{"facility":"Canisius-Wilhelmina Ziekenhuis","city":"Nijmegen","zip":"6532 SZ","country":"Netherlands","geoPoint":{"lat":51.8425,"lon":5.85278}},{"facility":"Franciscus Gasthuis","city":"Rotterdam","zip":"3045 PM","country":"Netherlands","geoPoint":{"lat":51.9225,"lon":4.47917}},{"facility":"Praktijk Soerland","city":"Rotterdam","zip":"3067 GJ","country":"Netherlands","geoPoint":{"lat":51.9225,"lon":4.47917}},{"facility":"Maasstad Ziekenhuis","city":"Rotterdam","zip":"3079 DZ","country":"Netherlands","geoPoint":{"lat":51.9225,"lon":4.47917}},{"facility":"Ikazia Ziekenhuis","city":"Rotterdam","zip":"3083 AN","country":"Netherlands","geoPoint":{"lat":51.9225,"lon":4.47917}},{"facility":"Franciscus Vlietland","city":"Schiedam","zip":"3118 JH","country":"Netherlands","geoPoint":{"lat":51.91917,"lon":4.38889}},{"facility":"D&A Research and Genetics","city":"Sneek","zip":"8601 ZR","country":"Netherlands","geoPoint":{"lat":53.03297,"lon":5.6589}},{"facility":"Haga Ziekenhuis","city":"The Hague","zip":"2545 AA","country":"Netherlands","geoPoint":{"lat":52.07667,"lon":4.29861}},{"facility":"Ziekenhuis Rivierenland","city":"Tiel","zip":"4002 WP","country":"Netherlands","geoPoint":{"lat":51.88667,"lon":5.42917}},{"facility":"Elisabeth-Tweesteden Ziekenhuis","city":"Tilburg","zip":"5042 AD","country":"Netherlands","geoPoint":{"lat":51.55551,"lon":5.0913}},{"facility":"Ziekenhuis Bernhoven","city":"Uden","zip":"5406 PT","country":"Netherlands","geoPoint":{"lat":51.66083,"lon":5.61944}},{"facility":"Diakonessenhuis","city":"Utrecht","zip":"3582 KE","country":"Netherlands","geoPoint":{"lat":52.09083,"lon":5.12222}},{"facility":"Universitair Medisch Centrum Utrecht","city":"Utrecht","zip":"3584 CX","country":"Netherlands","geoPoint":{"lat":52.09083,"lon":5.12222}},{"facility":"VieCuri Medisch Centrum","city":"Venlo","zip":"5912 BL","country":"Netherlands","geoPoint":{"lat":51.37,"lon":6.16806}},{"facility":"Zaans Medisch Centrum","city":"Zaandam","zip":"1502 DV","country":"Netherlands","geoPoint":{"lat":52.43854,"lon":4.82643}},{"facility":"Albert Schweitzer Ziekenhuis","city":"Zwijndrecht","zip":"3331 LZ","country":"Netherlands","geoPoint":{"lat":51.8175,"lon":4.63333}},{"facility":"Dokters van Nederhoven","city":"Zwijndrecht","zip":"3334 SB","country":"Netherlands","geoPoint":{"lat":51.8175,"lon":4.63333}},{"facility":"Isala Klinieken","city":"Zwolle","zip":"8025 AB","country":"Netherlands","geoPoint":{"lat":52.5125,"lon":6.09444}},{"facility":"Szpital Uniwersytecki nr 1 im dr Antoniego Jurasza w Bydgoszczy","city":"Bydgoszcz","zip":"85-094","country":"Poland","geoPoint":{"lat":53.1235,"lon":18.00762}},{"facility":"American Heart of Poland Sa Malopolskie Centrum Sercowo-Naczyniowe PAKS - Chrzanow","city":"Chrzanow","zip":"32-500","country":"Poland","geoPoint":{"lat":50.13546,"lon":19.40203}},{"facility":"Uniwersyteckie Centrum Kliniczne","city":"Gdansk","zip":"80-219","country":"Poland","geoPoint":{"lat":54.35205,"lon":18.64637}},{"facility":"Copernicus Podmiot Leczniczy Sp zoo","city":"Gdansk","zip":"80-462","country":"Poland","geoPoint":{"lat":54.35205,"lon":18.64637}},{"facility":"NZOZ Srodmiescie Spzoo","city":"Gdynia","zip":"81-394","country":"Poland","geoPoint":{"lat":54.51889,"lon":18.53188}},{"facility":"Marek Piepiorka Gabinet Kardiologiczno-Internistyczny","city":"Gdynia","zip":"81-472","country":"Poland","geoPoint":{"lat":54.51889,"lon":18.53188}},{"facility":"Spolka Cywilna Medicina","city":"Gizycko","zip":"11-500","country":"Poland","geoPoint":{"lat":54.03811,"lon":21.76441}},{"facility":"Samodzielny Publiczny Specjalistyczny Szpital Zachodni im swietego Jana Pawla II","city":"Grodzisk Mazowiecki","zip":"05-825","country":"Poland","geoPoint":{"lat":52.10387,"lon":20.6337}},{"facility":"Biokinetica SA","city":"Jozefow","zip":"05-410","country":"Poland","geoPoint":{"lat":52.13707,"lon":21.23589}},{"facility":"Centrum Medyczne Pratia Katowice","city":"Katowice","zip":"40-081","country":"Poland","geoPoint":{"lat":50.25841,"lon":19.02754}},{"facility":"Specjalistyczna Poradnia Kardiologiczna i Nadcisnienia Tetniczego Beata Wozakowska-Kaplon","city":"Kielce","zip":"25-525","country":"Poland","geoPoint":{"lat":50.87033,"lon":20.62752}},{"facility":"Wojewodzki Szpital Zespolony w Kielcach","city":"Kielce","zip":"25-736","country":"Poland","geoPoint":{"lat":50.87033,"lon":20.62752}},{"facility":"Ewa Mirek-Bryniarska Specjalistyczna Praktyka Lekarska","city":"Krakow","zip":"30-082","country":"Poland","geoPoint":{"lat":50.06143,"lon":19.93658}},{"facility":"Zespol Przychodni Specjalistycznych Diab-End-Cor Sp z oo","city":"Krakow","zip":"31-135","country":"Poland","geoPoint":{"lat":50.06143,"lon":19.93658}},{"facility":"Krakowskie Centrum Medyczne Spzoo","city":"Krakow","zip":"31-501","country":"Poland","geoPoint":{"lat":50.06143,"lon":19.93658}},{"facility":"CARINTART Sp zoo Krakowskie Centrum Diagnostyczno-Kliniczne","city":"Krakow","zip":"31-514","country":"Poland","geoPoint":{"lat":50.06143,"lon":19.93658}},{"facility":"Intercard Spzoo Centrum Kardiologii Inwazyjnej Elektroterapii i Angiologii w Krosnie","city":"Krosno","zip":"38-400","country":"Poland","geoPoint":{"lat":49.68866,"lon":21.77058}},{"facility":"Samodzielny Publiczny Zakład Opieki Zdrowotnej w Lecznej","city":"Leczna","zip":"21-010","country":"Poland","geoPoint":{"lat":51.30121,"lon":22.88135}},{"facility":"Wojewodzki Specjalistyczny Szpital im dr Wladyslawa Bieganskiego w Lodzi","city":"Lodz","zip":"91-347","country":"Poland","geoPoint":{"lat":51.75,"lon":19.46667}},{"facility":"Instytut Centrum Zdrowia Matki Polki","city":"Lodz","zip":"93-338","country":"Poland","geoPoint":{"lat":51.75,"lon":19.46667}},{"facility":"Miedziowe Centrum Zdrowia Spolka Akcyjna","city":"Lubin","zip":"59-300","country":"Poland","geoPoint":{"lat":51.40089,"lon":16.20149}},{"facility":"CenterMed Lublin Spzoo","city":"Lublin","zip":"20-044","country":"Poland","geoPoint":{"lat":51.25,"lon":22.56667}},{"facility":"Clinical Best Solutions Sp zoo Spolka komandytowa Gabinet Lekarski","city":"Lublin","zip":"20-078","country":"Poland","geoPoint":{"lat":51.25,"lon":22.56667}},{"facility":"Ko-med Centra Kliniczne Lublin II","city":"Lublin","zip":"20-362","country":"Poland","geoPoint":{"lat":51.25,"lon":22.56667}},{"facility":"NZOZ Twoja Przychodnia Spzoo","city":"Lublin","zip":"20-857","country":"Poland","geoPoint":{"lat":51.25,"lon":22.56667}},{"facility":"Szpital Swietej Anny w Miechowie","city":"Miechow","zip":"32-200","country":"Poland","geoPoint":{"lat":50.35648,"lon":20.02788}},{"facility":"Podhalanski Szpital Specjalistyczny im Jana Pawla II w Nowym Targu","city":"Nowy Targ","zip":"34-400","country":"Poland","geoPoint":{"lat":49.47783,"lon":20.03228}},{"facility":"Centrum Medyczne Pulawska spzoo Centrum Medyczne Pulawska NZOZ","city":"Piaseczno","zip":"05-500","country":"Poland","geoPoint":{"lat":52.0814,"lon":21.02397}},{"facility":"NZOZ Specjalistyczna Przychodnia Lekarska Medikard","city":"Plock","zip":"09-402","country":"Poland","geoPoint":{"lat":52.54682,"lon":19.70638}},{"facility":"Clinical Research Center Spzoo Medic-R Spolka Komandytowa","city":"Poznan","zip":"60-848","country":"Poland","geoPoint":{"lat":52.40692,"lon":16.92993}},{"facility":"KO-MED Centra Kliniczne Spzoo KO-MED Centra Kliniczne Pulawy","city":"Pulawy","zip":"24-100","country":"Poland","geoPoint":{"lat":51.41655,"lon":21.96939}},{"facility":"NZOZ Przychodnia Specjalistyczna Andrzej Wittek Henryk Rudzki spolka jawna","city":"Ruda Slaska","zip":"41-709","country":"Poland","geoPoint":{"lat":50.2584,"lon":18.85632}},{"facility":"Clinical Best Solutions Spolka z ograniczona odpowiedzialnoscia Spolka komandytowa","city":"Siedlce","zip":"08-110","country":"Poland","geoPoint":{"lat":52.16772,"lon":22.29006}},{"facility":"ETG Network Spzoo","city":"Skierniewice","zip":"96-100","country":"Poland","geoPoint":{"lat":51.95485,"lon":20.15837}},{"facility":"KO-MED Centra Kliniczne Spzoo KO-MED Centra Kliniczne Staszow","city":"Staszow","zip":"28-200","country":"Poland","geoPoint":{"lat":50.56307,"lon":21.16593}},{"facility":"Tomasz Blicharski Lubelskie Centrum Diagnostyczne","city":"Swidnik","zip":"21-040","country":"Poland","geoPoint":{"lat":51.21898,"lon":22.69621}},{"facility":"Indywidualna Specjalistyczna Praktyka Lekarska","city":"Szczecin","zip":"70-506","country":"Poland","geoPoint":{"lat":53.42894,"lon":14.55302}},{"facility":"Centrum Szybkiej Diagnostyki Kardiologicznej Kardiomed M Zabowka E Zabowka Spolka cywilna","city":"Tarnow","zip":"33-100","country":"Poland","geoPoint":{"lat":50.01381,"lon":20.98698}},{"facility":"Medical Trials Institute Spzoo","city":"Torun","zip":"87-100","country":"Poland","geoPoint":{"lat":53.01375,"lon":18.59814}},{"facility":"Prywatne Centrum Kardiologii","city":"Torun","zip":"87-100","country":"Poland","geoPoint":{"lat":53.01375,"lon":18.59814}},{"facility":"Wojewodzki Szpital Zespolony im Ludwika Rydygiera w Toruniu","city":"Torun","zip":"87-100","country":"Poland","geoPoint":{"lat":53.01375,"lon":18.59814}},{"facility":"Centrum Medyczne Amed Warszawa Zoliborz","city":"Warszawa","zip":"01-518","country":"Poland","geoPoint":{"lat":52.22977,"lon":21.01178}},{"facility":"Centrum Medyczne Pratia Warszawa","city":"Warszawa","zip":"01-868","country":"Poland","geoPoint":{"lat":52.22977,"lon":21.01178}},{"facility":"Clinical Best Solutions Sp zoo Spolka komandytowa","city":"Warszawa","zip":"02-793","country":"Poland","geoPoint":{"lat":52.22977,"lon":21.01178}},{"facility":"Instytut Psychiatrii i Neurologii","city":"Warszawa","zip":"02-957","country":"Poland","geoPoint":{"lat":52.22977,"lon":21.01178}},{"facility":"Szpital Grochowski imienia Doktora medycyny Rafala Masztaka Spzoo","city":"Warszawa","zip":"04-073","country":"Poland","geoPoint":{"lat":52.22977,"lon":21.01178}},{"facility":"Samodzielny Publiczny Zaklad Opieki Zdrowotnej w Wegrowie","city":"Wegrow","zip":"07-100","country":"Poland","geoPoint":{"lat":52.39954,"lon":22.01634}},{"facility":"Medicor Plus Kardiolodzy Spzoo","city":"Wloclawek","zip":"87-800","country":"Poland","geoPoint":{"lat":52.64817,"lon":19.0678}},{"facility":"Futuremeds spolka z ograniczona odpowiedzialnoscia","city":"Wroclaw","zip":"50-088","country":"Poland","geoPoint":{"lat":51.1,"lon":17.03333}},{"facility":"Centrum Kardiologiczne Pro Corde Spzoo Centrum Kardiologicne Pro Corde Wroclaw","city":"Wroclaw","zip":"50-315","country":"Poland","geoPoint":{"lat":51.1,"lon":17.03333}},{"facility":"Centrum Badan Klinicznych Piotr Napora Lekarze Spolka Partnerska","city":"Wroclaw","zip":"51-162","country":"Poland","geoPoint":{"lat":51.1,"lon":17.03333}},{"facility":"KO-MED Centra Kliniczne Spzoo KO-MED Centra Kliniczne Zamosc","city":"Zamosc","zip":"22-400","country":"Poland","geoPoint":{"lat":50.72314,"lon":23.25196}},{"facility":"Hospital Garcia de Orta, EPE","city":"Almada","zip":"2801-951","country":"Portugal","geoPoint":{"lat":38.67902,"lon":-9.1569}},{"facility":"Centro Hospitalar do Baixo Vouga, EPE - Hospital Infante Dom Pedro","city":"Aveiro","zip":"3814-501","country":"Portugal","geoPoint":{"lat":40.64427,"lon":-8.64554}},{"facility":"Centro Hospitalar de Lisboa Ocidental, EPE - Hospital de Santa Cruz","city":"Carnaxide","zip":"2790-134","country":"Portugal","geoPoint":{"lat":38.72706,"lon":-9.24671}},{"facility":"Centro Hospitalar e Universitario de Coimbra EPE","city":"Coimbra","zip":"3000-075","country":"Portugal","geoPoint":{"lat":40.20564,"lon":-8.41955}},{"facility":"Hospital de Faro, EPE","city":"Faro","zip":"8000-386","country":"Portugal","geoPoint":{"lat":37.01937,"lon":-7.93223}},{"facility":"Hospital da Senhora da Oliveira, Guimaraes, EPE","city":"Guimaraes","zip":"4835-044","country":"Portugal","geoPoint":{"lat":41.44443,"lon":-8.29619}},{"facility":"Associacao Protectora dos Diabeticos de Portugal","city":"Lisboa","zip":"1250-189","country":"Portugal","geoPoint":{"lat":38.71667,"lon":-9.13333}},{"facility":"Unidade Local de Saude de Matosinhos - Hospital Pedro Hispano","city":"Matosinhos","zip":"4464-513","country":"Portugal","geoPoint":{"lat":41.18207,"lon":-8.68908}},{"facility":"Hospital Casa de Saude Sao Mateus","city":"Viseu","zip":"3500-093","country":"Portugal","geoPoint":{"lat":40.66101,"lon":-7.90971}},{"facility":"SC Centrul Medical de Diagnostic si Tratament Ambulator Neomed S.R.L","city":"Brasov","zip":"500283","country":"Romania","geoPoint":{"lat":45.64861,"lon":25.60613}},{"facility":"Spitalul Universitar de Urgenta Bucuresti","city":"Bucharest","zip":"050098","country":"Romania","geoPoint":{"lat":44.43225,"lon":26.10626}},{"facility":"Spitalul Clinic Universitar de Urgenta Elias","city":"Bucuresti","zip":"011461","country":"Romania","geoPoint":{"lat":44.42802,"lon":26.09665}},{"facility":"Institutul de Urgenţă pentru Boli Cardiovasculare \"Prof. Dr. C. C. Iliescu\",","city":"Bucuresti","zip":"022328","country":"Romania","geoPoint":{"lat":44.42802,"lon":26.09665}},{"facility":"Cardiomed SRL","city":"Craiova","zip":"200512","country":"Romania","geoPoint":{"lat":44.31667,"lon":23.8}},{"facility":"Consultmed SRL","city":"Iasi","zip":"700547","country":"Romania","geoPoint":{"lat":47.16667,"lon":27.6}},{"facility":"SC Cardiomed SRL","city":"Iasi","zip":"700732","country":"Romania","geoPoint":{"lat":47.16667,"lon":27.6}},{"facility":"SC Endodigest SRL","city":"Oradea","zip":"410151","country":"Romania","geoPoint":{"lat":47.0458,"lon":21.91833}},{"facility":"SC Sal Med SRL","city":"Pitesti","zip":"110438","country":"Romania","geoPoint":{"lat":44.85,"lon":24.86667}},{"facility":"Mediab SRL","city":"Targu Mures","zip":"540142","country":"Romania","geoPoint":{"lat":46.54245,"lon":24.55747}},{"facility":"CMI Dr Podoleanu Cristian","city":"Targu Mures","zip":"540143","country":"Romania","geoPoint":{"lat":46.54245,"lon":24.55747}},{"facility":"First City Clinical Hospital na E E Volosevich","city":"Arkhangelsk","zip":"163001","country":"Russian Federation","geoPoint":{"lat":64.5401,"lon":40.5433}},{"facility":"NSHI Departmental Hospital at the station Barnaul of OJSC Russian Railways","city":"Barnaul","zip":"656038","country":"Russian Federation","geoPoint":{"lat":53.36056,"lon":83.76361}},{"facility":"Regional State Budget Health care Institution Altay Regional Cardiology Dispensary","city":"Barnaul","zip":"656055","country":"Russian Federation","geoPoint":{"lat":53.36056,"lon":83.76361}},{"facility":"Central City Clinical Hospital 1 of the Oktyabrsky District","city":"Ekaterinburg","zip":"620026","country":"Russian Federation","geoPoint":{"lat":56.8519,"lon":60.6122}},{"facility":"State Budget Medical Institution Sverdlovsk Regional Clinical Hospital N1","city":"Ekaterinburg","zip":"620102","country":"Russian Federation","geoPoint":{"lat":56.8519,"lon":60.6122}},{"facility":"Regional Budget Healthcare Institution Cardiology Dispensary","city":"Ivanovo","zip":"153012","country":"Russian Federation","geoPoint":{"lat":56.99719,"lon":40.97139}},{"facility":"BHI of Republic Udmurtiya City clinical hospital 9 of Ministry of healthcare of Republic Udmurtiya","city":"Izhevsk","zip":"426063","country":"Russian Federation","geoPoint":{"lat":56.84976,"lon":53.20448}},{"facility":"FSBI Heart and Vessels Diseases complex problems Scientific Research Institution","city":"Kemerovo","zip":"650002","country":"Russian Federation","geoPoint":{"lat":55.33333,"lon":86.08333}},{"facility":"Kirov Regional State Budget Healthcare Institution Kirov City Clinical Hospital 1","city":"Kirov","zip":"610014","country":"Russian Federation","geoPoint":{"lat":58.59665,"lon":49.66007}},{"facility":"Regional Clinical Hospital 2 of the Ministry of Health Krasnodar region","city":"Krasnodar","zip":"350012","country":"Russian Federation","geoPoint":{"lat":45.04484,"lon":38.97603}},{"facility":"SBHI Scientific Research Institute Regional Clinical Hospital 1 named after S V Ochapovsky","city":"Krasnodar","zip":"350086","country":"Russian Federation","geoPoint":{"lat":45.04484,"lon":38.97603}},{"facility":"National Medical Research Center for therapy and preventive medicine","city":"Moscow","zip":"101990","country":"Russian Federation","geoPoint":{"lat":55.75222,"lon":37.61556}},{"facility":"Moscow SBHI City Clinical Hospital 15 n a O M Filatov of Moscow Healthcare Department","city":"Moscow","zip":"111539","country":"Russian Federation","geoPoint":{"lat":55.75222,"lon":37.61556}},{"facility":"SBHI of Moscow City clinical hospital 64 of Moscow Healthcare department","city":"Moscow","zip":"117292","country":"Russian Federation","geoPoint":{"lat":55.75222,"lon":37.61556}},{"facility":"City Clinical Hospital named after Zhadkevich","city":"Moscow","zip":"121374","country":"Russian Federation","geoPoint":{"lat":55.75222,"lon":37.61556}},{"facility":"FSBI Russian Cardiology Research and Production Complex","city":"Moscow","zip":"121552","country":"Russian Federation","geoPoint":{"lat":55.75222,"lon":37.61556}},{"facility":"SBHI of Nizhny Novgorod region Nizhny Novgorod regional clinical hospital na N A Semashko","city":"Nizhny Novgorod","zip":"603126","country":"Russian Federation","geoPoint":{"lat":56.32867,"lon":44.00205}},{"facility":"LLC RC Medical","city":"Novosibirsk","zip":"630005","country":"Russian Federation","geoPoint":{"lat":55.0415,"lon":82.9346}},{"facility":"SBHI of Novosibirsk Region City clinical hospital 1","city":"Novosibirsk","zip":"630047","country":"Russian Federation","geoPoint":{"lat":55.0415,"lon":82.9346}},{"facility":"FSBSI Scientific Research Institute of Therapy and preventive medicine","city":"Novosibirsk","zip":"630089","country":"Russian Federation","geoPoint":{"lat":55.0415,"lon":82.9346}},{"facility":"Budget Healthcare Institution of Omsk region Medical-sanitary unit 9","city":"Omsk","zip":"644018","country":"Russian Federation","geoPoint":{"lat":54.99244,"lon":73.36859}},{"facility":"Perm Regional Hospital for War Veterans","city":"Perm","zip":"614097","country":"Russian Federation","geoPoint":{"lat":58.01046,"lon":56.25017}},{"facility":"State Budget Institution of Ryazan Region Regional Clinical Hospital","city":"Ryazan","zip":"390039","country":"Russian Federation","geoPoint":{"lat":54.6269,"lon":39.6916}},{"facility":"SBHI Medical and sports dispensary of Krasnogvardeisky district of Saint Petersburg","city":"Saint Petersburg","zip":"195112","country":"Russian Federation","geoPoint":{"lat":59.93863,"lon":30.31413}},{"facility":"Almazov National Medical Research Centre","city":"Saint Petersburg","zip":"197341","country":"Russian Federation","geoPoint":{"lat":59.93863,"lon":30.31413}},{"facility":"Saint Petersburg State Budget Healthcare Institution City Polyclinic 109","city":"Saint-Petersburg","zip":"192283","country":"Russian Federation","geoPoint":{"lat":59.93863,"lon":30.31413}},{"facility":"Saint Petersburg State Budget Healthcare Institution City Polyclinic 109","city":"Saint-Petersburg","zip":"192289","country":"Russian Federation","geoPoint":{"lat":59.93863,"lon":30.31413}},{"facility":"City polyclinic 25 Nevsky district","city":"Saint-Petersburg","zip":"193312","country":"Russian Federation","geoPoint":{"lat":59.93863,"lon":30.31413}},{"facility":"Saint Petersburg SBHI City Hospital 38 named after N A Semashko","city":"Saint-Petersburg","zip":"196601","country":"Russian Federation","geoPoint":{"lat":59.93863,"lon":30.31413}},{"facility":"Saint Petersburg State Budget Healthcare Institution Pokrovskaya City Hospital","city":"Saint-Petersburg","zip":"199106","country":"Russian Federation","geoPoint":{"lat":59.93863,"lon":30.31413}},{"facility":"LLC Mart","city":"Saint-Petersburg","zip":"199178","country":"Russian Federation","geoPoint":{"lat":59.93863,"lon":30.31413}},{"facility":"LLC Medinef Clinic","city":"Sait-Petersburg","zip":"194044","country":"Russian Federation"},{"facility":"Samara Regional Clinical Cardiology Dispensary","city":"Samara","zip":"443070","country":"Russian Federation","geoPoint":{"lat":53.20007,"lon":50.15}},{"facility":"Clinical Hospital named after S R Mirotvortsev","city":"Saratov","zip":"410054","country":"Russian Federation","geoPoint":{"lat":51.54056,"lon":46.00861}},{"facility":"Regional State Budget Helthcare Institution Smolensk Regional Clinical Hospital","city":"Smolensk","zip":"214018","country":"Russian Federation","geoPoint":{"lat":54.7818,"lon":32.0401}},{"facility":"State Budgetary Health Institution City Hospital 4 of the City of Sochi","city":"Sochi","zip":"354057","country":"Russian Federation","geoPoint":{"lat":43.59917,"lon":39.72569}},{"facility":"City Polyclinic 27","city":"St. Petersburg","zip":"190031","country":"Russian Federation","geoPoint":{"lat":59.93863,"lon":30.31413}},{"facility":"FSBSI Tomsk National Research Medical Center of the Russian Academy of Sciences","city":"Tomsk","zip":"634012","country":"Russian Federation","geoPoint":{"lat":56.49771,"lon":84.97437}},{"facility":"Tyumen State Medical University","city":"Tyumen","zip":"625023","country":"Russian Federation","geoPoint":{"lat":57.15222,"lon":65.52722}},{"facility":"State Autonomous Healthcare Institution of the Tyumen region Medical Scientific Practical Center","city":"Tyumen","zip":"625032","country":"Russian Federation","geoPoint":{"lat":57.15222,"lon":65.52722}},{"facility":"SBHI of Vladimirskaya region City Hospital 4 of Vladimir","city":"Vladimir","zip":"600020","country":"Russian Federation","geoPoint":{"lat":56.13655,"lon":40.39658}},{"facility":"Family Medicine Clinic","city":"Volgograd","zip":"400001","country":"Russian Federation","geoPoint":{"lat":48.71939,"lon":44.50183}},{"facility":"Alian, sro","city":"Bardejov","zip":"085 01","country":"Slovakia","geoPoint":{"lat":49.29175,"lon":21.27271}},{"facility":"MediTask, sro","city":"Bratislava","zip":"831 03","country":"Slovakia","geoPoint":{"lat":48.14816,"lon":17.10674}},{"facility":"Narodny ustav srdcovych a cievnych chorob, as","city":"Bratislava","zip":"833 48","country":"Slovakia","geoPoint":{"lat":48.14816,"lon":17.10674}},{"facility":"Veria, sro","city":"Bratislava","zip":"851 01","country":"Slovakia","geoPoint":{"lat":48.14816,"lon":17.10674}},{"facility":"Nemocnica s poliklinikou Brezno, no","city":"Brezno","zip":"977 01","country":"Slovakia","geoPoint":{"lat":48.80431,"lon":19.63631}},{"facility":"Medical group Kosice sro","city":"Kosice","zip":"040 01","country":"Slovakia","geoPoint":{"lat":48.71395,"lon":21.25808}},{"facility":"Cardio D and R, sro Kosice","city":"Kosice","zip":"040 22","country":"Slovakia","geoPoint":{"lat":48.71395,"lon":21.25808}},{"facility":"Kardio 1 sro","city":"Lucenec","zip":"984 01","country":"Slovakia","geoPoint":{"lat":48.33249,"lon":19.66708}},{"facility":"Medi M and M sro","city":"Moldava nad Bodvou","zip":"045 01","country":"Slovakia","geoPoint":{"lat":48.61428,"lon":20.99957}},{"facility":"Oralek, sro","city":"Namestovo","zip":"029 01","country":"Slovakia","geoPoint":{"lat":49.4079,"lon":19.48032}},{"facility":"Kardiocentrum Nitra sro","city":"Nitra","zip":"949 01","country":"Slovakia","geoPoint":{"lat":48.30763,"lon":18.08453}},{"facility":"Kardiomed NZ, sro","city":"Nove Zamky","zip":"940 01","country":"Slovakia","geoPoint":{"lat":47.98544,"lon":18.16195}},{"facility":"Medikard, sro","city":"Presov","zip":"080 01","country":"Slovakia","geoPoint":{"lat":48.99839,"lon":21.23393}},{"facility":"Medispol, sro","city":"Presov","zip":"080 01","country":"Slovakia","geoPoint":{"lat":48.99839,"lon":21.23393}},{"facility":"Diab sro","city":"Roznava","zip":"048 01","country":"Slovakia","geoPoint":{"lat":48.66009,"lon":20.53758}},{"facility":"Mediluk sro","city":"Snina","zip":"069 01","country":"Slovakia","geoPoint":{"lat":48.98857,"lon":22.15099}},{"facility":"Interna SK, sro","city":"Svidnik","zip":"089 01","country":"Slovakia","geoPoint":{"lat":49.30819,"lon":21.5703}},{"facility":"Areteus sro","city":"Trebisov","zip":"075 01","country":"Slovakia","geoPoint":{"lat":48.62858,"lon":21.71954}},{"facility":"CardiOr, sro","city":"Trencin","zip":"911 01","country":"Slovakia","geoPoint":{"lat":48.89452,"lon":18.04436}},{"facility":"Hospital Virgen del Mar","city":"Almeria","state":"Andalucía","zip":"04120","country":"Spain","geoPoint":{"lat":36.83814,"lon":-2.45974}},{"facility":"Hospital Universitario Reina Sofia","city":"Cordoba","state":"Andalucía","zip":"14004","country":"Spain","geoPoint":{"lat":37.89155,"lon":-4.77275}},{"facility":"Hospital Universitario Virgen de las Nieves","city":"Granada","state":"Andalucía","zip":"18012","country":"Spain","geoPoint":{"lat":37.18817,"lon":-3.60667}},{"facility":"Hospital Clinico Universitario Virgen de la Victoria","city":"Malaga","state":"Andalucía","zip":"29010","country":"Spain","geoPoint":{"lat":36.72016,"lon":-4.42034}},{"facility":"Hospital Universitario Virgen Macarena","city":"Sevilla","state":"Andalucía","zip":"41009","country":"Spain","geoPoint":{"lat":37.38283,"lon":-5.97317}},{"facility":"Hospital Universitario Miguel Servet","city":"Zaragoza","state":"Aragón","zip":"50009","country":"Spain","geoPoint":{"lat":41.65606,"lon":-0.87734}},{"facility":"Hospital Universitario de Gran Canaria Doctor Negrin","city":"Las Palmas De Gran Canarias","state":"Canarias","zip":"35010","country":"Spain"},{"facility":"Hospital Clinico Universitario de Valladolid","city":"Valladolid","state":"Castilla León","zip":"47005","country":"Spain","geoPoint":{"lat":41.65518,"lon":-4.72372}},{"facility":"Hospital Universitari Germans Trias i Pujol","city":"Badalona","state":"Cataluña","zip":"08916","country":"Spain","geoPoint":{"lat":41.45004,"lon":2.24741}},{"facility":"Equip Atencio Primaria Sardenya","city":"Barcelona","state":"Cataluña","zip":"08025","country":"Spain","geoPoint":{"lat":41.38879,"lon":2.15899}},{"facility":"Hospital Clinic i Provincial de Barcelona","city":"Barcelona","state":"Cataluña","zip":"08036","country":"Spain","geoPoint":{"lat":41.38879,"lon":2.15899}},{"facility":"Hospital Universitari Sant Joan de Reus","city":"Reus","state":"Cataluña","zip":"43204","country":"Spain","geoPoint":{"lat":41.15612,"lon":1.10687}},{"facility":"Hospital Universitari i Politecnic La Fe","city":"Valencia","state":"Comunidad Valenciana","zip":"26026","country":"Spain","geoPoint":{"lat":39.46975,"lon":-0.37739}},{"facility":"Hospital Clinico Universitario de Valencia","city":"Valencia","state":"Comunidad Valenciana","zip":"46010","country":"Spain","geoPoint":{"lat":39.46975,"lon":-0.37739}},{"facility":"Complexo Hospitalario Universitario A Coruña","city":"A Coruña","state":"Galicia","zip":"15006","country":"Spain","geoPoint":{"lat":43.37135,"lon":-8.396}},{"facility":"Hospital Clinico Universitario de Santiago","city":"Santiago de Compostela","state":"Galicia","zip":"15706","country":"Spain","geoPoint":{"lat":42.88052,"lon":-8.54569}},{"facility":"Hospital Alvaro Cunqueiro","city":"Vigo","state":"Galicia","zip":"36312","country":"Spain","geoPoint":{"lat":42.23282,"lon":-8.72264}},{"facility":"Hospital Universitario Virgen de la Arrixaca","city":"El Palmar","state":"Murcia","zip":"30120","country":"Spain","geoPoint":{"lat":37.93939,"lon":-1.16095}},{"facility":"Complejo Hospitalario de Navarra","city":"Pamplona","state":"Navarra","zip":"31008","country":"Spain","geoPoint":{"lat":42.81687,"lon":-1.64323}},{"facility":"Hospital Universitario de La Princesa","city":"Madrid","zip":"28006","country":"Spain","geoPoint":{"lat":40.4165,"lon":-3.70256}},{"facility":"Fundacion Jimenez Diaz","city":"Madrid","zip":"28040","country":"Spain","geoPoint":{"lat":40.4165,"lon":-3.70256}},{"facility":"Hospital Clinico San Carlos","city":"Madrid","zip":"28040","country":"Spain","geoPoint":{"lat":40.4165,"lon":-3.70256}},{"facility":"Hospital Universitario 12 de Octubre","city":"Madrid","zip":"28041","country":"Spain","geoPoint":{"lat":40.4165,"lon":-3.70256}},{"facility":"Hospital Universitario La Paz","city":"Madrid","zip":"28046","country":"Spain","geoPoint":{"lat":40.4165,"lon":-3.70256}},{"facility":"Hospital Universitario Infanta Sofia","city":"Madrid","zip":"28702","country":"Spain","geoPoint":{"lat":40.4165,"lon":-3.70256}},{"facility":"Sodra Alvsborgs sjukhus","city":"Boras","zip":"501 82","country":"Sweden","geoPoint":{"lat":57.72101,"lon":12.9401}},{"facility":"Falu Lasarett","city":"Falun","zip":"791 82","country":"Sweden","geoPoint":{"lat":60.60357,"lon":15.62597}},{"facility":"Carlanderska","city":"Goteborg","zip":"405 45","country":"Sweden","geoPoint":{"lat":57.70716,"lon":11.96679}},{"facility":"Sahlgrenska Universitetssjukhus","city":"Goteborg","zip":"413 45","country":"Sweden","geoPoint":{"lat":57.70716,"lon":11.96679}},{"facility":"Obackakliniken i Harnosand","city":"Harnosand","zip":"871 31","country":"Sweden","geoPoint":{"lat":62.63228,"lon":17.93794}},{"facility":"PharmaSite Helsingborg","city":"Helsingborg","zip":"252 20","country":"Sweden","geoPoint":{"lat":56.04673,"lon":12.69437}},{"facility":"Lanssjukhuset Ryhov","city":"Jonkoping","zip":"551 85","country":"Sweden","geoPoint":{"lat":57.78145,"lon":14.15618}},{"facility":"Centralsjukhuset Karlstad","city":"Karlstad","zip":"651 85","country":"Sweden","geoPoint":{"lat":59.3793,"lon":13.50357}},{"facility":"Skaraborgs sjukhus Lidkoping","city":"Lidkoping","zip":"531 85","country":"Sweden","geoPoint":{"lat":58.50517,"lon":13.15765}},{"facility":"Clemenstorgets Hjartmottagning","city":"Lund","zip":"222 21","country":"Sweden","geoPoint":{"lat":55.70584,"lon":13.19321}},{"facility":"PharmaSite Malmo","city":"Malmo","zip":"211 52","country":"Sweden","geoPoint":{"lat":55.60587,"lon":13.00073}},{"facility":"Ostersunds sjukhus","city":"Ostersund","zip":"831 83","country":"Sweden","geoPoint":{"lat":63.1792,"lon":14.63566}},{"facility":"Akardo MedSite","city":"Stockholm","zip":"117 27","country":"Sweden","geoPoint":{"lat":59.33258,"lon":18.0649}},{"facility":"Norrlands Universitetssjukhus","city":"Umea","zip":"901 85","country":"Sweden","geoPoint":{"lat":63.82842,"lon":20.25972}},{"facility":"Hallands sjukhus Varberg","city":"Varberg","zip":"432 81","country":"Sweden","geoPoint":{"lat":57.10557,"lon":12.25078}},{"facility":"Hualien Tzu Chi Hospital","city":"Hualien","zip":"97002","country":"Taiwan"},{"facility":"Kaohsiung Medical University Chung-Ho Memorial Hospital","city":"Kaohsiung","zip":"80756","country":"Taiwan","geoPoint":{"lat":22.61626,"lon":120.31333}},{"facility":"Kaohsiung Chang Gung Memorial Hospital","city":"Kaohsiung","zip":"83301","country":"Taiwan","geoPoint":{"lat":22.61626,"lon":120.31333}},{"facility":"Mackay Memorial Hospital Tamsui Branch","city":"New Taipei","zip":"25160","country":"Taiwan","geoPoint":{"lat":25.01111,"lon":121.44583}},{"facility":"Chung Shan Medical University Hospital","city":"Taichung","zip":"40201","country":"Taiwan","geoPoint":{"lat":24.1469,"lon":120.6839}},{"facility":"Taichung Veterans General Hospital","city":"Taichung","zip":"40705","country":"Taiwan","geoPoint":{"lat":24.1469,"lon":120.6839}},{"facility":"National Cheng Kung University Hospital","city":"Tainan","zip":"70403","country":"Taiwan","geoPoint":{"lat":22.99083,"lon":120.21333}},{"facility":"National Taiwan University Hospital","city":"Taipei","zip":"10002","country":"Taiwan","geoPoint":{"lat":25.04776,"lon":121.53185}},{"facility":"Taipei Veterans General Hospital","city":"Taipei","zip":"11217","country":"Taiwan","geoPoint":{"lat":25.04776,"lon":121.53185}},{"facility":"Linkou Chang Gung Memorial Hospital of Chang Gung Medical Foundation","city":"Taoyuan","zip":"33305","country":"Taiwan","geoPoint":{"lat":24.95233,"lon":121.20193}},{"facility":"Ivano-Frankivsk Regional Clinical Cardiology Center of Ivano-Frankivsk Regional Council","city":"Ivano-Frankivsk","zip":"76018","country":"Ukraine","geoPoint":{"lat":48.9215,"lon":24.70972}},{"facility":"Communal Healthcare Institution Kharkiv City Clinical Hospital No27","city":"Kharkiv","zip":"61002","country":"Ukraine","geoPoint":{"lat":49.98081,"lon":36.25272}},{"facility":"Medical and Sanitary Unit of Open Joint Stock Company Kharkiv Tractor Plant","city":"Kharkiv","zip":"61106","country":"Ukraine","geoPoint":{"lat":49.98081,"lon":36.25272}},{"facility":"Communal Noncommercial enterprise \"City Hospital #8\" of Kharkiv City Council","city":"Kharkiv","zip":"61176","country":"Ukraine","geoPoint":{"lat":49.98081,"lon":36.25272}},{"facility":"Oleksandrivska Clinical Hospital of Kyiv","city":"Kyiv","zip":"01023","country":"Ukraine","geoPoint":{"lat":50.45466,"lon":30.5238}},{"facility":"Kyiv City Clinical Hospital 1","city":"Kyiv","zip":"02091","country":"Ukraine","geoPoint":{"lat":50.45466,"lon":30.5238}},{"facility":"Communal Noncommercial Institution Consultative and Diagnostic Center of Desnianskyi District of Kyi","city":"Kyiv","zip":"02232","country":"Ukraine","geoPoint":{"lat":50.45466,"lon":30.5238}},{"facility":"Kyiv City Clinical Emergency Medical Care Hospital","city":"Kyiv","zip":"02660","country":"Ukraine","geoPoint":{"lat":50.45466,"lon":30.5238}},{"facility":"National Scientific Center \"M.D. Strazhesko Institute of Cardiology\"","city":"Kyiv","zip":"03151","country":"Ukraine","geoPoint":{"lat":50.45466,"lon":30.5238}},{"facility":"State Institution National Scientific Center Acad MD Strazhesko Institute of cardiology of NAMS Ukr","city":"Kyiv","zip":"03680","country":"Ukraine","geoPoint":{"lat":50.45466,"lon":30.5238}},{"facility":"State Institution National Scientific Center Acad Strazhesko Institute of Cardiology","city":"Kyiv","zip":"03680","country":"Ukraine","geoPoint":{"lat":50.45466,"lon":30.5238}},{"facility":"Medical Centre CONSILIUM Medical","city":"Kyiv","zip":"04050","country":"Ukraine","geoPoint":{"lat":50.45466,"lon":30.5238}},{"facility":"Zakarpattia Oblast Clinical Center of Cardiology and Cardio Surgery","city":"Uzhgorod","zip":"88014","country":"Ukraine","geoPoint":{"lat":48.61667,"lon":22.3}},{"facility":"Vinnytsia M I Pyrogov Regional Clinical Hospital Vinnytsia M I Pyrogov National Medical University","city":"Vinnytsia","zip":"21018","country":"Ukraine","geoPoint":{"lat":49.23278,"lon":28.48097}},{"facility":"Private Small Enterprise, Medical Center Pulse","city":"Vinnytsya","zip":"21001","country":"Ukraine","geoPoint":{"lat":49.23278,"lon":28.48097}},{"facility":"Communal Non-commercial enterprise \"City Hospital #6 \"of Zaporizhzhia City Council","city":"Zaporizhzhia","zip":"69035","country":"Ukraine","geoPoint":{"lat":50.60727,"lon":31.78792}},{"facility":"Aberdeen Royal Infirmary","city":"Aberdeen","zip":"AB25 2ZN","country":"United Kingdom","geoPoint":{"lat":57.14369,"lon":-2.09814}},{"facility":"Barnsley Hospital","city":"Barnsley","zip":"S75 2EP","country":"United Kingdom","geoPoint":{"lat":53.55,"lon":-1.48333}},{"facility":"Royal United Hospital","city":"Bath","zip":"BA1 3NG","country":"United Kingdom","geoPoint":{"lat":51.3751,"lon":-2.36172}},{"facility":"Royal Victoria Hospital","city":"Belfast","zip":"BT12 6BA","country":"United Kingdom","geoPoint":{"lat":54.59682,"lon":-5.92541}},{"facility":"Ulster Hospital","city":"Belfast","zip":"BT16 1RH","country":"United Kingdom","geoPoint":{"lat":54.59682,"lon":-5.92541}},{"facility":"Ormeau Health Centre","city":"Belfast","zip":"BT7 2EB","country":"United Kingdom","geoPoint":{"lat":54.59682,"lon":-5.92541}},{"facility":"Bollington Medical Centre","city":"Bollington","zip":"SK10 5JH","country":"United Kingdom","geoPoint":{"lat":53.29446,"lon":-2.10963}},{"facility":"Royal Bournemouth Hospital","city":"Bournemouth","zip":"BH7 7DW","country":"United Kingdom","geoPoint":{"lat":50.72048,"lon":-1.8795}},{"facility":"West Walk Surgery","city":"Bristol","zip":"BS37 4AX","country":"United Kingdom","geoPoint":{"lat":51.45523,"lon":-2.59665}},{"facility":"University Hospitals of Derby and Burton NHS Foundation Trust","city":"Burton upon Trent","zip":"DE13 0RB","country":"United Kingdom","geoPoint":{"lat":52.80728,"lon":-1.64263}},{"facility":"Ashgate Medical Practice","city":"Chesterfield","zip":"S40 4AA","country":"United Kingdom","geoPoint":{"lat":53.25,"lon":-1.41667}},{"facility":"Cleveleys Group Practice","city":"Cleveleys","zip":"FY5 3LF","country":"United Kingdom","geoPoint":{"lat":53.8775,"lon":-3.03987}},{"facility":"Lakeside Healthcare","city":"Corby","zip":"NN17 2UR","country":"United Kingdom","geoPoint":{"lat":52.49637,"lon":-0.68939}},{"facility":"Medinova Northamptonshire Dedicated Research Site","city":"Corby","zip":"NN18 9EZ","country":"United Kingdom","geoPoint":{"lat":52.49637,"lon":-0.68939}},{"facility":"MeDiNova Warwickshire Quality Research Site","city":"Coventry","zip":"CV3 4FJ","country":"United Kingdom","geoPoint":{"lat":52.40656,"lon":-1.51217}},{"facility":"Pound Hill Medical Group","city":"Crawley","zip":"RH10 7DX","country":"United Kingdom","geoPoint":{"lat":51.11303,"lon":-0.18312}},{"facility":"Ninewells Hospital","city":"Dundee","zip":"DD1 9SY","country":"United Kingdom","geoPoint":{"lat":56.46913,"lon":-2.97489}},{"facility":"Glasgow Royal Infirmary","city":"Glasgow","zip":"G31 2ER","country":"United Kingdom","geoPoint":{"lat":55.86515,"lon":-4.25763}},{"facility":"Hull Royal Infirmary","city":"Hull","zip":"HU3 2RW","country":"United Kingdom","geoPoint":{"lat":53.7446,"lon":-0.33525}},{"facility":"Highlands Clinical Research Facility, Raigmore Hospital","city":"Inverness","zip":"IV2 3JH","country":"United Kingdom","geoPoint":{"lat":57.47908,"lon":-4.22398}},{"facility":"Sherbourne Medical Centre","city":"Leamington Spa","zip":"CV32 4RA","country":"United Kingdom","geoPoint":{"lat":52.3,"lon":-1.53333}},{"facility":"Royal Liverpool University Hospital","city":"Liverpool","zip":"L7 8XP","country":"United Kingdom","geoPoint":{"lat":53.41058,"lon":-2.97794}},{"facility":"Barts Health NHS Trust","city":"London","zip":"EC1M 6BQ","country":"United Kingdom","geoPoint":{"lat":51.50853,"lon":-0.12574}},{"facility":"Royal Free London NHS Foundation Trust","city":"London","zip":"NW3 2QG","country":"United Kingdom","geoPoint":{"lat":51.50853,"lon":-0.12574}},{"facility":"Guys Hospital","city":"London","zip":"SE1 9RT","country":"United Kingdom","geoPoint":{"lat":51.50853,"lon":-0.12574}},{"facility":"Wythenshawe Hospital","city":"Manchester","zip":"M23 9LT","country":"United Kingdom","geoPoint":{"lat":53.48095,"lon":-2.23743}},{"facility":"Medinova North London Dedicated Research Centre","city":"Northwood","zip":"HA6 2RN","country":"United Kingdom"},{"facility":"Nottingham City Hospital","city":"Nottingham","zip":"NG5 1PB","country":"United Kingdom","geoPoint":{"lat":52.9536,"lon":-1.15047}},{"facility":"George Eliot Hospital","city":"Nuneaton","zip":"CV10 7DJ","country":"United Kingdom","geoPoint":{"lat":52.52323,"lon":-1.46523}},{"facility":"Medinova South London Dedicated Research Centre","city":"Orpington","zip":"BR5 3QG","country":"United Kingdom","geoPoint":{"lat":51.37457,"lon":0.09785}},{"facility":"Mounts Bay Medical Hub","city":"Penzance","zip":"TR19 7HX","country":"United Kingdom","geoPoint":{"lat":50.11861,"lon":-5.53715}},{"facility":"The Health Centre Yaxley","city":"Peterborough","zip":"PE7 1AT","country":"United Kingdom","geoPoint":{"lat":52.57364,"lon":-0.24777}},{"facility":"The Adam Practice","city":"Poole","zip":"BH16 5PW","country":"United Kingdom","geoPoint":{"lat":50.71429,"lon":-1.98458}},{"facility":"Medinova East London Dedicated Research Centre","city":"Romford","zip":"RM1 3PJ","country":"United Kingdom","geoPoint":{"lat":51.57515,"lon":0.18582}},{"facility":"Ashfield Primary Care Centre","city":"Sandbach","zip":"CW11 1EQ","country":"United Kingdom","geoPoint":{"lat":53.14515,"lon":-2.36251}},{"facility":"Scunthorpe General Hospital","city":"Scunthorpe","zip":"DN15 7BH","country":"United Kingdom","geoPoint":{"lat":53.57905,"lon":-0.65437}},{"facility":"Medinova Limited","city":"Shipley","zip":"BD18 3SA","country":"United Kingdom","geoPoint":{"lat":53.83333,"lon":-1.76667}},{"facility":"Eaton Socon Health Centre","city":"St Neots","zip":"PE19 8BB","country":"United Kingdom","geoPoint":{"lat":52.21667,"lon":-0.26667}},{"facility":"Lakeside Healthcare Stamford","city":"Stamford","zip":"PE9 2DH","country":"United Kingdom","geoPoint":{"lat":52.65,"lon":-0.48333}},{"facility":"Lister Hospital","city":"Stevenage","zip":"SG1 4AB","country":"United Kingdom","geoPoint":{"lat":51.90224,"lon":-0.20256}},{"facility":"Singleton Hospital","city":"Swansea","zip":"SA2 8PP","country":"United Kingdom","geoPoint":{"lat":51.62079,"lon":-3.94323}},{"facility":"The Breckland Alliance","city":"Thetford","zip":"IP24 1JD","country":"United Kingdom","geoPoint":{"lat":52.41667,"lon":0.75}},{"facility":"Torbay Hospital","city":"Torquay","zip":"TQ2 7AA","country":"United Kingdom","geoPoint":{"lat":50.46198,"lon":-3.5252}},{"facility":"Pinderfields Hospital","city":"Wakefield","zip":"WF1 4DG","country":"United Kingdom","geoPoint":{"lat":53.68331,"lon":-1.49768}},{"facility":"Sheepcot Medical Practice","city":"Watford","zip":"WD25 7NL","country":"United Kingdom","geoPoint":{"lat":51.65531,"lon":-0.39602}},{"facility":"Sandwell General Hospital","city":"West Bromwich","zip":"B71 4HJ","country":"United Kingdom","geoPoint":{"lat":52.51868,"lon":-1.9945}},{"facility":"Whitby Group Practice","city":"Whitby","zip":"YO21 1SD","country":"United Kingdom","geoPoint":{"lat":54.48774,"lon":-0.61498}},{"facility":"MeDiNova West London Quality Research Site","city":"Wokingham","zip":"RG40 1XS","country":"United Kingdom","geoPoint":{"lat":51.4112,"lon":-0.83565}},{"facility":"Worcestershire Royal Hospital","city":"Worcester","zip":"WR5 1DD","country":"United Kingdom","geoPoint":{"lat":52.18935,"lon":-2.22001}},{"facility":"Yeovil District Hospital","city":"Yeovil","zip":"BA21 4AT","country":"United Kingdom","geoPoint":{"lat":50.94159,"lon":-2.63211}}]},"referencesModule":{"seeAlsoLinks":[{"label":"AmgenTrials clinical trials website","url":"http://www.amgentrials.com"}]},"ipdSharingStatementModule":{"ipdSharing":"YES","description":"De-identified individual patient data for variables necessary to address the specific research question in an approved data sharing request.","infoTypes":["STUDY_PROTOCOL","SAP","ICF","CSR"],"timeFrame":"Data sharing requests relating to this study will be considered beginning 18 months after the study has ended and either 1) The product and indication have been granted marketing authorization in both the US and Europe or 2) clinical development for the product and/or indication discontinues and the data will not be submitted to regulatory authorities. There is no end date for eligibility to submit a data sharing request for this study.","accessCriteria":"Qualified researchers may submit a request containing the research objectives, the Amgen product(s) and Amgen study/studies in scope, endpoints/outcomes of interest, statistical analysis plan, data requirements, publication plan, and qualifications of the researcher(s). In general, Amgen does not grant external requests for individual patient data for the purpose of re-evaluating safety and efficacy issues already addressed in the product labelling. Requests are reviewed by a committee of internal advisors. If not approved, a Data Sharing Independent Review Panel will arbitrate and make the final decision. Upon approval, information necessary to address the research question will be provided under the terms of a data sharing agreement. This may include anonymized individual patient data and/or available supporting documents, containing fragments of analysis code where provided in analysis specifications. Further details are available at the link below.","url":"http://www.amgen.com/datasharing"}},"derivedSection":{"miscInfoModule":{"versionHolder":"2024-02-14"},"conditionBrowseModule":{"meshes":[{"id":"D000006331","term":"Heart Diseases"},{"id":"D000009203","term":"Myocardial Infarction"},{"id":"D000003327","term":"Coronary Disease"},{"id":"D000003324","term":"Coronary Artery Disease"},{"id":"D000017202","term":"Myocardial Ischemia"},{"id":"D000007238","term":"Infarction"}],"ancestors":[{"id":"D000014652","term":"Vascular Diseases"},{"id":"D000002318","term":"Cardiovascular Diseases"},{"id":"D000007511","term":"Ischemia"},{"id":"D000010335","term":"Pathologic Processes"},{"id":"D000009336","term":"Necrosis"},{"id":"D000001161","term":"Arteriosclerosis"},{"id":"D000001157","term":"Arterial Occlusive Diseases"}],"browseLeaves":[{"id":"M21996","name":"Stroke","relevance":"LOW"},{"id":"M6236","name":"Coronary Artery Disease","asFound":"Coronary Heart Disease","relevance":"HIGH"},{"id":"M6239","name":"Coronary Disease","asFound":"Coronary Heart Disease","relevance":"HIGH"},{"id":"M19196","name":"Myocardial Ischemia","asFound":"Coronary Heart Disease","relevance":"HIGH"},{"id":"M11845","name":"Myocardial Infarction","asFound":"Myocardial Infarction","relevance":"HIGH"},{"id":"M9972","name":"Infarction","asFound":"Infarction","relevance":"HIGH"},{"id":"M9109","name":"Heart Diseases","asFound":"Heart Disease","relevance":"HIGH"},{"id":"M10233","name":"Ischemia","relevance":"LOW"},{"id":"M17090","name":"Vascular Diseases","relevance":"LOW"},{"id":"M11974","name":"Necrosis","relevance":"LOW"},{"id":"M4159","name":"Arteriosclerosis","relevance":"LOW"},{"id":"M4155","name":"Arterial Occlusive Diseases","relevance":"LOW"}],"browseBranches":[{"abbrev":"BC10","name":"Nervous System Diseases"},{"abbrev":"BC14","name":"Heart and Blood Diseases"},{"abbrev":"All","name":"All Conditions"},{"abbrev":"BC23","name":"Symptoms and General Pathology"}]},"interventionBrowseModule":{"meshes":[{"id":"C000577155","term":"Evolocumab"}],"ancestors":[{"id":"D000091362","term":"PCSK9 Inhibitors"},{"id":"D000000924","term":"Anticholesteremic Agents"},{"id":"D000000960","term":"Hypolipidemic Agents"},{"id":"D000000963","term":"Antimetabolites"},{"id":"D000045504","term":"Molecular Mechanisms of Pharmacological Action"},{"id":"D000015842","term":"Serine Proteinase Inhibitors"},{"id":"D000011480","term":"Protease Inhibitors"},{"id":"D000004791","term":"Enzyme Inhibitors"},{"id":"D000057847","term":"Lipid Regulating Agents"}],"browseLeaves":[{"id":"M348089","name":"Evolocumab","asFound":"Parental","relevance":"HIGH"},{"id":"M2850","name":"PCSK9 Inhibitors","relevance":"LOW"},{"id":"M3933","name":"Anticholesteremic Agents","relevance":"LOW"},{"id":"M3968","name":"Hypolipidemic Agents","relevance":"LOW"},{"id":"M3971","name":"Antimetabolites","relevance":"LOW"},{"id":"M14033","name":"Protease Inhibitors","relevance":"LOW"},{"id":"M18081","name":"Serine Proteinase Inhibitors","relevance":"LOW"},{"id":"M19299","name":"HIV Protease Inhibitors","relevance":"LOW"},{"id":"M7641","name":"Enzyme Inhibitors","relevance":"LOW"},{"id":"M28573","name":"Lipid Regulating Agents","relevance":"LOW"},{"id":"T18","name":"Serine","relevance":"LOW"}],"browseBranches":[{"abbrev":"Lipd","name":"Lipid Regulating Agents"},{"abbrev":"All","name":"All Drugs and Chemicals"},{"abbrev":"Infe","name":"Anti-Infective Agents"},{"abbrev":"AA","name":"Amino Acids"}]}},"hasResults":false}