{"protocolSection":{"identificationModule":{"nctId":"NCT01975389","orgStudyIdInfo":{"id":"B1481038"},"secondaryIdInfos":[{"id":"CV OUTCOMES 2"},{"id":"2013-002795-41","type":"EUDRACT_NUMBER"}],"organization":{"fullName":"Pfizer","class":"INDUSTRY"},"briefTitle":"The Evaluation of Bococizumab (PF-04950615; RN316) in Reducing the Occurrence of Major Cardiovascular Events in High Risk Subjects","officialTitle":"Phase 3 Multi Center, Double Blind, Randomized, Placebo Controlled, Parallel Group Evaluation Of The Efficacy, Safety, And Tolerability Of Bococizumab (Pf-04950615), In Reducing The Occurrence Of Major Cardiovascular Events In High Risk Subjects","acronym":"SPIRE-2"},"statusModule":{"statusVerifiedDate":"2019-04","overallStatus":"TERMINATED","whyStopped":"See Detailed Description","expandedAccessInfo":{"hasExpandedAccess":false},"startDateStruct":{"date":"2013-10-29","type":"ACTUAL"},"primaryCompletionDateStruct":{"date":"2017-04-03","type":"ACTUAL"},"completionDateStruct":{"date":"2017-04-03","type":"ACTUAL"},"studyFirstSubmitDate":"2013-10-21","studyFirstSubmitQcDate":"2013-10-28","studyFirstPostDateStruct":{"date":"2013-11-03","type":"ESTIMATED"},"resultsFirstSubmitDate":"2018-03-21","resultsFirstSubmitQcDate":"2018-05-14","resultsFirstPostDateStruct":{"date":"2018-06-12","type":"ACTUAL"},"lastUpdateSubmitDate":"2019-04-18","lastUpdatePostDateStruct":{"date":"2019-05-01","type":"ACTUAL"}},"sponsorCollaboratorsModule":{"responsibleParty":{"type":"SPONSOR"},"leadSponsor":{"name":"Pfizer","class":"INDUSTRY"}},"oversightModule":{"oversightHasDmc":true,"isFdaRegulatedDrug":true,"isFdaRegulatedDevice":false},"descriptionModule":{"briefSummary":"This study evaluates the PCSK9 inhibitor, Bococizumab (PF-04950615;RN316), compared to placebo, in reducing the occurrrence of major cardiovascular events, including cardiovascular death, myocardial infarction, stroke, and unstable angina requiring urgent revascularization in high risk subjects who are receiving background lipid lowering therapy and have cholesterol laboratory values of LDL-C \\>/= 100 mg/dL (2.6 mmol/L) or non-HDL-C \\>/=130 mg/dL (3.4 mmol/L).","detailedDescription":"The trial was terminated prematurely on November 1, 2016, due to the emerging clinical profile and the evolving treatment and market landscape for lipid-lowering agents. These indicated that bococizumab was not likely to provide value to patients, physicians, or shareholders. The decision was not based on a recommendation by the independent Data Monitoring Committee to stop the program."},"conditionsModule":{"conditions":["Cardiovascular Disease"],"keywords":["myocardial infarction","stroke","hyperlipidemia"]},"designModule":{"studyType":"INTERVENTIONAL","phases":["PHASE3"],"designInfo":{"allocation":"RANDOMIZED","interventionModel":"PARALLEL","primaryPurpose":"PREVENTION","maskingInfo":{"masking":"QUADRUPLE","whoMasked":["PARTICIPANT","CARE_PROVIDER","INVESTIGATOR","OUTCOMES_ASSESSOR"]}},"enrollmentInfo":{"count":10564,"type":"ACTUAL"}},"armsInterventionsModule":{"armGroups":[{"label":"bococizumab (PF-04950615)","type":"EXPERIMENTAL","description":"150 mg, every 2 weeks, subcutaneous.","interventionNames":["Drug: bococizumab (PF-04950615)"]},{"label":"Placebo","type":"PLACEBO_COMPARATOR","description":"Placebo comparator, every 2 weeks, subcutaneous.","interventionNames":["Drug: Placebo"]}],"interventions":[{"type":"DRUG","name":"bococizumab (PF-04950615)","description":"150 mg, every 2 weeks, subcutaneous. The duration of the treatment period will depend upon reaching the targeted number of adjudicated and confirmed CV outcome events, approximately 3 to 4 years after the entry of first subject into the study.","armGroupLabels":["bococizumab (PF-04950615)"],"otherNames":["RN316"]},{"type":"DRUG","name":"Placebo","description":"Placebo comparator, every 2 weeks, subcutaneous. The duration of the treatment period will depend upon reaching the targeted number of adjudicated and confirmed CV outcome events, approximately 3 to 4 years after the entry of first subject into the study.","armGroupLabels":["Placebo"]}]},"outcomesModule":{"primaryOutcomes":[{"measure":"Event Rate Per 100 Participant-years for First Occurrence of Major Cardiovascular (CV) Event","description":"Event rate per 100 participant-years for first occurrence of major CV event (adjudicated by Adjudication Committee) was reported. Major CV event was defined as any of the following: CV death \\[defined as sudden cardiac death, fatal myocardial infarction (MI), death due to heart failure, death due to stroke (fatal ischemic stroke or fatal stroke of undetermined etiology), or death due to other CV causes\\] non-fatal MI, non-fatal stroke, and hospitalization for unstable angina needing urgent revascularization. Event rate was calculated as the number of events per 100 participant-years at risk.","timeFrame":"From baseline until the date of first adjudicated and confirmed occurrence of major CV event (maximum duration: up to 3.4 years)"}],"secondaryOutcomes":[{"measure":"Event Rate Per 100 Participant-years for First Occurrence of Composite Endpoint of Cardiovascular (CV) Death, Non-fatal Myocardial Infraction (MI) or Non-fatal Stroke","description":"Event rate per 100 participant-years for first occurrence of composite endpoint of CV Death, non-fatal MI or non-fatal stroke (adjudicated by Adjudication Committee) was reported. CV death was defined as sudden cardiac death, fatal MI, death due to heart failure, death due to stroke (fatal ischemic stroke or fatal stroke of undetermined etiology), or death due to other CV causes. Event rate was calculated as the number of events per 100 participant-years at risk.","timeFrame":"From baseline until the date of first adjudicated and confirmed occurrence of CV death, non-fatal MI or non-fatal stroke (maximum duration: up to 3.4 years)"},{"measure":"Event Rate Per 100 Participant-years for First Occurrence of Composite Endpoint of All-cause Death, Non-fatal Myocardial Infraction (MI), Non-fatal Stroke or Hospitalization for Unstable Angina Needing Urgent Revascularization","description":"Event rate per 100 participant-years for first occurrence of composite endpoint of all-cause death, non-fatal MI, non-fatal stroke or hospitalization for unstable angina needing urgent revascularization (adjudicated by Adjudication Committee) was reported. All-cause death was defined as the death due to any cause during the course of study. Event rate was calculated as the number of events per 100 participant-years at risk.","timeFrame":"From baseline until the date of first adjudicated and confirmed occurrence of all-cause death, non-fatal MI, non-fatal stroke or hospitalization for unstable angina needing urgent revascularization (maximum duration: up to 3.4 years)"},{"measure":"Event Rate Per 100 Participant-years for First Occurrence of Composite Endpoint of All-cause Death, Non-fatal Myocardial Infarction (MI) or Non-fatal Stroke","description":"Event rate per 100 participant-years for first occurrence of composite endpoint of all-cause death, non-fatal MI or non-fatal stroke (adjudicated by Adjudication Committee) was reported. All-cause death was defined as the death due to any cause during the course of study. Event rate was calculated as the number of events per 100 participant-years at risk.","timeFrame":"From baseline until the date of first adjudicated and confirmed occurrence of all-cause death, non-fatal MI or non-fatal stroke (maximum duration: up to 3.4 years)"},{"measure":"Event Rate Per 100 Participant-years for First Occurrence of Hospitalization for Unstable Angina Needing Urgent Revascularization","description":"Event rate per 100 participant-years for first occurrence of hospitalization for unstable angina needing urgent revascularization (adjudicated by Adjudication Committee) was reported. Event rate was calculated as the number of events per 100 participant-years at risk.","timeFrame":"From baseline until the date of first adjudicated and confirmed occurrence of hospitalization for unstable angina needing urgent revascularization (maximum duration: up to 3.4 years)"},{"measure":"Event Rate Per 100 Participant-years for First Occurrence of Composite Endpoint of Cardiovascular (CV) Death, Non-fatal Myocardial Infarction (MI), Non-fatal Stroke or Hospitalization for Unstable Angina","description":"Event rate per 100 participant-years for first occurrence of composite endpoint of CV death, non-fatal MI, non-fatal stroke or hospitalization for unstable angina (adjudicated by Adjudication Committee) was reported. CV death was defined as sudden cardiac death, fatal MI, death due to heart failure, death due to stroke (fatal ischemic stroke or fatal stroke of undetermined etiology), or death due to other CV causes. Event rate was calculated as the number of events per 100 participant-years at risk.","timeFrame":"From baseline until the date of first adjudicated and confirmed occurrence of CV death, non-fatal MI, non-fatal stroke or hospitalization for unstable angina (maximum duration: up to 3.4 years)"},{"measure":"Event Rate Per 100 Participant-years for Cardiovascular (CV) Death","description":"Event rate per 100 participant-years for occurrence of CV death (adjudicated by Adjudication Committee) was reported. CV death was defined as sudden cardiac death, fatal MI, death due to heart failure, death due to stroke (fatal ischemic stroke or fatal stroke of undetermined etiology), or death due to other CV causes. Event rate was calculated as the number of events per 100 participant-years at risk.","timeFrame":"From baseline until the date of adjudicated and confirmed occurrence of CV death (maximum duration: up to 3.4 years)"},{"measure":"Event Rate Per 100 Participant-years for First Occurrence of Any Myocardial Infarction (Fatal or Non-fatal)","description":"Event rate per 100 participant-years for first occurrence of any myocardial infarction (fatal or non-fatal) (adjudicated by Adjudication Committee) was reported. Event rate was calculated as the number of events per 100 participant-years at risk.","timeFrame":"From baseline until the date of first adjudicated and confirmed occurrence of any myocardial infarction (fatal or non-fatal) (maximum duration: up to 3.4 years)"},{"measure":"Event Rate Per 100 Participant-years for Fatal Myocardial Infarction (MI)","description":"Event rate per 100 participant-years for occurrence of fatal MI (adjudicated by Adjudication Committee) was reported. Event rate was calculated as the number of events per 100 participant-years at risk.","timeFrame":"From baseline until the date of adjudicated and confirmed occurrence of fatal MI (maximum duration: up to 3.4 years)"},{"measure":"Event Rate Per 100 Participant-years for First Occurrence of Non-fatal Myocardial Infarction (MI)","description":"Event rate per 100 participant-years for first occurrence of non-fatal MI (adjudicated by Adjudication Committee) was reported. Event rate was calculated as the number of events per 100 participant-years at risk.","timeFrame":"From baseline until the date of first adjudicated and confirmed occurrence of non-fatal MI (maximum duration: up to 3.4 years)"},{"measure":"Event Rate Per 100 Participant-years for First Occurrence of Any Stroke (Fatal or Non-fatal)","description":"Event rate per 100 participant-years for first occurrence of any stroke (fatal or non-fatal) (adjudicated by Adjudication Committee) was reported. Event rate was calculated as the number of events per 100 participant-years at risk.","timeFrame":"From baseline until the date of first adjudicated and confirmed occurrence of any stroke (fatal or non-fatal) (maximum duration: up to 3.4 years)"},{"measure":"Event Rate Per 100 Participant-years for First Occurrence of Any Stroke (Fatal or Non-fatal), of Any Etiology","description":"Event rate per 100 participant-years for first occurrence of any stroke (fatal or non-fatal) of any etiology (adjudicated by Adjudication Committee) was reported. Event rate was calculated as the number of events per 100 participant-years at risk.","timeFrame":"From baseline until the date of first adjudicated and confirmed occurrence of any stroke (fatal or non-fatal) of any etiology (maximum duration: up to 3.4 years)"},{"measure":"Event Rate Per 100 Participant-years for Fatal Stroke","description":"Event rate per 100 participant-years for occurrence of fatal stroke (adjudicated by Adjudication Committee) was reported. Event rate was calculated as the number of events per 100 participant-years at risk.","timeFrame":"From baseline until the date of adjudicated and confirmed occurrence of fatal stroke (maximum duration: up to 3.4 years)"},{"measure":"Event Rate Per 100 Participant-years for First Occurrence of Non-fatal Stroke","description":"Event rate per 100 participant-years for first occurrence of non-fatal stroke (adjudicated by Adjudication Committee) was reported. Event rate was calculated as the number of events per 100 participant-years at risk.","timeFrame":"From baseline until the date of first adjudicated and confirmed occurrence of non-fatal stroke (maximum duration: up to 3.4 years)"},{"measure":"Event Rate Per 100 Participant-years for First Occurrence of Hospitalization for Unstable Angina","description":"Event rate per 100 participant-years for first occurrence of hospitalization for unstable angina (adjudicated by Adjudication Committee) was reported. Event rate was calculated as the number of events per 100 participant-years at risk.","timeFrame":"From baseline until the date of first adjudicated and confirmed occurrence of hospitalization for unstable angina (maximum duration: up to 3.4 years)"},{"measure":"Event Rate Per 100 Participant-years for First Occurrence of Hospitalization for Congestive Heart Failure (CHF)","description":"Event rate per 100 participant-years for first occurrence of hospitalization for CHF (adjudicated by Adjudication Committee) was reported. Event rate was calculated as the number of events per 100 participant-years at risk.","timeFrame":"From baseline until the date of first adjudicated and confirmed occurrence of hospitalization for CHF (maximum duration: up to 3.4 years)"},{"measure":"Event Rate Per 100 Participant-years for First Occurrence of Coronary Revascularization","description":"Event rate per 100 participant-years for first occurrence of coronary revascularization (adjudicated by Adjudication Committee) was reported. Event rate was calculated as the number of events per 100 participant-years at risk.","timeFrame":"From baseline until the date of first adjudicated and confirmed occurrence of coronary revascularization (maximum duration: up to 3.4 years)"},{"measure":"Event Rate Per 100 Participant-years for First Occurrence of Coronary Artery Bypass Graft Surgery (CABG)","description":"Event rate per 100 participant-years for first occurrence of CABG (adjudicated by Adjudication Committee) was reported. Event rate was calculated as the number of events per 100 participant-years at risk.","timeFrame":"From baseline until the date of first adjudicated and confirmed occurrence of CABG (maximum duration: up to 3.4 years)"},{"measure":"Event Rate Per 100 Participant-years for First Occurrence of Percutaneous Coronary Intervention (PCI)","description":"Event rate per 100 participant-years for first occurrence of PCI (adjudicated by Adjudication Committee) was reported. Event rate was calculated as the number of events per 100 participant-years at risk.","timeFrame":"From baseline until the date of first adjudicated and confirmed occurrence of PCI (maximum duration: up to 3.4 years)"},{"measure":"Event Rate Per 100 Participant-years for First Occurrence of Any Arterial Revascularizations","description":"Event rate per 100 participant-years for first occurrence of any arterial revascularizations (adjudicated by Adjudication Committee) was reported. Event rate was calculated as the number of events per 100 participant-years at risk.","timeFrame":"From baseline until the date of first adjudicated and confirmed occurrence of any arterial revascularizations (maximum duration: up to 3.4 years)"},{"measure":"Event Rate Per 100 Participant-years for All-cause Death","description":"Event rate per 100 participant-years for occurrence of all-cause death (adjudicated by Adjudication Committee) was reported. All-cause death was defined as the death due to any cause during the course of study. Event rate was calculated as the number of events per 100 participant-years at risk.","timeFrame":"From baseline until the date of adjudicated and confirmed occurrence of all-cause death (maximum duration: up to 3.4 years)"},{"measure":"Percent Change From Baseline in Low Density Lipoprotein Cholesterol (LDL-C) at Week 14","timeFrame":"Baseline, Week 14"},{"measure":"Nominal Change From Baseline in Low Density Lipoprotein Cholesterol (LDL-C) at Week 14","timeFrame":"Baseline, Week 14"},{"measure":"Percent Change From Baseline in Low Density Lipoprotein Cholesterol (LDL-C) at Last Post-baseline Measurement","timeFrame":"Baseline, last post-baseline measurement (any time up to Week 140)"},{"measure":"Percent Change From Baseline in Lipid Levels at Week 14","description":"Lipids included non-high density lipoprotein cholesterol (non-HDL-C), very low density lipoprotein cholesterol (VLDL-C), remnant lipoprotein cholesterol (RLP-C), apolipoprotein B (Apo B), HDL-C, apolipoprotein A-I (Apo A-I) and total cholesterol.","timeFrame":"Baseline, Week 14"},{"measure":"Percent Change From Baseline in Log-transformed Triglycerides and Lipoprotein (a) (Lp[a]) at Week 14","timeFrame":"Baseline, Week 14"},{"measure":"Percent Change From Baseline in Log-transformed High Sensitivity C-Reactive Protein (Hs-CRP) at Week 14","timeFrame":"Baseline, Week 14"}]},"eligibilityModule":{"eligibilityCriteria":"Inclusion Criteria:\n\n* Must be on background lipid lowering treatment.\n* Must be at high risk of a CV event.\n* Must have an LDL C \\>/=100 mg/dL (2.6 mmol/L) OR non HDL C \\>/=130 mg/dL (3.4 mmol/L).\n\nExclusion Criteria:\n\n* Planned coronary (PCI or CABG) or other arterial revascularization.\n* New York Heart Association Class IV congestive heart failure or left ventricular ejection fraction \\< 25% by cardiac imaging.\n* Chronic renal insufficiency with creatinine clearance of \\<30 ml/min/1.73m\\^2 by MDRD formula or with end state renal disease on dialysis.\n* History of hemorrhagic stroke.\n* Prior exposure to bococizumab or other investigational PCSK9 inhibitor.","healthyVolunteers":false,"sex":"ALL","minimumAge":"18 Years","stdAges":["ADULT","OLDER_ADULT"]},"contactsLocationsModule":{"overallOfficials":[{"name":"Pfizer CT.gov Call Center","affiliation":"Pfizer","role":"STUDY_DIRECTOR"}],"locations":[{"facility":"Ernest Hendrix, MD, PC","city":"Athens","state":"Alabama","zip":"35611","country":"United States","geoPoint":{"lat":34.80243,"lon":-86.97219}},{"facility":"North Alabama Research Center, LLC","city":"Athens","state":"Alabama","zip":"35611","country":"United States","geoPoint":{"lat":34.80243,"lon":-86.97219}},{"facility":"Central Alabama Research","city":"Birmingham","state":"Alabama","zip":"35209","country":"United States","geoPoint":{"lat":33.52066,"lon":-86.80249}},{"facility":"Clinical Research Advantage, Inc./Simon Williamson Clinic","city":"Birmingham","state":"Alabama","zip":"35211","country":"United States","geoPoint":{"lat":33.52066,"lon":-86.80249}},{"facility":"The Kirklin Clinic","city":"Birmingham","state":"Alabama","zip":"35233","country":"United States","geoPoint":{"lat":33.52066,"lon":-86.80249}},{"facility":"Birmingham Heart Clinic, P.C.","city":"Birmingham","state":"Alabama","zip":"35235","country":"United States","geoPoint":{"lat":33.52066,"lon":-86.80249}},{"facility":"University of Alabama at Birmingham (Drug Shipment)","city":"Birmingham","state":"Alabama","zip":"35294","country":"United States","geoPoint":{"lat":33.52066,"lon":-86.80249}},{"facility":"Appalachian Cardiovascular Associates","city":"Fort Payne","state":"Alabama","zip":"35967","country":"United States","geoPoint":{"lat":34.44425,"lon":-85.71969}},{"facility":"Fundamental Research, LLC","city":"Gulf Shores","state":"Alabama","zip":"36542","country":"United States","geoPoint":{"lat":30.24604,"lon":-87.70082}},{"facility":"Avant Research Associates, LLC","city":"Guntersville","state":"Alabama","zip":"35976","country":"United States","geoPoint":{"lat":34.35823,"lon":-86.29447}},{"facility":"Boyett Health Services","city":"Hamilton","state":"Alabama","zip":"35570","country":"United States","geoPoint":{"lat":34.14232,"lon":-87.98864}},{"facility":"The Office of Saadat Ansari MD LLC","city":"Huntsville","state":"Alabama","zip":"35801","country":"United States","geoPoint":{"lat":34.7304,"lon":-86.58594}},{"facility":"CB Flock Research Corporation","city":"Mobile","state":"Alabama","zip":"36608","country":"United States","geoPoint":{"lat":30.69436,"lon":-88.04305}},{"facility":"Alaska Heart Institute","city":"Anchorage","state":"Alaska","zip":"99508","country":"United States","geoPoint":{"lat":61.21806,"lon":-149.90028}},{"facility":"Phoenix Heart, PLLC","city":"Glendale","state":"Arizona","zip":"85306","country":"United States","geoPoint":{"lat":33.53865,"lon":-112.18599}},{"facility":"Arrowhead Internal Medicine","city":"Glendale","state":"Arizona","zip":"85308","country":"United States","geoPoint":{"lat":33.53865,"lon":-112.18599}},{"facility":"Clinical Research Advantage, Inc./Family Practice Specialists, Ltd.","city":"Phoenix","state":"Arizona","zip":"85018","country":"United States","geoPoint":{"lat":33.44838,"lon":-112.07404}},{"facility":"Cochise Clinical Research","city":"Sierra Vista","state":"Arizona","zip":"85635","country":"United States","geoPoint":{"lat":31.55454,"lon":-110.30369}},{"facility":"Clinical Research Advantage, Inc. (Administrative Mailing Only)","city":"Tempe","state":"Arizona","zip":"85282","country":"United States","geoPoint":{"lat":33.41477,"lon":-111.90931}},{"facility":"Southwest Heart Group","city":"Tucson","state":"Arizona","zip":"85710","country":"United States","geoPoint":{"lat":32.22174,"lon":-110.92648}},{"facility":"Arizona Endocrine and Rheumatology Associates","city":"Tucson","state":"Arizona","zip":"85715","country":"United States","geoPoint":{"lat":32.22174,"lon":-110.92648}},{"facility":"Arkansas Heart Hospital Clinic","city":"Little Rock","state":"Arkansas","zip":"72211","country":"United States","geoPoint":{"lat":34.74648,"lon":-92.28959}},{"facility":"Arkansas Site Management Services, LLC","city":"Little Rock","state":"Arkansas","zip":"72211","country":"United States","geoPoint":{"lat":34.74648,"lon":-92.28959}},{"facility":"Cardiology Consultants of Orange County Medical Group, Inc.","city":"Anaheim","state":"California","zip":"92801","country":"United States","geoPoint":{"lat":33.83529,"lon":-117.9145}},{"facility":"Premier Valley Medical Group","city":"Bakersfield","state":"California","zip":"93309","country":"United States","geoPoint":{"lat":35.37329,"lon":-119.01871}},{"facility":"Cardiovascular Research Foundation of Southern California","city":"Beverly Hills","state":"California","zip":"90210","country":"United States","geoPoint":{"lat":34.07362,"lon":-118.40036}},{"facility":"Westside Medical Associates of Los Angeles","city":"Beverly Hills","state":"California","zip":"90211","country":"United States","geoPoint":{"lat":34.07362,"lon":-118.40036}},{"facility":"Southbay Pharma Research","city":"Buena Park","state":"California","zip":"90620","country":"United States","geoPoint":{"lat":33.86751,"lon":-117.99812}},{"facility":"Pioneer Medical Group","city":"Cerritos","state":"California","zip":"90703","country":"United States","geoPoint":{"lat":33.85835,"lon":-118.06479}},{"facility":"John Muir Physician Network Clinical Research Center","city":"Concord","state":"California","zip":"94520","country":"United States","geoPoint":{"lat":37.97798,"lon":-122.03107}},{"facility":"Atlantic Ave Medical Clinic Inc.","city":"Cudahy","state":"California","zip":"90201","country":"United States","geoPoint":{"lat":33.96057,"lon":-118.18535}},{"facility":"Multani Medical Group","city":"Downey","state":"California","zip":"90241","country":"United States","geoPoint":{"lat":33.94001,"lon":-118.13257}},{"facility":"Triwest Research Associates, LLC","city":"El Cajon","state":"California","zip":"92020","country":"United States","geoPoint":{"lat":32.79477,"lon":-116.96253}},{"facility":"Diagnamics Inc.","city":"Encinitas","state":"California","zip":"92024","country":"United States","geoPoint":{"lat":33.03699,"lon":-117.29198}},{"facility":"T. Joseph Raoof, Md, Inc/Encino Research Center","city":"Encino","state":"California","zip":"91436","country":"United States","geoPoint":{"lat":34.15917,"lon":-118.50119}},{"facility":"Aviva Research","city":"Escondido","state":"California","zip":"92025","country":"United States","geoPoint":{"lat":33.11921,"lon":-117.08642}},{"facility":"Valley Research","city":"Fresno","state":"California","zip":"93720","country":"United States","geoPoint":{"lat":36.74773,"lon":-119.77237}},{"facility":"St. Jude Hospital Yorba Linda DBA St. Joseph Heritage Healthcare","city":"Fullerton","state":"California","zip":"92835","country":"United States","geoPoint":{"lat":33.87029,"lon":-117.92534}},{"facility":"Omnibus Clinical Research","city":"La Palma","state":"California","zip":"90623","country":"United States","geoPoint":{"lat":33.8464,"lon":-118.04673}},{"facility":"Alliance Research Centers","city":"Laguna Hills","state":"California","zip":"92653","country":"United States","geoPoint":{"lat":33.61252,"lon":-117.71283}},{"facility":"Prime Care Clinical Research Center","city":"Laguna Hills","state":"California","zip":"92653","country":"United States","geoPoint":{"lat":33.61252,"lon":-117.71283}},{"facility":"Clinical Trials Research","city":"Lincoln","state":"California","zip":"95648","country":"United States","geoPoint":{"lat":38.89156,"lon":-121.29301}},{"facility":"Long Beach Memorial Medical Center","city":"Long Beach","state":"California","zip":"90806","country":"United States","geoPoint":{"lat":33.76696,"lon":-118.18923}},{"facility":"American Institute of Research","city":"Los Angeles","state":"California","zip":"90017","country":"United States","geoPoint":{"lat":34.05223,"lon":-118.24368}},{"facility":"Intermed Group","city":"Los Angeles","state":"California","zip":"90017","country":"United States","geoPoint":{"lat":34.05223,"lon":-118.24368}},{"facility":"Academic Medical Research Institute","city":"Los Angeles","state":"California","zip":"90022","country":"United States","geoPoint":{"lat":34.05223,"lon":-118.24368}},{"facility":"Eastside Clinical Research Associates","city":"Los Angeles","state":"California","zip":"90022","country":"United States","geoPoint":{"lat":34.05223,"lon":-118.24368}},{"facility":"Richard S. Cherlin, MD","city":"Los Gatos","state":"California","zip":"95032","country":"United States","geoPoint":{"lat":37.22661,"lon":-121.97468}},{"facility":"Facey Medical Foundation","city":"Mission Hills","state":"California","zip":"91345","country":"United States","geoPoint":{"lat":34.68952,"lon":-120.4356}},{"facility":"California Medical Research Associates Inc.","city":"Northridge","state":"California","zip":"91324","country":"United States","geoPoint":{"lat":34.22834,"lon":-118.53675}},{"facility":"Valley Clinical Trials, Inc.","city":"Northridge","state":"California","zip":"91325","country":"United States","geoPoint":{"lat":34.22834,"lon":-118.53675}},{"facility":"Diabetes Associates Medical Group","city":"Orange","state":"California","zip":"92868","country":"United States","geoPoint":{"lat":33.78779,"lon":-117.85311}},{"facility":"Saviers Medical Group","city":"Port Hueneme","state":"California","zip":"93041","country":"United States","geoPoint":{"lat":34.14778,"lon":-119.19511}},{"facility":"California Research Foundation","city":"San Diego","state":"California","zip":"92103-6204","country":"United States","geoPoint":{"lat":32.71533,"lon":-117.15726}},{"facility":"San Diego Family Care dba Linda Vista Health Center","city":"San Diego","state":"California","zip":"92111","country":"United States","geoPoint":{"lat":32.71533,"lon":-117.15726}},{"facility":"San Diego Family Care","city":"San Diego","state":"California","zip":"92111","country":"United States","geoPoint":{"lat":32.71533,"lon":-117.15726}},{"facility":"Ritchken & First Md's","city":"San Diego","state":"California","zip":"92117","country":"United States","geoPoint":{"lat":32.71533,"lon":-117.15726}},{"facility":"Wetlin Research Associates, Inc.","city":"San Diego","state":"California","zip":"92120","country":"United States","geoPoint":{"lat":32.71533,"lon":-117.15726}},{"facility":"West Coast Research LLC","city":"San Ramon","state":"California","zip":"94582","country":"United States","geoPoint":{"lat":37.77993,"lon":-121.97802}},{"facility":"Syrentis Clinical Research","city":"Santa Ana","state":"California","zip":"92705","country":"United States","geoPoint":{"lat":33.74557,"lon":-117.86783}},{"facility":"Coastal Biomedical Research, Inc.","city":"Santa Monica","state":"California","zip":"90404","country":"United States","geoPoint":{"lat":34.01945,"lon":-118.49119}},{"facility":"Encompass Clinical Research","city":"Spring Valley","state":"California","zip":"91978","country":"United States","geoPoint":{"lat":32.74477,"lon":-116.99892}},{"facility":"St. Joseph's Medical Associates","city":"Stockton","state":"California","zip":"95204","country":"United States","geoPoint":{"lat":37.9577,"lon":-121.29078}},{"facility":"Westlake Medical Research","city":"Thousand Oaks","state":"California","zip":"91360","country":"United States","geoPoint":{"lat":34.17056,"lon":-118.83759}},{"facility":"Harbor-UCLA Medical Center - Torrance","city":"Torrance","state":"California","zip":"90502-2004","country":"United States","geoPoint":{"lat":33.83585,"lon":-118.34063}},{"facility":"Los Angeles Biomedical Research Institute at Harbor-UCLA Medical Center","city":"Torrance","state":"California","zip":"90502","country":"United States","geoPoint":{"lat":33.83585,"lon":-118.34063}},{"facility":"Bayview Research Group","city":"Valley Village","state":"California","zip":"91607","country":"United States","geoPoint":{"lat":34.16488,"lon":-118.3965}},{"facility":"Coastal Metabolic Research Centre","city":"Ventura","state":"California","zip":"93003","country":"United States","geoPoint":{"lat":34.27834,"lon":-119.29317}},{"facility":"Ventura Clinical Trials","city":"Ventura","state":"California","zip":"93003","country":"United States","geoPoint":{"lat":34.27834,"lon":-119.29317}},{"facility":"Clinical Research Advantage, Inc. / Cassidy Medical Group - Vista","city":"Vista","state":"California","zip":"92083","country":"United States","geoPoint":{"lat":33.20004,"lon":-117.24254}},{"facility":"Allianz Research Institute","city":"Westminster","state":"California","zip":"92683","country":"United States","geoPoint":{"lat":33.75918,"lon":-118.00673}},{"facility":"American Institute of Research Studies","city":"Whittier","state":"California","zip":"90603","country":"United States","geoPoint":{"lat":33.97918,"lon":-118.03284}},{"facility":"American Institute of Research","city":"Whittier","state":"California","zip":"90603","country":"United States","geoPoint":{"lat":33.97918,"lon":-118.03284}},{"facility":"Elite Clinical Trials, Inc.","city":"Wildomar","state":"California","zip":"92595","country":"United States","geoPoint":{"lat":33.59891,"lon":-117.28004}},{"facility":"Elite Clinical Trials, Incorporated","city":"Wildomar","state":"California","zip":"92595","country":"United States","geoPoint":{"lat":33.59891,"lon":-117.28004}},{"facility":"Colorado Springs Health Partners","city":"Colorado Springs","state":"Colorado","zip":"80906","country":"United States","geoPoint":{"lat":38.83388,"lon":-104.82136}},{"facility":"Lynn Institute of the Rockies","city":"Colorado Springs","state":"Colorado","zip":"80909","country":"United States","geoPoint":{"lat":38.83388,"lon":-104.82136}},{"facility":"Memorial Hospital: University of Colorado Health","city":"Colorado Springs","state":"Colorado","zip":"80909","country":"United States","geoPoint":{"lat":38.83388,"lon":-104.82136}},{"facility":"Lynn Institute of Denver","city":"Denver","state":"Colorado","zip":"80246","country":"United States","geoPoint":{"lat":39.73915,"lon":-104.9847}},{"facility":"Western Colorado Research, LLC","city":"Glenwood Springs","state":"Colorado","zip":"81601","country":"United States","geoPoint":{"lat":39.55054,"lon":-107.32478}},{"facility":"South Denver Cardiology Associates, PC","city":"Littleton","state":"Colorado","zip":"80120","country":"United States","geoPoint":{"lat":39.61332,"lon":-105.01665}},{"facility":"Connecticut Clinical Research, LLC","city":"Bridgeport","state":"Connecticut","zip":"06606","country":"United States","geoPoint":{"lat":41.16704,"lon":-73.20483}},{"facility":"Bridgeport Hospital","city":"Bridgeport","state":"Connecticut","zip":"06610","country":"United States","geoPoint":{"lat":41.16704,"lon":-73.20483}},{"facility":"Cardiology Associates of Fairfield County, PC","city":"Stamford","state":"Connecticut","zip":"06905","country":"United States","geoPoint":{"lat":41.05343,"lon":-73.53873}},{"facility":"Stamford Therapeutics Consortium","city":"Stamford","state":"Connecticut","zip":"06905","country":"United States","geoPoint":{"lat":41.05343,"lon":-73.53873}},{"facility":"Christiana Care Health Services, Inc.","city":"Newark","state":"Delaware","zip":"19713","country":"United States","geoPoint":{"lat":39.68372,"lon":-75.74966}},{"facility":"Alfieri Cardiology","city":"Wilmington","state":"Delaware","zip":"19803","country":"United States","geoPoint":{"lat":39.74595,"lon":-75.54659}},{"facility":"ACRC - Cardiology","city":"Atlantis","state":"Florida","zip":"33462","country":"United States","geoPoint":{"lat":26.5909,"lon":-80.10088}},{"facility":"GulfCoast Endocrine and Diabetes Center","city":"Clearwater","state":"Florida","zip":"33756","country":"United States","geoPoint":{"lat":27.96585,"lon":-82.8001}},{"facility":"Morton Plant Mease Health Care, Inc. Cardiovascular Research","city":"Clearwater","state":"Florida","zip":"33756","country":"United States","geoPoint":{"lat":27.96585,"lon":-82.8001}},{"facility":"Team Medical Research","city":"Coral Gables","state":"Florida","zip":"33134","country":"United States","geoPoint":{"lat":25.72149,"lon":-80.26838}},{"facility":"The Heart Group, PA","city":"Daytona Beach","state":"Florida","zip":"32114","country":"United States","geoPoint":{"lat":29.21081,"lon":-81.02283}},{"facility":"Cardiology Associates Research Company","city":"Daytona Beach","state":"Florida","zip":"32117","country":"United States","geoPoint":{"lat":29.21081,"lon":-81.02283}},{"facility":"The Cardiology Center","city":"Delray Beach","state":"Florida","zip":"33484","country":"United States","geoPoint":{"lat":26.46146,"lon":-80.07282}},{"facility":"Continental Research Corp","city":"Doral","state":"Florida","zip":"33126","country":"United States","geoPoint":{"lat":25.81954,"lon":-80.35533}},{"facility":"Care Research Center Inc","city":"Doral","state":"Florida","zip":"33166","country":"United States","geoPoint":{"lat":25.81954,"lon":-80.35533}},{"facility":"Integrity Clinical Research, LLC","city":"Doral","state":"Florida","zip":"33166","country":"United States","geoPoint":{"lat":25.81954,"lon":-80.35533}},{"facility":"Moonshine Research Center, Inc.","city":"Doral","state":"Florida","zip":"33166","country":"United States","geoPoint":{"lat":25.81954,"lon":-80.35533}},{"facility":"Invesclinic, LLC","city":"Fort Lauderdale","state":"Florida","zip":"33308","country":"United States","geoPoint":{"lat":26.12231,"lon":-80.14338}},{"facility":"The Office of Dr. Alan Graff, MD, PA","city":"Fort Lauderdale","state":"Florida","zip":"33308","country":"United States","geoPoint":{"lat":26.12231,"lon":-80.14338}},{"facility":"Broward Health Medical Center","city":"Fort Lauderdale","state":"Florida","zip":"33316","country":"United States","geoPoint":{"lat":26.12231,"lon":-80.14338}},{"facility":"The Office of Maxine E. Hamilton, MD, PA","city":"Fort Lauderdale","state":"Florida","zip":"33316","country":"United States","geoPoint":{"lat":26.12231,"lon":-80.14338}},{"facility":"State Of The Art Research, LLC","city":"Hialeah","state":"Florida","zip":"33010","country":"United States","geoPoint":{"lat":25.8576,"lon":-80.27811}},{"facility":"Direct Helpers Medical Center Inc","city":"Hialeah","state":"Florida","zip":"33012","country":"United States","geoPoint":{"lat":25.8576,"lon":-80.27811}},{"facility":"Research Physicians Network Alliance","city":"Hollywood","state":"Florida","zip":"33021","country":"United States","geoPoint":{"lat":26.0112,"lon":-80.14949}},{"facility":"Pines Clinical Research, Inc.","city":"Hollywood","state":"Florida","zip":"33024","country":"United States","geoPoint":{"lat":26.0112,"lon":-80.14949}},{"facility":"East Coast Institute for Research, LLC","city":"Jacksonville","state":"Florida","zip":"32204","country":"United States","geoPoint":{"lat":30.33218,"lon":-81.65565}},{"facility":"Westside Center for Clinical Research","city":"Jacksonville","state":"Florida","zip":"32205","country":"United States","geoPoint":{"lat":30.33218,"lon":-81.65565}},{"facility":"River City Clinical Research","city":"Jacksonville","state":"Florida","zip":"32207","country":"United States","geoPoint":{"lat":30.33218,"lon":-81.65565}},{"facility":"East Coast Institute for Research, LLC","city":"Jacksonville","state":"Florida","zip":"32216","country":"United States","geoPoint":{"lat":30.33218,"lon":-81.65565}},{"facility":"East Coast Institute for Reserach, LLC","city":"Jacksonville","state":"Florida","zip":"32216","country":"United States","geoPoint":{"lat":30.33218,"lon":-81.65565}},{"facility":"Jacksonville Center for Clinical Research","city":"Jacksonville","state":"Florida","zip":"32216","country":"United States","geoPoint":{"lat":30.33218,"lon":-81.65565}},{"facility":"The Office of Rachel Day","city":"Jacksonville","state":"Florida","zip":"32216","country":"United States","geoPoint":{"lat":30.33218,"lon":-81.65565}},{"facility":"Baker-Gilmore Cardiovascular Institute","city":"Jacksonville","state":"Florida","zip":"32223","country":"United States","geoPoint":{"lat":30.33218,"lon":-81.65565}},{"facility":"Solutions Through Advanced Research, Inc.","city":"Jacksonville","state":"Florida","zip":"32256","country":"United States","geoPoint":{"lat":30.33218,"lon":-81.65565}},{"facility":"Meridien Research","city":"Lakeland","state":"Florida","zip":"33805","country":"United States","geoPoint":{"lat":28.03947,"lon":-81.9498}},{"facility":"The Heart Institute at Largo","city":"Largo","state":"Florida","zip":"33770","country":"United States","geoPoint":{"lat":27.90979,"lon":-82.78842}},{"facility":"South Florida Clinical Research Institute","city":"Margate","state":"Florida","zip":"33063","country":"United States","geoPoint":{"lat":26.24453,"lon":-80.20644}},{"facility":"Research Physicians Network Alliance","city":"Miami Beach","state":"Florida","zip":"33140","country":"United States","geoPoint":{"lat":25.79065,"lon":-80.13005}},{"facility":"G & I Medical Research LLC","city":"Miami Lakes","state":"Florida","zip":"33014","country":"United States","geoPoint":{"lat":25.90871,"lon":-80.30866}},{"facility":"Ocean Blue Medical Research Center, Inc.","city":"Miami Springs","state":"Florida","zip":"33166","country":"United States","geoPoint":{"lat":25.82232,"lon":-80.2895}},{"facility":"Future Clinical Research, Inc.","city":"Miami","state":"Florida","zip":"33122","country":"United States","geoPoint":{"lat":25.77427,"lon":-80.19366}},{"facility":"Advanced Clinical Research of Miami (ACROM) International","city":"Miami","state":"Florida","zip":"33125","country":"United States","geoPoint":{"lat":25.77427,"lon":-80.19366}},{"facility":"Project4Research, Inc","city":"Miami","state":"Florida","zip":"33125","country":"United States","geoPoint":{"lat":25.77427,"lon":-80.19366}},{"facility":"A & L Clinical Research","city":"Miami","state":"Florida","zip":"33126","country":"United States","geoPoint":{"lat":25.77427,"lon":-80.19366}},{"facility":"Finlay Medical Research","city":"Miami","state":"Florida","zip":"33126","country":"United States","geoPoint":{"lat":25.77427,"lon":-80.19366}},{"facility":"Pharmax Research Clinic, Inc.","city":"Miami","state":"Florida","zip":"33126","country":"United States","geoPoint":{"lat":25.77427,"lon":-80.19366}},{"facility":"Team Medical Research, Inc.","city":"Miami","state":"Florida","zip":"33134","country":"United States","geoPoint":{"lat":25.77427,"lon":-80.19366}},{"facility":"Team Medical Research","city":"Miami","state":"Florida","zip":"33134","country":"United States","geoPoint":{"lat":25.77427,"lon":-80.19366}},{"facility":"South Florida Research Center, Inc.","city":"Miami","state":"Florida","zip":"33135","country":"United States","geoPoint":{"lat":25.77427,"lon":-80.19366}},{"facility":"Florida Medical Center & Research, Inc.","city":"Miami","state":"Florida","zip":"33142","country":"United States","geoPoint":{"lat":25.77427,"lon":-80.19366}},{"facility":"Medical Research Center","city":"Miami","state":"Florida","zip":"33144","country":"United States","geoPoint":{"lat":25.77427,"lon":-80.19366}},{"facility":"Nuren Medical & Research Center","city":"Miami","state":"Florida","zip":"33144","country":"United States","geoPoint":{"lat":25.77427,"lon":-80.19366}},{"facility":"Doctors Research Institute","city":"Miami","state":"Florida","zip":"33145","country":"United States","geoPoint":{"lat":25.77427,"lon":-80.19366}},{"facility":"Advanced Pharma CR, LLC","city":"Miami","state":"Florida","zip":"33147","country":"United States","geoPoint":{"lat":25.77427,"lon":-80.19366}},{"facility":"Coast Research Institute","city":"Miami","state":"Florida","zip":"33155","country":"United States","geoPoint":{"lat":25.77427,"lon":-80.19366}},{"facility":"My Community Research Center, Inc.","city":"Miami","state":"Florida","zip":"33155","country":"United States","geoPoint":{"lat":25.77427,"lon":-80.19366}},{"facility":"Columbus Clinical Services LLC","city":"Miami","state":"Florida","zip":"33165","country":"United States","geoPoint":{"lat":25.77427,"lon":-80.19366}},{"facility":"Cardiovascular Research Center of South Florida","city":"Miami","state":"Florida","zip":"33173","country":"United States","geoPoint":{"lat":25.77427,"lon":-80.19366}},{"facility":"Research Institute of South Florida, Inc.","city":"Miami","state":"Florida","zip":"33173","country":"United States","geoPoint":{"lat":25.77427,"lon":-80.19366}},{"facility":"A & O Research Center, Inc.","city":"Miami","state":"Florida","zip":"33174","country":"United States","geoPoint":{"lat":25.77427,"lon":-80.19366}},{"facility":"BWell Research Center","city":"Miami","state":"Florida","zip":"33175","country":"United States","geoPoint":{"lat":25.77427,"lon":-80.19366}},{"facility":"Pharmacology International Research, Inc.","city":"Miami","state":"Florida","zip":"33175","country":"United States","geoPoint":{"lat":25.77427,"lon":-80.19366}},{"facility":"Advanced Clinical Research","city":"Miami","state":"Florida","zip":"33176","country":"United States","geoPoint":{"lat":25.77427,"lon":-80.19366}},{"facility":"South Florida Research Group, LLC","city":"Miami","state":"Florida","zip":"33176","country":"United States","geoPoint":{"lat":25.77427,"lon":-80.19366}},{"facility":"International Research Associates, LLC","city":"Miami","state":"Florida","zip":"33183","country":"United States","geoPoint":{"lat":25.77427,"lon":-80.19366}},{"facility":"Kendall South Medical Center, Inc.","city":"Miami","state":"Florida","zip":"33185","country":"United States","geoPoint":{"lat":25.77427,"lon":-80.19366}},{"facility":"Kendall South Medical Center, Inc","city":"Miami","state":"Florida","zip":"33185","country":"United States","geoPoint":{"lat":25.77427,"lon":-80.19366}},{"facility":"M & M Medical Center, Inc","city":"Miami","state":"Florida","zip":"33185","country":"United States","geoPoint":{"lat":25.77427,"lon":-80.19366}},{"facility":"Med Research Of Florida, LLC","city":"Miami","state":"Florida","zip":"33186","country":"United States","geoPoint":{"lat":25.77427,"lon":-80.19366}},{"facility":"Southwest Florida Research, LLC","city":"Naples","state":"Florida","zip":"34102","country":"United States","geoPoint":{"lat":26.14234,"lon":-81.79596}},{"facility":"BayCare Medical Group","city":"New Port Richey","state":"Florida","zip":"34653","country":"United States","geoPoint":{"lat":28.24418,"lon":-82.71927}},{"facility":"The Heart & Vascular Institute of Florida","city":"New Port Richey","state":"Florida","zip":"34653","country":"United States","geoPoint":{"lat":28.24418,"lon":-82.71927}},{"facility":"Bravo Health Care Center","city":"North Bay Village","state":"Florida","zip":"33141","country":"United States","geoPoint":{"lat":25.84621,"lon":-80.15394}},{"facility":"Harmony Clinical Research, Inc.","city":"North Miami Beach","state":"Florida","zip":"33162","country":"United States","geoPoint":{"lat":25.93315,"lon":-80.16255}},{"facility":"Florida Hospital","city":"Orlando","state":"Florida","zip":"32803","country":"United States","geoPoint":{"lat":28.53834,"lon":-81.37924}},{"facility":"Omega Research Consultants, LLC","city":"Orlando","state":"Florida","zip":"32806","country":"United States","geoPoint":{"lat":28.53834,"lon":-81.37924}},{"facility":"Aba Family Medicine, LLC","city":"Ormond Beach","state":"Florida","zip":"32174","country":"United States","geoPoint":{"lat":29.28581,"lon":-81.05589}},{"facility":"Millennium Research","city":"Ormond Beach","state":"Florida","zip":"32174","country":"United States","geoPoint":{"lat":29.28581,"lon":-81.05589}},{"facility":"Ribo Research, LLC dba Peninsula Research","city":"Ormond Beach","state":"Florida","zip":"32174","country":"United States","geoPoint":{"lat":29.28581,"lon":-81.05589}},{"facility":"A and R Research Group LLC","city":"Pembroke Pines","state":"Florida","zip":"33024","country":"United States","geoPoint":{"lat":26.00315,"lon":-80.22394}},{"facility":"Research Physicians Network Alliance","city":"Pembroke Pines","state":"Florida","zip":"33025","country":"United States","geoPoint":{"lat":26.00315,"lon":-80.22394}},{"facility":"South Broward Research","city":"Pembroke Pines","state":"Florida","zip":"33027","country":"United States","geoPoint":{"lat":26.00315,"lon":-80.22394}},{"facility":"DBC Research USA","city":"Pembroke Pines","state":"Florida","zip":"33029","country":"United States","geoPoint":{"lat":26.00315,"lon":-80.22394}},{"facility":"DBC Research","city":"Pembroke Pines","state":"Florida","zip":"33029","country":"United States","geoPoint":{"lat":26.00315,"lon":-80.22394}},{"facility":"Cardiology Consultants","city":"Pensacola","state":"Florida","zip":"32501","country":"United States","geoPoint":{"lat":30.42131,"lon":-87.21691}},{"facility":"DMI Research, Inc.","city":"Pinellas Park","state":"Florida","zip":"33782","country":"United States","geoPoint":{"lat":27.8428,"lon":-82.69954}},{"facility":"Clinical Research of Central Florida","city":"Plant City","state":"Florida","zip":"33563","country":"United States","geoPoint":{"lat":28.01888,"lon":-82.11469}},{"facility":"Clinical Research of Florida","city":"Plant City","state":"Florida","zip":"33563","country":"United States","geoPoint":{"lat":28.01888,"lon":-82.11469}},{"facility":"Jeffrey D Greff,MD","city":"Plantation","state":"Florida","zip":"33313-6066","country":"United States","geoPoint":{"lat":26.13421,"lon":-80.23184}},{"facility":"St. Johns Center for Clinical Research","city":"Ponte Vedra","state":"Florida","zip":"32081","country":"United States","geoPoint":{"lat":30.22746,"lon":-81.38008}},{"facility":"Charlotte Heart Group Research Center","city":"Port Charlotte","state":"Florida","zip":"33952","country":"United States","geoPoint":{"lat":26.97617,"lon":-82.09064}},{"facility":"Meridien Research","city":"Saint Petersburg","state":"Florida","zip":"33709","country":"United States","geoPoint":{"lat":27.77086,"lon":-82.67927}},{"facility":"Advance Medical Research","city":"Saint Petersburg","state":"Florida","zip":"33713","country":"United States","geoPoint":{"lat":27.77086,"lon":-82.67927}},{"facility":"Intercoastal Medical Group","city":"Sarasota","state":"Florida","zip":"34232","country":"United States","geoPoint":{"lat":27.33643,"lon":-82.53065}},{"facility":"Intercoastal Medical Group","city":"Sarasota","state":"Florida","zip":"34233","country":"United States","geoPoint":{"lat":27.33643,"lon":-82.53065}},{"facility":"Cardiovascular Center Of Sarasota","city":"Sarasota","state":"Florida","zip":"34239","country":"United States","geoPoint":{"lat":27.33643,"lon":-82.53065}},{"facility":"Heart & Vascular Center Research","city":"Sarasota","state":"Florida","zip":"34239","country":"United States","geoPoint":{"lat":27.33643,"lon":-82.53065}},{"facility":"Intercoastal Medical Group (Drug Shipment Address and Administrative)","city":"Sarasota","state":"Florida","zip":"34239","country":"United States","geoPoint":{"lat":27.33643,"lon":-82.53065}},{"facility":"The Office of Bridget Bellingar, DO","city":"Seminole","state":"Florida","zip":"33777","country":"United States","geoPoint":{"lat":27.83975,"lon":-82.79121}},{"facility":"Vita Health & Medical Center, Inc./Concept Clinical Trials, LLC","city":"Tamarac","state":"Florida","zip":"33319","country":"United States","geoPoint":{"lat":26.21286,"lon":-80.24977}},{"facility":"Interventional Cardiac Consultants","city":"Trinity","state":"Florida","zip":"34655","country":"United States","geoPoint":{"lat":28.18085,"lon":-82.68177}},{"facility":"Cardiology Partners Clinical Research Institute","city":"Wellington","state":"Florida","zip":"33449","country":"United States","geoPoint":{"lat":26.65868,"lon":-80.24144}},{"facility":"Cleveland Clinic Cardiology Associates","city":"West Palm Beach","state":"Florida","zip":"33401","country":"United States","geoPoint":{"lat":26.71534,"lon":-80.05337}},{"facility":"Metabolic Research Institute, Inc.","city":"West Palm Beach","state":"Florida","zip":"33401","country":"United States","geoPoint":{"lat":26.71534,"lon":-80.05337}},{"facility":"Clinical Research of Central Florida","city":"Winter Haven","state":"Florida","zip":"33880","country":"United States","geoPoint":{"lat":28.02224,"lon":-81.73286}},{"facility":"Atlanta Diabetes Associates","city":"Atlanta","state":"Georgia","zip":"30318","country":"United States","geoPoint":{"lat":33.749,"lon":-84.38798}},{"facility":"Emory University Hospital","city":"Atlanta","state":"Georgia","zip":"30322","country":"United States","geoPoint":{"lat":33.749,"lon":-84.38798}},{"facility":"Atlanta Center For Medical Research","city":"Atlanta","state":"Georgia","zip":"30331","country":"United States","geoPoint":{"lat":33.749,"lon":-84.38798}},{"facility":"Columbus Regional Research Institute","city":"Columbus","state":"Georgia","zip":"31904","country":"United States","geoPoint":{"lat":32.46098,"lon":-84.98771}},{"facility":"Rockdale Medical Research Associates","city":"Conyers","state":"Georgia","zip":"30094","country":"United States","geoPoint":{"lat":33.66761,"lon":-84.01769}},{"facility":"Georgia Heart Specialists, LLC","city":"Covington","state":"Georgia","zip":"30014","country":"United States","geoPoint":{"lat":33.59678,"lon":-83.86018}},{"facility":"Neurostudies.net, LLC","city":"Decatur","state":"Georgia","zip":"30033","country":"United States","geoPoint":{"lat":33.77483,"lon":-84.29631}},{"facility":"Alta Pharmaceutical Research Center","city":"Dunwoody","state":"Georgia","zip":"30338","country":"United States","geoPoint":{"lat":33.94621,"lon":-84.33465}},{"facility":"In-Quest Medical Research, LLC","city":"Norcross","state":"Georgia","zip":"30071","country":"United States","geoPoint":{"lat":33.94121,"lon":-84.21353}},{"facility":"Atlanta Center for Clinical Research / Internal Medicine","city":"Roswell","state":"Georgia","zip":"30075","country":"United States","geoPoint":{"lat":34.02316,"lon":-84.36159}},{"facility":"Dr. B. Abraham, P.C.","city":"Snellville","state":"Georgia","zip":"30039","country":"United States","geoPoint":{"lat":33.85733,"lon":-84.01991}},{"facility":"Georgia Clinical Research, LLC","city":"Snellville","state":"Georgia","zip":"30078","country":"United States","geoPoint":{"lat":33.85733,"lon":-84.01991}},{"facility":"Clinical Research Atlanta","city":"Stockbridge","state":"Georgia","zip":"30281","country":"United States","geoPoint":{"lat":33.54428,"lon":-84.23381}},{"facility":"East-West Medical Research Institute","city":"Honolulu","state":"Hawaii","zip":"96814","country":"United States","geoPoint":{"lat":21.30694,"lon":-157.85833}},{"facility":"Elite Clinial Trials, LLLP","city":"Blackfoot","state":"Idaho","zip":"83221","country":"United States","geoPoint":{"lat":43.19047,"lon":-112.34498}},{"facility":"Elite Clinical Trials (Additional Administrative Room / Exam Rooms)","city":"Blackfoot","state":"Idaho","zip":"83221","country":"United States","geoPoint":{"lat":43.19047,"lon":-112.34498}},{"facility":"St. Luke's Idaho Cardiology Associates","city":"Caldwell","state":"Idaho","zip":"83605","country":"United States","geoPoint":{"lat":43.66294,"lon":-116.68736}},{"facility":"Solaris Clinical Research","city":"Meridian","state":"Idaho","zip":"83646","country":"United States","geoPoint":{"lat":43.61211,"lon":-116.39151}},{"facility":"Saltzer Medical Group, PA","city":"Nampa","state":"Idaho","zip":"83686-6011","country":"United States","geoPoint":{"lat":43.54072,"lon":-116.56346}},{"facility":"Northwest Heart Clinical Research, LLC","city":"Arlington Heights","state":"Illinois","zip":"60005","country":"United States","geoPoint":{"lat":42.08836,"lon":-87.98063}},{"facility":"Clinical Research Advantage, Inc./Michigan Avenue Internists","city":"Chicago","state":"Illinois","zip":"60604","country":"United States","geoPoint":{"lat":41.85003,"lon":-87.65005}},{"facility":"Apex Medical Research, AMR, Inc.","city":"Chicago","state":"Illinois","zip":"60616","country":"United States","geoPoint":{"lat":41.85003,"lon":-87.65005}},{"facility":"Clinical Research Advantage,Inc./Medical and Procedural Specilaists of Illinois","city":"Chicago","state":"Illinois","zip":"60631","country":"United States","geoPoint":{"lat":41.85003,"lon":-87.65005}},{"facility":"Evanston Premier Healthcare Research, LLC","city":"Evanston","state":"Illinois","zip":"60201","country":"United States","geoPoint":{"lat":42.04114,"lon":-87.69006}},{"facility":"Clinical Investigation Specialists, Inc","city":"Gurnee","state":"Illinois","zip":"60031","country":"United States","geoPoint":{"lat":42.3703,"lon":-87.90202}},{"facility":"Heart Care Centers of Illinois","city":"Mokena","state":"Illinois","zip":"60448","country":"United States","geoPoint":{"lat":41.52614,"lon":-87.88922}},{"facility":"Advanced CardioVascular Consultants","city":"Rock Island","state":"Illinois","zip":"61201","country":"United States","geoPoint":{"lat":41.50948,"lon":-90.57875}},{"facility":"Investigators Research Group, LLC","city":"Brownsburg","state":"Indiana","zip":"46112","country":"United States","geoPoint":{"lat":39.84338,"lon":-86.39777}},{"facility":"Investigative Clinical Research of Indiana, LLC","city":"Elwood","state":"Indiana","zip":"46036","country":"United States","geoPoint":{"lat":40.27698,"lon":-85.84192}},{"facility":"Deaconess Clinic Downtown","city":"Evansville","state":"Indiana","zip":"47713","country":"United States","geoPoint":{"lat":37.97476,"lon":-87.55585}},{"facility":"Clinical Research Advantage, Inc.","city":"Evansville","state":"Indiana","zip":"47714","country":"United States","geoPoint":{"lat":37.97476,"lon":-87.55585}},{"facility":"MediSphere Medical Research Center, LLC","city":"Evansville","state":"Indiana","zip":"47714","country":"United States","geoPoint":{"lat":37.97476,"lon":-87.55585}},{"facility":"Clinical Research Advantage, Inc. / Family Medicine Associates","city":"Evansville","state":"Indiana","zip":"47725","country":"United States","geoPoint":{"lat":37.97476,"lon":-87.55585}},{"facility":"Deaconess Clinic Mt. Pleasant","city":"Evansville","state":"Indiana","zip":"47725","country":"United States","geoPoint":{"lat":37.97476,"lon":-87.55585}},{"facility":"American Health Network of Indiana LLC","city":"Franklin","state":"Indiana","zip":"46131","country":"United States","geoPoint":{"lat":39.48061,"lon":-86.05499}},{"facility":"American Health Network of Indiana LLC","city":"Greenfield","state":"Indiana","zip":"46140","country":"United States","geoPoint":{"lat":39.78504,"lon":-85.76942}},{"facility":"American Health Network of Indiana, LLC","city":"Muncie","state":"Indiana","zip":"47304","country":"United States","geoPoint":{"lat":40.19338,"lon":-85.38636}},{"facility":"Cardiovascular Research of Northwest Indiana, LLC","city":"Munster","state":"Indiana","zip":"46321","country":"United States","geoPoint":{"lat":41.56448,"lon":-87.51254}},{"facility":"Buynak Clinical Research, P.C.","city":"Valparaiso","state":"Indiana","zip":"46383","country":"United States","geoPoint":{"lat":41.47309,"lon":-87.06114}},{"facility":"West Broadway Clinic","city":"Council Bluffs","state":"Iowa","zip":"51501","country":"United States","geoPoint":{"lat":41.26194,"lon":-95.86083}},{"facility":"Clinical Research Advantage, Inc.","city":"Council Bluffs","state":"Iowa","zip":"51503","country":"United States","geoPoint":{"lat":41.26194,"lon":-95.86083}},{"facility":"Midwest Cardiovascular Research Foundation","city":"Davenport","state":"Iowa","zip":"52803","country":"United States","geoPoint":{"lat":41.52364,"lon":-90.57764}},{"facility":"University of Iowa-College of Public Health-Preventive Intervention Center","city":"Iowa City","state":"Iowa","zip":"52242","country":"United States","geoPoint":{"lat":41.66113,"lon":-91.53017}},{"facility":"Northeast Iowa Medical Education Foundation","city":"Waterloo","state":"Iowa","zip":"50702","country":"United States","geoPoint":{"lat":42.49276,"lon":-92.34296}},{"facility":"The Iowa Clinic, PC","city":"West Des Moines","state":"Iowa","zip":"50266","country":"United States","geoPoint":{"lat":41.57721,"lon":-93.71133}},{"facility":"Hutchinson Clinic, P.A","city":"Hutchinson","state":"Kansas","zip":"67502","country":"United States","geoPoint":{"lat":38.06084,"lon":-97.92977}},{"facility":"University Of Kansas Medical Center","city":"Kansas City","state":"Kansas","zip":"66160","country":"United States","geoPoint":{"lat":39.11417,"lon":-94.62746}},{"facility":"Midwest Heart & Vascular Specialists, LLC","city":"Overland Park","state":"Kansas","zip":"66209","country":"United States","geoPoint":{"lat":38.98223,"lon":-94.67079}},{"facility":"Women's & Family Care D.B.A. GTC Research","city":"Shawnee Mission","state":"Kansas","zip":"66218","country":"United States","geoPoint":{"lat":39.04167,"lon":-94.72024}},{"facility":"Women's & Family Care, LLC D.B.A GTC Research","city":"Shawnee Mission","state":"Kansas","zip":"66218","country":"United States","geoPoint":{"lat":39.04167,"lon":-94.72024}},{"facility":"Women's & Family Care, LLC D.B.A. GTC Research","city":"Shawnee Mission","state":"Kansas","zip":"66218","country":"United States","geoPoint":{"lat":39.04167,"lon":-94.72024}},{"facility":"Central Cardiology Associates Research","city":"Elizabethtown","state":"Kentucky","zip":"42701","country":"United States","geoPoint":{"lat":37.69395,"lon":-85.85913}},{"facility":"The Research Group of Lexington, LLC","city":"Lexington","state":"Kentucky","zip":"40503","country":"United States","geoPoint":{"lat":37.98869,"lon":-84.47772}},{"facility":"L-MARC","city":"Louisville","state":"Kentucky","zip":"40213","country":"United States","geoPoint":{"lat":38.25424,"lon":-85.75941}},{"facility":"Research Integrity, LLC.","city":"Owensboro","state":"Kentucky","zip":"42303","country":"United States","geoPoint":{"lat":37.77422,"lon":-87.11333}},{"facility":"Grace Research, LLC","city":"Bossier City","state":"Louisiana","zip":"71111","country":"United States","geoPoint":{"lat":32.51599,"lon":-93.73212}},{"facility":"Avant Research Associates, LLC","city":"Crowley","state":"Louisiana","zip":"70526","country":"United States","geoPoint":{"lat":30.21409,"lon":-92.37458}},{"facility":"Centex Studies","city":"Lake Charles","state":"Louisiana","zip":"70601","country":"United States","geoPoint":{"lat":30.21309,"lon":-93.2044}},{"facility":"Imperial Health, LLP","city":"Lake Charles","state":"Louisiana","zip":"70601","country":"United States","geoPoint":{"lat":30.21309,"lon":-93.2044}},{"facility":"American Clinical Research, LLC","city":"Marrero","state":"Louisiana","zip":"70072","country":"United States","geoPoint":{"lat":29.89937,"lon":-90.10035}},{"facility":"West Jefferson Heart Clinic of Louisiana New Orleans Physician Services, Inc.","city":"Marrero","state":"Louisiana","zip":"70072","country":"United States","geoPoint":{"lat":29.89937,"lon":-90.10035}},{"facility":"Clinical Trials of America LA","city":"Monroe","state":"Louisiana","zip":"71201","country":"United States","geoPoint":{"lat":32.50931,"lon":-92.1193}},{"facility":"KAMP Medical Research Inc.","city":"Natchitoches","state":"Louisiana","zip":"71457","country":"United States","geoPoint":{"lat":31.76072,"lon":-93.08627}},{"facility":"Clinical and Translation Research Center (CTRC) University Medical Center of New Orleans, Diagnostic","city":"New Orleans","state":"Louisiana","zip":"70112","country":"United States","geoPoint":{"lat":29.95465,"lon":-90.07507}},{"facility":"Section of Nephrology and Hypertension, LSU Health Sciences Center-New Orleans","city":"New Orleans","state":"Louisiana","zip":"70112","country":"United States","geoPoint":{"lat":29.95465,"lon":-90.07507}},{"facility":"Maine Research Associates","city":"Auburn","state":"Maine","zip":"04210","country":"United States","geoPoint":{"lat":44.09785,"lon":-70.23117}},{"facility":"Acadia Clinical Research, LLC","city":"Bangor","state":"Maine","zip":"04401","country":"United States","geoPoint":{"lat":44.80118,"lon":-68.77781}},{"facility":"Acadia Clinical Research","city":"Bangor","state":"Maine","zip":"04401","country":"United States","geoPoint":{"lat":44.80118,"lon":-68.77781}},{"facility":"Cranbrook Cardiology Research Associates","city":"Cape Elizabeth","state":"Maine","zip":"04107","country":"United States","geoPoint":{"lat":43.5637,"lon":-70.20005}},{"facility":"Anne Arundel Medical Center","city":"Annapolis","state":"Maryland","zip":"21401","country":"United States","geoPoint":{"lat":38.97845,"lon":-76.49218}},{"facility":"MedStar Cardiology Associates","city":"Annapolis","state":"Maryland","zip":"21401","country":"United States","geoPoint":{"lat":38.97845,"lon":-76.49218}},{"facility":"MedStar Chesapeake CardioVascular Associates","city":"Baltimore","state":"Maryland","zip":"21204","country":"United States","geoPoint":{"lat":39.29038,"lon":-76.61219}},{"facility":"MedStar Union Memorial Heart Specialists","city":"Baltimore","state":"Maryland","zip":"21218","country":"United States","geoPoint":{"lat":39.29038,"lon":-76.61219}},{"facility":"Maryland Cardiovascular Specialists","city":"Baltimore","state":"Maryland","zip":"21229","country":"United States","geoPoint":{"lat":39.29038,"lon":-76.61219}},{"facility":"Overlea Personal Physicians","city":"Baltimore","state":"Maryland","zip":"21236","country":"United States","geoPoint":{"lat":39.29038,"lon":-76.61219}},{"facility":"Shahid Saeed, MD, PC","city":"Baltimore","state":"Maryland","zip":"21237","country":"United States","geoPoint":{"lat":39.29038,"lon":-76.61219}},{"facility":"Maryland Heart Associates, LLC","city":"Glen Burnie","state":"Maryland","zip":"21061","country":"United States","geoPoint":{"lat":39.16261,"lon":-76.62469}},{"facility":"Lutherville Personal Physicians","city":"Lutherville","state":"Maryland","zip":"21093","country":"United States","geoPoint":{"lat":39.42122,"lon":-76.62608}},{"facility":"MD Medical Research","city":"Oxon Hill","state":"Maryland","zip":"20745","country":"United States","geoPoint":{"lat":38.80345,"lon":-76.9897}},{"facility":"MetroWest Medical Center - Pharmacy Department","city":"Framingham","state":"Massachusetts","zip":"01702","country":"United States","geoPoint":{"lat":42.27926,"lon":-71.41617}},{"facility":"MetroWest Medical Center Research Clinic","city":"Framingham","state":"Massachusetts","zip":"01702","country":"United States","geoPoint":{"lat":42.27926,"lon":-71.41617}},{"facility":"MetroWest Medical Center","city":"Framingham","state":"Massachusetts","zip":"01702","country":"United States","geoPoint":{"lat":42.27926,"lon":-71.41617}},{"facility":"ActivMed Practices and Research, Inc.","city":"Methuen","state":"Massachusetts","zip":"01844","country":"United States","geoPoint":{"lat":42.7262,"lon":-71.19089}},{"facility":"Charles River Medical Associates","city":"Natick","state":"Massachusetts","zip":"01760","country":"United States","geoPoint":{"lat":42.28343,"lon":-71.3495}},{"facility":"Endeavor Medical Research","city":"Alpena","state":"Michigan","zip":"49707","country":"United States","geoPoint":{"lat":45.06168,"lon":-83.43275}},{"facility":"St. Joseph Mercy Health System (Drug shipment Only)","city":"Ann Arbor","state":"Michigan","zip":"48106","country":"United States","geoPoint":{"lat":42.27756,"lon":-83.74088}},{"facility":"University of Michigan - Domino Farms","city":"Ann Arbor","state":"Michigan","zip":"48106","country":"United States","geoPoint":{"lat":42.27756,"lon":-83.74088}},{"facility":"Quest Research Institute","city":"Bingham Farms","state":"Michigan","zip":"48025","country":"United States","geoPoint":{"lat":42.51587,"lon":-83.27326}},{"facility":"IHA Chelsea Family & Internal Medicine","city":"Chelsea","state":"Michigan","zip":"48118","country":"United States","geoPoint":{"lat":42.31807,"lon":-84.02181}},{"facility":"Healthy Heart Cardiology","city":"Grandville","state":"Michigan","zip":"49418","country":"United States","geoPoint":{"lat":42.90975,"lon":-85.76309}},{"facility":"Westside Family Medical Center, Pc","city":"Kalamazoo","state":"Michigan","zip":"49009","country":"United States","geoPoint":{"lat":42.29171,"lon":-85.58723}},{"facility":"Sparrow Clinical Research Institute","city":"Lansing","state":"Michigan","zip":"48912","country":"United States","geoPoint":{"lat":42.73253,"lon":-84.55553}},{"facility":"Sparrow Thoracic & Cardiovascular Institute","city":"Lansing","state":"Michigan","zip":"48912","country":"United States","geoPoint":{"lat":42.73253,"lon":-84.55553}},{"facility":"Detroit Clinical Research Center, PC","city":"Livonia","state":"Michigan","zip":"48154","country":"United States","geoPoint":{"lat":42.36837,"lon":-83.35271}},{"facility":"MidMichigan Medical Center Midland","city":"Midland","state":"Michigan","zip":"48670","country":"United States","geoPoint":{"lat":43.61558,"lon":-84.24721}},{"facility":"Michigan Cardio Vascular Institute","city":"Saginaw","state":"Michigan","zip":"48601","country":"United States","geoPoint":{"lat":43.41947,"lon":-83.95081}},{"facility":"Tri-County Research, Inc.","city":"Sterling Heights","state":"Michigan","zip":"48310","country":"United States","geoPoint":{"lat":42.58031,"lon":-83.0302}},{"facility":"Medical Research Associates, Inc.","city":"Traverse City","state":"Michigan","zip":"49684","country":"United States","geoPoint":{"lat":44.76306,"lon":-85.62063}},{"facility":"Oakland Medical Research Center","city":"Troy","state":"Michigan","zip":"48085","country":"United States","geoPoint":{"lat":42.60559,"lon":-83.14993}},{"facility":"Arcturus Healthcare, PLC, Troy Internal Medicine Research Division","city":"Troy","state":"Michigan","zip":"48098","country":"United States","geoPoint":{"lat":42.60559,"lon":-83.14993}},{"facility":"Michigan Heart & Vascular Institute","city":"Ypsilanti","state":"Michigan","zip":"48197","country":"United States","geoPoint":{"lat":42.24115,"lon":-83.61299}},{"facility":"Duluth Clinic, dba Essentia Health Duluth Clinic Investigational Drug Room","city":"Duluth","state":"Minnesota","zip":"55805","country":"United States","geoPoint":{"lat":46.78327,"lon":-92.10658}},{"facility":"St. Mary's Medical Center dba Essentia Health St. Mary's Medical Center","city":"Duluth","state":"Minnesota","zip":"55805","country":"United States","geoPoint":{"lat":46.78327,"lon":-92.10658}},{"facility":"St. Mary's Medical Center","city":"Duluth","state":"Minnesota","zip":"55805","country":"United States","geoPoint":{"lat":46.78327,"lon":-92.10658}},{"facility":"The Duluth Clinic, Ltd.","city":"Duluth","state":"Minnesota","zip":"55805","country":"United States","geoPoint":{"lat":46.78327,"lon":-92.10658}},{"facility":"Radiant Research, Inc.","city":"Edina","state":"Minnesota","zip":"55435","country":"United States","geoPoint":{"lat":44.88969,"lon":-93.34995}},{"facility":"Minneapolis Clinic of Neurology","city":"Golden Valley","state":"Minnesota","zip":"55422","country":"United States","geoPoint":{"lat":45.00969,"lon":-93.34912}},{"facility":"Allina Health System, dba Abbott Northwestern Hospital","city":"Minneapolis","state":"Minnesota","zip":"55407","country":"United States","geoPoint":{"lat":44.97997,"lon":-93.26384}},{"facility":"Lillehei Clinical Research Unit, University of Minnesota","city":"Minneapolis","state":"Minnesota","zip":"55455","country":"United States","geoPoint":{"lat":44.97997,"lon":-93.26384}},{"facility":"CentraCare Heart and Vascular Center","city":"Saint Cloud","state":"Minnesota","zip":"56303","country":"United States","geoPoint":{"lat":45.5608,"lon":-94.16249}},{"facility":"HealthEast St. Joseph's Hospital inpatient Pharmacy","city":"Saint Paul","state":"Minnesota","zip":"55102","country":"United States","geoPoint":{"lat":44.94441,"lon":-93.09327}},{"facility":"Olive Branch Family Medical Center","city":"Olive Branch","state":"Mississippi","zip":"38654","country":"United States","geoPoint":{"lat":34.96176,"lon":-89.82953}},{"facility":"Cardiology Associates Research, LLC","city":"Tupelo","state":"Mississippi","zip":"38801","country":"United States","geoPoint":{"lat":34.25807,"lon":-88.70464}},{"facility":"Missouri Cardiovascular Specialists, LLP","city":"Columbia","state":"Missouri","zip":"65201","country":"United States","geoPoint":{"lat":38.95171,"lon":-92.33407}},{"facility":"Saint Luke's Lipid and Diabetes Research Center","city":"Kansas City","state":"Missouri","zip":"64111","country":"United States","geoPoint":{"lat":39.09973,"lon":-94.57857}},{"facility":"Kansas City VA Medical Center","city":"Kansas City","state":"Missouri","zip":"64128-2226","country":"United States","geoPoint":{"lat":39.09973,"lon":-94.57857}},{"facility":"Mercy Research","city":"Saint Louis","state":"Missouri","zip":"63141","country":"United States","geoPoint":{"lat":38.62727,"lon":-90.19789}},{"facility":"Glacier View Research Institute, Cardiology","city":"Kalispell","state":"Montana","zip":"59901","country":"United States","geoPoint":{"lat":48.19579,"lon":-114.31291}},{"facility":"Montana Medical Research Inc.","city":"Missoula","state":"Montana","zip":"59808","country":"United States","geoPoint":{"lat":46.87215,"lon":-113.994}},{"facility":"Bryan Heart","city":"Lincoln","state":"Nebraska","zip":"68506","country":"United States","geoPoint":{"lat":40.8,"lon":-96.66696}},{"facility":"Creighton Diabetes Research Center","city":"Omaha","state":"Nebraska","zip":"68131","country":"United States","geoPoint":{"lat":41.25626,"lon":-95.94043}},{"facility":"University of Nebraska Medical Center","city":"Omaha","state":"Nebraska","zip":"68198","country":"United States","geoPoint":{"lat":41.25626,"lon":-95.94043}},{"facility":"AB Clinical Trials","city":"Las Vegas","state":"Nevada","zip":"89119","country":"United States","geoPoint":{"lat":36.17497,"lon":-115.13722}},{"facility":"Clinical Research of South Nevada","city":"Las Vegas","state":"Nevada","zip":"89121","country":"United States","geoPoint":{"lat":36.17497,"lon":-115.13722}},{"facility":"Clinical Research Advantage, Inc.","city":"Las Vegas","state":"Nevada","zip":"89128","country":"United States","geoPoint":{"lat":36.17497,"lon":-115.13722}},{"facility":"John V. Bernard, MD dba Wellness and Research Center","city":"Belvidere","state":"New Jersey","zip":"07823","country":"United States","geoPoint":{"lat":40.82982,"lon":-75.07767}},{"facility":"Advanced Heart Care LLC","city":"Bridgewater","state":"New Jersey","zip":"08807","country":"United States","geoPoint":{"lat":40.60079,"lon":-74.64815}},{"facility":"Lourdes Cardiology Services","city":"Cherry Hill","state":"New Jersey","zip":"08034","country":"United States","geoPoint":{"lat":39.93484,"lon":-75.03073}},{"facility":"USMA Clinical Research","city":"Elizabeth","state":"New Jersey","zip":"07201","country":"United States","geoPoint":{"lat":40.66399,"lon":-74.2107}},{"facility":"Lourdes Cardiology Services","city":"Hammonton","state":"New Jersey","zip":"08037","country":"United States","geoPoint":{"lat":39.63651,"lon":-74.80239}},{"facility":"NJ Heart","city":"Linden","state":"New Jersey","zip":"07036","country":"United States","geoPoint":{"lat":40.62205,"lon":-74.24459}},{"facility":"Arysmed LLC","city":"Lodi","state":"New Jersey","zip":"07644","country":"United States","geoPoint":{"lat":40.88232,"lon":-74.0832}},{"facility":"Amici Clinical Research, LLC","city":"Martinsville","state":"New Jersey","zip":"08836","country":"United States","geoPoint":{"lat":40.60121,"lon":-74.55905}},{"facility":"Rutgers Biomedical and Health Sciences-Robert Wood Johnson Medical School","city":"New Brunswick","state":"New Jersey","zip":"08901","country":"United States","geoPoint":{"lat":40.48622,"lon":-74.45182}},{"facility":"Cardiac & Endovascular Associates","city":"Ridgewood","state":"New Jersey","zip":"07450","country":"United States","geoPoint":{"lat":40.97926,"lon":-74.11653}},{"facility":"The Valley Hospital","city":"Ridgewood","state":"New Jersey","zip":"07450","country":"United States","geoPoint":{"lat":40.97926,"lon":-74.11653}},{"facility":"Cardio Metabolic Institute","city":"Somerset","state":"New Jersey","zip":"08873","country":"United States","geoPoint":{"lat":40.4976,"lon":-74.48849}},{"facility":"TLB Research LLC","city":"Trenton","state":"New Jersey","zip":"08611","country":"United States","geoPoint":{"lat":40.21705,"lon":-74.74294}},{"facility":"Lourdes Cardiology Services","city":"Voorhees","state":"New Jersey","zip":"08043","country":"United States","geoPoint":{"lat":40.48122,"lon":-74.48321}},{"facility":"Westwood Cardiology Associates, P.A.","city":"Westwood","state":"New Jersey","zip":"07675","country":"United States","geoPoint":{"lat":40.99121,"lon":-74.03264}},{"facility":"Albuquerque Clinical Trials, Inc.","city":"Albuquerque","state":"New Mexico","zip":"87102","country":"United States","geoPoint":{"lat":35.08449,"lon":-106.65114}},{"facility":"Albany Medical College, Division of Community Endocrinology","city":"Albany","state":"New York","zip":"12206","country":"United States","geoPoint":{"lat":42.65258,"lon":-73.75623}},{"facility":"Sorin Medical, P.C.","city":"Brooklyn","state":"New York","zip":"11214","country":"United States","geoPoint":{"lat":40.6501,"lon":-73.94958}},{"facility":"NY Total Medical Care, PC","city":"Brooklyn","state":"New York","zip":"11215","country":"United States","geoPoint":{"lat":40.6501,"lon":-73.94958}},{"facility":"NY Scientific","city":"Brooklyn","state":"New York","zip":"11235","country":"United States","geoPoint":{"lat":40.6501,"lon":-73.94958}},{"facility":"Buffalo Heart Group, Llp","city":"Buffalo","state":"New York","zip":"14215","country":"United States","geoPoint":{"lat":42.88645,"lon":-78.87837}},{"facility":"NYU Hudson Valley Cardiology","city":"Cortlandt Manor","state":"New York","zip":"10567","country":"United States","geoPoint":{"lat":41.29009,"lon":-73.92042}},{"facility":"Scott Research,Inc","city":"Laurelton","state":"New York","zip":"11413","country":"United States","geoPoint":{"lat":40.67016,"lon":-73.74664}},{"facility":"SJH Cardiology Associates","city":"Liverpool","state":"New York","zip":"13088","country":"United States","geoPoint":{"lat":43.10646,"lon":-76.2177}},{"facility":"Long Island Heart Associates","city":"Mineola","state":"New York","zip":"11501","country":"United States","geoPoint":{"lat":40.74927,"lon":-73.64068}},{"facility":"Mid Hudson Medical Research, PLLC","city":"New Windsor","state":"New York","zip":"12553","country":"United States","geoPoint":{"lat":41.47676,"lon":-74.02375}},{"facility":"Manhattan Medical Research Practice","city":"New York","state":"New York","zip":"10016","country":"United States","geoPoint":{"lat":40.71427,"lon":-74.00597}},{"facility":"Peters Medical Research NY, LLC","city":"New York","state":"New York","zip":"10016","country":"United States","geoPoint":{"lat":40.71427,"lon":-74.00597}},{"facility":"Weill Cornell Medical College","city":"New York","state":"New York","zip":"10065","country":"United States","geoPoint":{"lat":40.71427,"lon":-74.00597}},{"facility":"DiGiovanna Institute for Medical Education And Research","city":"North Massapequa","state":"New York","zip":"11758-1802","country":"United States","geoPoint":{"lat":40.70093,"lon":-73.46207}},{"facility":"Hudson Valley Cardiovascular Practice, PC","city":"Poughkeepsie","state":"New York","zip":"12601","country":"United States","geoPoint":{"lat":41.70037,"lon":-73.92097}},{"facility":"Rochester Clinical Research, Inc.","city":"Rochester","state":"New York","zip":"14609","country":"United States","geoPoint":{"lat":43.15478,"lon":-77.61556}},{"facility":"Institute for Clinical Studies","city":"Rosedale","state":"New York","zip":"11422","country":"United States","geoPoint":{"lat":40.66205,"lon":-73.73541}},{"facility":"Saratoga Clinical Research, LLC","city":"Saratoga Springs","state":"New York","zip":"12866","country":"United States","geoPoint":{"lat":43.08313,"lon":-73.78457}},{"facility":"Central New York Cardiology","city":"Utica","state":"New York","zip":"13501","country":"United States","geoPoint":{"lat":43.1009,"lon":-75.23266}},{"facility":"Great Lakes Medical Research","city":"Westfield","state":"New York","zip":"14787","country":"United States","geoPoint":{"lat":42.32228,"lon":-79.5781}},{"facility":"Buffalo Medical Group","city":"Williamsville","state":"New York","zip":"14221","country":"United States","geoPoint":{"lat":42.96395,"lon":-78.73781}},{"facility":"Novant Health Clinical Research","city":"Charlotte","state":"North Carolina","zip":"28204","country":"United States","geoPoint":{"lat":35.22709,"lon":-80.84313}},{"facility":"Novant Health Heart and Vascular Institute","city":"Charlotte","state":"North Carolina","zip":"28204","country":"United States","geoPoint":{"lat":35.22709,"lon":-80.84313}},{"facility":"Sensenbrenner Primary Care","city":"Charlotte","state":"North Carolina","zip":"28277","country":"United States","geoPoint":{"lat":35.22709,"lon":-80.84313}},{"facility":"NC Heart and Vascular","city":"Clayton","state":"North Carolina","zip":"27520","country":"United States","geoPoint":{"lat":35.65071,"lon":-78.45639}},{"facility":"LeBauer Cardiovascular Research Foundation","city":"Greensboro","state":"North Carolina","zip":"27401","country":"United States","geoPoint":{"lat":36.07264,"lon":-79.79198}},{"facility":"Clinical Trials of America, Inc.","city":"Hickory","state":"North Carolina","zip":"28601","country":"United States","geoPoint":{"lat":35.73319,"lon":-81.3412}},{"facility":"Carolina Cardiology Cornerstone","city":"High Point","state":"North Carolina","zip":"27262","country":"United States","geoPoint":{"lat":35.95569,"lon":-80.00532}},{"facility":"Clinical Trials of America- NC, LLC","city":"Lenoir","state":"North Carolina","zip":"28645","country":"United States","geoPoint":{"lat":35.91402,"lon":-81.53898}},{"facility":"Research Institute of the Carolinas of Piedmont Healthcare, PA","city":"Mooresville","state":"North Carolina","zip":"28117","country":"United States","geoPoint":{"lat":35.58486,"lon":-80.81007}},{"facility":"Burke Primary Care","city":"Morganton","state":"North Carolina","zip":"28655","country":"United States","geoPoint":{"lat":35.74541,"lon":-81.68482}},{"facility":"Eastern Nephrology Associates","city":"New Bern","state":"North Carolina","zip":"28562","country":"United States","geoPoint":{"lat":35.10849,"lon":-77.04411}},{"facility":"Boice Willis Clinic","city":"Rocky Mount","state":"North Carolina","zip":"27804","country":"United States","geoPoint":{"lat":35.93821,"lon":-77.79053}},{"facility":"PMG Research of Rocky Mount, LLC","city":"Rocky Mount","state":"North Carolina","zip":"27804","country":"United States","geoPoint":{"lat":35.93821,"lon":-77.79053}},{"facility":"NC Heart and Vascular Research","city":"Smithfield","state":"North Carolina","zip":"27577","country":"United States","geoPoint":{"lat":35.50849,"lon":-78.33945}},{"facility":"Piedmont Healthcare/Research","city":"Statesville","state":"North Carolina","zip":"28625","country":"United States","geoPoint":{"lat":35.78264,"lon":-80.8873}},{"facility":"Wake Forest University Health Sciences Institutional Review Board","city":"Winston-Salem","state":"North Carolina","zip":"27157","country":"United States","geoPoint":{"lat":36.09986,"lon":-80.24422}},{"facility":"Lillestol Research LLC","city":"Fargo","state":"North Dakota","zip":"58103","country":"United States","geoPoint":{"lat":46.87719,"lon":-96.7898}},{"facility":"Radiant Research, Inc","city":"Akron","state":"Ohio","zip":"44311","country":"United States","geoPoint":{"lat":41.08144,"lon":-81.51901}},{"facility":"The Lindner Center for Research and Education at The Christ Hospital","city":"Cincinnati","state":"Ohio","zip":"45219","country":"United States","geoPoint":{"lat":39.12713,"lon":-84.51435}},{"facility":"Metabolic and Atherosclerosis Research Center","city":"Cincinnati","state":"Ohio","zip":"45227","country":"United States","geoPoint":{"lat":39.12713,"lon":-84.51435}},{"facility":"Sterling Research Group, Ltd.","city":"Cincinnati","state":"Ohio","zip":"45246","country":"United States","geoPoint":{"lat":39.12713,"lon":-84.51435}},{"facility":"Rapid Medical Research, Inc.","city":"Cleveland","state":"Ohio","zip":"44122","country":"United States","geoPoint":{"lat":41.4995,"lon":-81.69541}},{"facility":"Cleveland Clinic - Taussig Cancer Institute","city":"Cleveland","state":"Ohio","zip":"44195","country":"United States","geoPoint":{"lat":41.4995,"lon":-81.69541}},{"facility":"Radiant Research, Inc.","city":"Columbus","state":"Ohio","zip":"43212","country":"United States","geoPoint":{"lat":39.96118,"lon":-82.99879}},{"facility":"Optimed Research, LTD","city":"Columbus","state":"Ohio","zip":"43235","country":"United States","geoPoint":{"lat":39.96118,"lon":-82.99879}},{"facility":"Dayton Heart Center","city":"Dayton","state":"Ohio","zip":"45414","country":"United States","geoPoint":{"lat":39.75895,"lon":-84.19161}},{"facility":"Premier Health Specialists, Inc. (dba Dayton Heart Center)","city":"Dayton","state":"Ohio","zip":"45414","country":"United States","geoPoint":{"lat":39.75895,"lon":-84.19161}},{"facility":"PriMed Clinical Research","city":"Dayton","state":"Ohio","zip":"45419","country":"United States","geoPoint":{"lat":39.75895,"lon":-84.19161}},{"facility":"Delaware Research Group, LLC","city":"Delaware","state":"Ohio","zip":"43015","country":"United States","geoPoint":{"lat":40.29867,"lon":-83.06797}},{"facility":"North Ohio Heart Center (Administrative Only)","city":"Elyria","state":"Ohio","zip":"44035","country":"United States","geoPoint":{"lat":41.36838,"lon":-82.10765}},{"facility":"North Ohio Heart Center","city":"Elyria","state":"Ohio","zip":"44035","country":"United States","geoPoint":{"lat":41.36838,"lon":-82.10765}},{"facility":"North Ohio Heart Center","city":"Lorain","state":"Ohio","zip":"44053","country":"United States","geoPoint":{"lat":41.45282,"lon":-82.18237}},{"facility":"SV Research LLC","city":"Marion","state":"Ohio","zip":"43302","country":"United States","geoPoint":{"lat":40.58867,"lon":-83.12852}},{"facility":"Office of Daniel G. Williams, MD","city":"Perrysburg","state":"Ohio","zip":"43551","country":"United States","geoPoint":{"lat":41.557,"lon":-83.62716}},{"facility":"North Ohio Heart Center, Inc.","city":"Sandusky","state":"Ohio","zip":"44870","country":"United States","geoPoint":{"lat":41.44894,"lon":-82.70796}},{"facility":"ProMedica Northwest Ohio Cardiology Consultants","city":"Toledo","state":"Ohio","zip":"43615","country":"United States","geoPoint":{"lat":41.66394,"lon":-83.55521}},{"facility":"Mercy Health Youngstown, LLC d/b/a St. Elizabeth Youngstown Hospital","city":"Youngstown","state":"Ohio","zip":"44501","country":"United States","geoPoint":{"lat":41.09978,"lon":-80.64952}},{"facility":"LION Research","city":"Norman","state":"Oklahoma","zip":"73069","country":"United States","geoPoint":{"lat":35.22257,"lon":-97.43948}},{"facility":"LION Research","city":"Norman","state":"Oklahoma","zip":"73072","country":"United States","geoPoint":{"lat":35.22257,"lon":-97.43948}},{"facility":"COR Clinical Research LLC","city":"Oklahoma City","state":"Oklahoma","zip":"73103","country":"United States","geoPoint":{"lat":35.46756,"lon":-97.51643}},{"facility":"Oklahoma Heart Hospital Physicians","city":"Oklahoma City","state":"Oklahoma","zip":"73120","country":"United States","geoPoint":{"lat":35.46756,"lon":-97.51643}},{"facility":"Oklahoma Heart Hospital Research Foundation","city":"Oklahoma City","state":"Oklahoma","zip":"73120","country":"United States","geoPoint":{"lat":35.46756,"lon":-97.51643}},{"facility":"South Oklahoma Heart Research, LLC","city":"Oklahoma City","state":"Oklahoma","zip":"73135","country":"United States","geoPoint":{"lat":35.46756,"lon":-97.51643}},{"facility":"Integrated Medical Research PC","city":"Ashland","state":"Oregon","zip":"97520","country":"United States","geoPoint":{"lat":42.19458,"lon":-122.70948}},{"facility":"Hillsboro Cardiology, PC","city":"Hillsboro","state":"Oregon","zip":"97123","country":"United States","geoPoint":{"lat":45.52289,"lon":-122.98983}},{"facility":"Portland Preventive Cardiology LLC","city":"Portland","state":"Oregon","zip":"97225","country":"United States","geoPoint":{"lat":45.52345,"lon":-122.67621}},{"facility":"Abington Hosptial","city":"Abington","state":"Pennsylvania","zip":"19001","country":"United States","geoPoint":{"lat":40.12067,"lon":-75.11795}},{"facility":"Clinical Research Associates of Central PA","city":"Altoona","state":"Pennsylvania","zip":"16602","country":"United States","geoPoint":{"lat":40.51868,"lon":-78.39474}},{"facility":"Brandywine Clinical Research","city":"Downingtown","state":"Pennsylvania","zip":"19335-2620","country":"United States","geoPoint":{"lat":40.0065,"lon":-75.70327}},{"facility":"Doylestown Cardiology Associates - VIAA","city":"Doylestown","state":"Pennsylvania","zip":"18901","country":"United States","geoPoint":{"lat":40.31011,"lon":-75.12989}},{"facility":"Doylestown Health Cardiology, a division of Doylestown Health Physicians","city":"Doylestown","state":"Pennsylvania","zip":"18901","country":"United States","geoPoint":{"lat":40.31011,"lon":-75.12989}},{"facility":"Amh/Feasterville Family Health Care Center","city":"Feasterville-Trevose","state":"Pennsylvania","zip":"19053","country":"United States","geoPoint":{"lat":40.15242,"lon":-74.98655}},{"facility":"Greater Pittsburgh Vascular","city":"Jefferson Hills","state":"Pennsylvania","zip":"15025","country":"United States","geoPoint":{"lat":40.29118,"lon":-79.93199}},{"facility":"Detweiler Family Medicine and Associates, PC","city":"Lansdale","state":"Pennsylvania","zip":"19446","country":"United States","geoPoint":{"lat":40.2415,"lon":-75.28379}},{"facility":"Green and Seidner Family Practice Associates","city":"Lansdale","state":"Pennsylvania","zip":"19446","country":"United States","geoPoint":{"lat":40.2415,"lon":-75.28379}},{"facility":"Family Medical Associates","city":"Levittown","state":"Pennsylvania","zip":"19056","country":"United States","geoPoint":{"lat":40.15511,"lon":-74.82877}},{"facility":"Mercer Bucks Cardiology","city":"Newtown","state":"Pennsylvania","zip":"18940","country":"United States","geoPoint":{"lat":40.22928,"lon":-74.93683}},{"facility":"Philadelphia Health Associates-Adult Medicine","city":"Philadelphia","state":"Pennsylvania","zip":"19146","country":"United States","geoPoint":{"lat":39.95233,"lon":-75.16379}},{"facility":"Allegheny Endocrinology Associates","city":"Pittsburgh","state":"Pennsylvania","zip":"15212","country":"United States","geoPoint":{"lat":40.44062,"lon":-79.99589}},{"facility":"Preferred Primary Care Physicians","city":"Pittsburgh","state":"Pennsylvania","zip":"15236","country":"United States","geoPoint":{"lat":40.44062,"lon":-79.99589}},{"facility":"Guthrie Medical Group, PC","city":"Sayre","state":"Pennsylvania","zip":"18840","country":"United States","geoPoint":{"lat":41.97896,"lon":-76.5155}},{"facility":"SFM Clinical Trials, Inc.","city":"Scotland","state":"Pennsylvania","zip":"17254","country":"United States","geoPoint":{"lat":39.9687,"lon":-77.58721}},{"facility":"Fay-West Family Practice","city":"Scottdale","state":"Pennsylvania","zip":"15683","country":"United States","geoPoint":{"lat":40.10035,"lon":-79.58698}},{"facility":"Grand View - Lehigh Valley Health Services, Buxmont Cardiology Division","city":"Sellersville","state":"Pennsylvania","zip":"18960","country":"United States","geoPoint":{"lat":40.35399,"lon":-75.3049}},{"facility":"Montgomery Medical, Inc.","city":"Smithfield","state":"Pennsylvania","zip":"15478","country":"United States","geoPoint":{"lat":39.80313,"lon":-79.80783}},{"facility":"Preferred Primary Care Physicians","city":"Uniontown","state":"Pennsylvania","zip":"15401","country":"United States","geoPoint":{"lat":39.90008,"lon":-79.71643}},{"facility":"Berks Cardiologists, Ltd.","city":"Wyomissing","state":"Pennsylvania","zip":"19610","country":"United States","geoPoint":{"lat":40.32954,"lon":-75.96521}},{"facility":"Coastal Cardiology","city":"Charleston","state":"South Carolina","zip":"29407","country":"United States","geoPoint":{"lat":32.77657,"lon":-79.93092}},{"facility":"Upstate Pharmaceutical Research","city":"Greenville","state":"South Carolina","zip":"29615","country":"United States","geoPoint":{"lat":34.85262,"lon":-82.39401}},{"facility":"Mountain View Clinical Research, Inc.","city":"Greer","state":"South Carolina","zip":"29651","country":"United States","geoPoint":{"lat":34.93873,"lon":-82.22706}},{"facility":"The Diabetes Center, LLC","city":"Murrells Inlet","state":"South Carolina","zip":"29576","country":"United States","geoPoint":{"lat":33.551,"lon":-79.04143}},{"facility":"Black Hills Cardiovascular-Regional Health Research","city":"Rapid City","state":"South Dakota","zip":"57701","country":"United States","geoPoint":{"lat":44.08054,"lon":-103.23101}},{"facility":"Mid-Cumberland Infectious Disease Consultants, PLC","city":"Clarksville","state":"Tennessee","zip":"37043","country":"United States","geoPoint":{"lat":36.52977,"lon":-87.35945}},{"facility":"Collierville Medical Specialists","city":"Collierville","state":"Tennessee","zip":"38017","country":"United States","geoPoint":{"lat":35.04204,"lon":-89.66453}},{"facility":"Stern Cardiovascular Foundation, Inc.","city":"Germantown","state":"Tennessee","zip":"38138","country":"United States","geoPoint":{"lat":35.08676,"lon":-89.81009}},{"facility":"Holston Medical Group","city":"Kingsport","state":"Tennessee","zip":"37660","country":"United States","geoPoint":{"lat":36.54843,"lon":-82.56182}},{"facility":"New Phase Research & Development","city":"Knoxville","state":"Tennessee","zip":"37909","country":"United States","geoPoint":{"lat":35.96064,"lon":-83.92074}},{"facility":"PMG Research,Inc d/b/a PMG Research of Knoxville","city":"Knoxville","state":"Tennessee","zip":"37912","country":"United States","geoPoint":{"lat":35.96064,"lon":-83.92074}},{"facility":"Cardiovascular Research of Knoxville","city":"Knoxville","state":"Tennessee","zip":"37917","country":"United States","geoPoint":{"lat":35.96064,"lon":-83.92074}},{"facility":"New Orleans Center for Clinical Research","city":"Knoxville","state":"Tennessee","zip":"37920","country":"United States","geoPoint":{"lat":35.96064,"lon":-83.92074}},{"facility":"Volunteer Research Group","city":"Knoxville","state":"Tennessee","zip":"37920","country":"United States","geoPoint":{"lat":35.96064,"lon":-83.92074}},{"facility":"Baptist Memorial Medical Group, Inc.","city":"Memphis","state":"Tennessee","zip":"38119","country":"United States","geoPoint":{"lat":35.14953,"lon":-90.04898}},{"facility":"The Green Clinic, PC","city":"Memphis","state":"Tennessee","zip":"38119","country":"United States","geoPoint":{"lat":35.14953,"lon":-90.04898}},{"facility":"Southwind Medical Specialists","city":"Memphis","state":"Tennessee","zip":"38125","country":"United States","geoPoint":{"lat":35.14953,"lon":-90.04898}},{"facility":"Tennessee Center for Clinical Trials","city":"Tullahoma","state":"Tennessee","zip":"37388","country":"United States","geoPoint":{"lat":35.36202,"lon":-86.20943}},{"facility":"Trinity Clinical Research, LLC","city":"Tullahoma","state":"Tennessee","zip":"37388","country":"United States","geoPoint":{"lat":35.36202,"lon":-86.20943}},{"facility":"PharmaTex Research","city":"Amarillo","state":"Texas","zip":"79106","country":"United States","geoPoint":{"lat":35.222,"lon":-101.8313}},{"facility":"Arlington Family Research Center, Inc.","city":"Arlington","state":"Texas","zip":"76012","country":"United States","geoPoint":{"lat":32.73569,"lon":-97.10807}},{"facility":"Texas Diabetes & Endocrinology","city":"Austin","state":"Texas","zip":"78731","country":"United States","geoPoint":{"lat":30.26715,"lon":-97.74306}},{"facility":"Austin Heart, PLLC","city":"Austin","state":"Texas","zip":"78756","country":"United States","geoPoint":{"lat":30.26715,"lon":-97.74306}},{"facility":"Aztec Medical Research, LLC","city":"Channelview","state":"Texas","zip":"77530","country":"United States","geoPoint":{"lat":29.77606,"lon":-95.11465}},{"facility":"Corsicana Medical Research, PLLC","city":"Corsicana","state":"Texas","zip":"75110","country":"United States","geoPoint":{"lat":32.09543,"lon":-96.46887}},{"facility":"Protenium Clinical Research, LLC","city":"Dallas","state":"Texas","zip":"75208","country":"United States","geoPoint":{"lat":32.78306,"lon":-96.80667}},{"facility":"VA North Texas Health Care System - Dallas VAMC","city":"Dallas","state":"Texas","zip":"75216","country":"United States","geoPoint":{"lat":32.78306,"lon":-96.80667}},{"facility":"Baylor Heart and Vascular Institute","city":"Dallas","state":"Texas","zip":"75226","country":"United States","geoPoint":{"lat":32.78306,"lon":-96.80667}},{"facility":"Dallas Diabetes and Endocrine Center","city":"Dallas","state":"Texas","zip":"75230","country":"United States","geoPoint":{"lat":32.78306,"lon":-96.80667}},{"facility":"Cardiovascular Research Institute of Dallas","city":"Dallas","state":"Texas","zip":"75231","country":"United States","geoPoint":{"lat":32.78306,"lon":-96.80667}},{"facility":"Radiant Research, Inc.","city":"Dallas","state":"Texas","zip":"75231","country":"United States","geoPoint":{"lat":32.78306,"lon":-96.80667}},{"facility":"Research Institute of Dallas","city":"Dallas","state":"Texas","zip":"75231","country":"United States","geoPoint":{"lat":32.78306,"lon":-96.80667}},{"facility":"Doctors Hospital At Renaissance","city":"Edinburg","state":"Texas","zip":"78539","country":"United States","geoPoint":{"lat":26.30174,"lon":-98.16334}},{"facility":"Amir Malik Research","city":"Fort Worth","state":"Texas","zip":"76104","country":"United States","geoPoint":{"lat":32.72541,"lon":-97.32085}},{"facility":"The Medical Group Of Texas","city":"Fort Worth","state":"Texas","zip":"76104","country":"United States","geoPoint":{"lat":32.72541,"lon":-97.32085}},{"facility":"Rockwood Medical Clinic","city":"Fort Worth","state":"Texas","zip":"76164","country":"United States","geoPoint":{"lat":32.72541,"lon":-97.32085}},{"facility":"San Gabriel Clinical Research, LLC","city":"Georgetown","state":"Texas","zip":"78626","country":"United States","geoPoint":{"lat":30.63269,"lon":-97.67723}},{"facility":"East Texas Cardiology PA","city":"Houston","state":"Texas","zip":"77002","country":"United States","geoPoint":{"lat":29.76328,"lon":-95.36327}},{"facility":"Spring Clinical Research","city":"Houston","state":"Texas","zip":"77002","country":"United States","geoPoint":{"lat":29.76328,"lon":-95.36327}},{"facility":"Med Tech Research, LP","city":"Houston","state":"Texas","zip":"77024","country":"United States","geoPoint":{"lat":29.76328,"lon":-95.36327}},{"facility":"Prime Care Medical Group","city":"Houston","state":"Texas","zip":"77024","country":"United States","geoPoint":{"lat":29.76328,"lon":-95.36327}},{"facility":"Associates in Medicine, PA","city":"Houston","state":"Texas","zip":"77027","country":"United States","geoPoint":{"lat":29.76328,"lon":-95.36327}},{"facility":"Alan S. Hoffman, M.D.","city":"Houston","state":"Texas","zip":"77030","country":"United States","geoPoint":{"lat":29.76328,"lon":-95.36327}},{"facility":"Baylor College of Medicine","city":"Houston","state":"Texas","zip":"77030","country":"United States","geoPoint":{"lat":29.76328,"lon":-95.36327}},{"facility":"Investigational Product Shipment Address TO: Investigational Drug Services (IDS),","city":"Houston","state":"Texas","zip":"77030","country":"United States","geoPoint":{"lat":29.76328,"lon":-95.36327}},{"facility":"Centex Studies, Inc.","city":"Houston","state":"Texas","zip":"77058","country":"United States","geoPoint":{"lat":29.76328,"lon":-95.36327}},{"facility":"Northwest Houston Cardiology","city":"Houston","state":"Texas","zip":"77070","country":"United States","geoPoint":{"lat":29.76328,"lon":-95.36327}},{"facility":"Texas Center For Drug Development, Inc.","city":"Houston","state":"Texas","zip":"77081","country":"United States","geoPoint":{"lat":29.76328,"lon":-95.36327}},{"facility":"Private Practice Leadership, LLC","city":"Houston","state":"Texas","zip":"77094","country":"United States","geoPoint":{"lat":29.76328,"lon":-95.36327}},{"facility":"Protenium Clinical Research","city":"Hurst","state":"Texas","zip":"76054","country":"United States","geoPoint":{"lat":32.82346,"lon":-97.17057}},{"facility":"South Texas Cardiovascular Consultants, PLLC","city":"Kerrville","state":"Texas","zip":"78028","country":"United States","geoPoint":{"lat":30.04743,"lon":-99.14032}},{"facility":"Caprock Cardiac Center Research Institute Inc.","city":"Lubbock","state":"Texas","zip":"79410","country":"United States","geoPoint":{"lat":33.57786,"lon":-101.85517}},{"facility":"Midland Clinical Research Center","city":"Midland","state":"Texas","zip":"79707","country":"United States","geoPoint":{"lat":31.99735,"lon":-102.07791}},{"facility":"Hill Country Medical Associates","city":"New Braunfels","state":"Texas","zip":"78130","country":"United States","geoPoint":{"lat":29.703,"lon":-98.12445}},{"facility":"North Hills Medical Research, Inc.","city":"North Richland Hills","state":"Texas","zip":"76180","country":"United States","geoPoint":{"lat":32.8343,"lon":-97.2289}},{"facility":"Grace Research, LLC","city":"Palestine","state":"Texas","zip":"75801","country":"United States","geoPoint":{"lat":31.76212,"lon":-95.63079}},{"facility":"Med-Olam Clinical Research","city":"Pasadena","state":"Texas","zip":"77504","country":"United States","geoPoint":{"lat":29.69106,"lon":-95.2091}},{"facility":"Austin Institute for Clinical Research, Inc.","city":"Pflugerville","state":"Texas","zip":"78660","country":"United States","geoPoint":{"lat":30.43937,"lon":-97.62}},{"facility":"Austin Institute for Clinical Research,Inc.","city":"Pflugerville","state":"Texas","zip":"78660","country":"United States","geoPoint":{"lat":30.43937,"lon":-97.62}},