{"protocolSection":{"identificationModule":{"nctId":"NCT00351806","orgStudyIdInfo":{"id":"2004BA721A02"},"organization":{"fullName":"Guangzhou University of Traditional Chinese Medicine","class":"OTHER"},"briefTitle":"AISTCM-Outcome Measurement of Acute Ischemic Stroke With Traditional Chinese Medicine","officialTitle":"AISTCM-The Pathological Pattern Differentiation and Outcome Measurement of Acute Ischemic Stroke Treated With Traditional Chinese Medicine"},"statusModule":{"statusVerifiedDate":"2013-08","overallStatus":"COMPLETED","expandedAccessInfo":{"hasExpandedAccess":false},"startDateStruct":{"date":"2005-07"},"completionDateStruct":{"date":"2006-11"},"studyFirstSubmitDate":"2006-07-12","studyFirstSubmitQcDate":"2006-07-12","studyFirstPostDateStruct":{"date":"2006-07-13","type":"ESTIMATED"},"lastUpdateSubmitDate":"2013-08-05","lastUpdatePostDateStruct":{"date":"2013-08-07","type":"ESTIMATED"}},"sponsorCollaboratorsModule":{"leadSponsor":{"name":"Guangzhou University of Traditional Chinese Medicine","class":"OTHER"}},"descriptionModule":{"briefSummary":"The purpose of this study is to determine whether Traditional Chinese Medicine (TCM) is able to improve the outcome of acute ischemic stroke and to observe its safety.","detailedDescription":"The purpose of this study is to determine whether Traditional Chinese Medicine (TCM) is able to improve the outcome of acute ischemic stroke and safety."},"conditionsModule":{"conditions":["Cerebral Infarction"],"keywords":["acute intracerebral infarction"]},"designModule":{"studyType":"INTERVENTIONAL","phases":["PHASE4"],"designInfo":{"allocation":"RANDOMIZED","interventionModel":"PARALLEL","primaryPurpose":"TREATMENT","maskingInfo":{"masking":"SINGLE"}},"enrollmentInfo":{"count":500}},"armsInterventionsModule":{"armGroups":[{"label":"Chinese herbal medicine","type":"EXPERIMENTAL","interventionNames":["Drug: Erigeron breviscapus injection","Drug: hua tuo zai zao wan (a herbal medicine pill)","Drug: Compound stroke herbal medicine (8 herbal)"]},{"label":"placebo","type":"PLACEBO_COMPARATOR"}],"interventions":[{"type":"DRUG","name":"Erigeron breviscapus injection","armGroupLabels":["Chinese herbal medicine"]},{"type":"DRUG","name":"hua tuo zai zao wan (a herbal medicine pill)","armGroupLabels":["Chinese herbal medicine"]},{"type":"DRUG","name":"Compound stroke herbal medicine (8 herbal)","armGroupLabels":["Chinese herbal medicine"]}]},"outcomesModule":{"primaryOutcomes":[{"measure":"death rate, Barthel Index"}],"secondaryOutcomes":[{"measure":"Glasgow Outcome Scale (GOS)"},{"measure":"Modified Rankin Scale (mRS)"},{"measure":"National Institute of Health Stroke Scale (NIHSS)"},{"measure":"Stroke Specific Quality of Life (SSQOL)"},{"measure":"Scale of Traditional Chinese Medicine (SSTCM)"}]},"eligibilityModule":{"eligibilityCriteria":"Inclusion Criteria:\n\n* Ischemic stroke diagnosis by CT/MRI scan\n* Yin pattern of Traditional Chinese Medicine Theory\n* 40-85 years old\n* Total anterior circulation infarcts (TACI), partial anterior territory cerebral infarction (PACI), lacunar anterior circulation infarcts (LACI) type under Oxfordshire Community Stroke Project (OCSP) standard\n* NIHSS \\>=4;\n* Glasgow coma scale (GCS) \\>=7;\n* Modified Rankin Scale less than 2 degrees before onset of this stroke\n* Informed consent signed by patient or his/her family\n\nExclusion Criteria:\n\n* Hemorrhagic stroke;\n* Coma, GCS\\<=7;\n* Cerebral hernia;\n* Serious heart, liver, lung, kidney functional failure;\n* Gastrointestinal (GI) bleeding;\n* Thrombolysis drugs or surgery was administrated to the patient;\n* Not cooperative with physician;\n* Psychological disorder;\n* Already taken part in other clinical drug trial within the past 3 months","healthyVolunteers":false,"sex":"ALL","minimumAge":"40 Years","maximumAge":"85 Years","stdAges":["ADULT","OLDER_ADULT"]},"contactsLocationsModule":{"overallOfficials":[{"name":"Longhui Yang, Chairmam","affiliation":"Branch of Science and Education","role":"STUDY_CHAIR"}],"locations":[{"facility":"Dongzhimen Hospital of Beijing University of Traditional Chinese Medicine","city":"Beijing","state":"Beijing","zip":"100700","country":"China","geoPoint":{"lat":39.9075,"lon":116.39723}},{"facility":"Foshan Hospital of Traditional Chinese Medicine","city":"Foshan","state":"Guangdong","zip":"528000","country":"China","geoPoint":{"lat":23.02677,"lon":113.13148}},{"facility":"2nd hospital of Zhongshan University","city":"Guangzhou","state":"Guangdong","zip":"510120","country":"China","geoPoint":{"lat":23.11667,"lon":113.25}},{"facility":"Neurology Center, Guangdong Province Hospital of Tradtional Chinese Medicine","city":"Guangzhou","state":"Guangdong","zip":"510120","country":"China","geoPoint":{"lat":23.11667,"lon":113.25}},{"facility":"Zhongshan Hospital of Traditional Chinese Medicine","city":"Zhongshan","state":"Guangdong","country":"China","geoPoint":{"lat":21.31992,"lon":110.5723}},{"facility":"Ruikang Hospital of Traditional Chinese Medicine","city":"Nan Ning","state":"Guangxi","zip":"530011","country":"China"},{"facility":"1st Hospital of Guangxi college of Traditional Chinese Medicine","city":"Nanning","state":"Guangxi","zip":"530023","country":"China","geoPoint":{"lat":22.81667,"lon":108.31667}},{"facility":"The 1st Hospital of He'nan College of Traditional Chinese Medicine","city":"Zhengzhou","state":"Henan","zip":"450006","country":"China","geoPoint":{"lat":34.75778,"lon":113.64861}},{"facility":"The teahing hospital of Hubei College of Traditional Chinese Medicine","city":"Wuhan","state":"Hubei","zip":"430006","country":"China","geoPoint":{"lat":30.58333,"lon":114.26667}},{"facility":"Taizhou Hospital of Traditional Chinese Medicine","city":"Taizhou","state":"Jiangsu","country":"China","geoPoint":{"lat":32.49069,"lon":119.90812}},{"facility":"Jinan Hospital of Traditional Chinese Medicine","city":"Jinan","state":"Shandong","country":"China","geoPoint":{"lat":36.66833,"lon":116.99722}},{"facility":"Longhua Hospital of Shanghai University of Traditional Chinese Medicine","city":"Shanghai","state":"Shanghai","zip":"200000","country":"China","geoPoint":{"lat":31.22222,"lon":121.45806}},{"facility":"Shanghai Hospital of Traditional Chinese Medicine","city":"Shanghai","state":"Shanghai","zip":"200000","country":"China","geoPoint":{"lat":31.22222,"lon":121.45806}},{"facility":"Shuguang Hospital of Shanghai University of Traditional Chinese Medicine","city":"Shanghai","state":"Shanghai","zip":"200000","country":"China","geoPoint":{"lat":31.22222,"lon":121.45806}},{"facility":"Yueyang Hospital of Shanghai University of Traditional Chinese Medicine","city":"Shanghai","state":"Shanghai","zip":"200000","country":"China","geoPoint":{"lat":31.22222,"lon":121.45806}},{"facility":"zhongshan hospital of Fudan Unversity","city":"Shanghai","state":"Shanghai","zip":"200032","country":"China","geoPoint":{"lat":31.22222,"lon":121.45806}},{"facility":"Huashan Hospital of Fudan Unveristy","city":"Shanghai","state":"Shanghai","zip":"200040","country":"China","geoPoint":{"lat":31.22222,"lon":121.45806}},{"facility":"The Hosptial of Shanxi College of Traditional Chinese Medicine","city":"Xian yang","state":"Shanxi","zip":"712000","country":"China"},{"facility":"The People's Hospital of Sichuan Province","city":"Chengdu","state":"Sichuan","zip":"610072","country":"China","geoPoint":{"lat":30.66667,"lon":104.06667}},{"facility":"Xinjiang Uygur Autonomous Region Hospital of Traditional Chinese Medicine","city":"Urumqi","state":"Xinjiang","zip":"830001","country":"China","geoPoint":{"lat":43.80096,"lon":87.60046}},{"facility":"Zhejiang Province Hospital of Traditional Chinese Medicine","city":"Hangzhou","state":"Zhejiang","country":"China","geoPoint":{"lat":30.29365,"lon":120.16142}},{"facility":"The 2nd Hospital of Wenzhou Medical College","city":"Wenzhou","state":"Zhejiang","country":"China","geoPoint":{"lat":27.99942,"lon":120.66682}}]},"referencesModule":{"references":[{"pmid":"20456839","type":"DERIVED","citation":"Huang Y, Guo JW; Project Group for Demonstration Study of Syndrome Differentiation Protocol and Effect Evaluation of Acute Ischemic Stroke. Outcome and safety assessment of an herbal medicine treatment protocol for yin pattern of acute ischemic stroke. Zhong Xi Yi Jie He Xue Bao. 2010 May;8(5):417-26. doi: 10.3736/jcim20100504."}]}},"derivedSection":{"miscInfoModule":{"versionHolder":"2024-02-14"},"conditionBrowseModule":{"meshes":[{"id":"D000083242","term":"Ischemic Stroke"},{"id":"D000002544","term":"Cerebral Infarction"},{"id":"D000007238","term":"Infarction"}],"ancestors":[{"id":"D000007511","term":"Ischemia"},{"id":"D000010335","term":"Pathologic Processes"},{"id":"D000009336","term":"Necrosis"},{"id":"D000020521","term":"Stroke"},{"id":"D000002561","term":"Cerebrovascular Disorders"},{"id":"D000001927","term":"Brain Diseases"},{"id":"D000002493","term":"Central Nervous System Diseases"},{"id":"D000009422","term":"Nervous System Diseases"},{"id":"D000014652","term":"Vascular Diseases"},{"id":"D000002318","term":"Cardiovascular Diseases"},{"id":"D000020520","term":"Brain Infarction"},{"id":"D000002545","term":"Brain Ischemia"}],"browseLeaves":[{"id":"M21996","name":"Stroke","relevance":"LOW"},{"id":"M10233","name":"Ischemia","relevance":"LOW"},{"id":"M2401","name":"Ischemic Stroke","asFound":"Ischemic Stroke","relevance":"HIGH"},{"id":"M9972","name":"Infarction","asFound":"Infarction","relevance":"HIGH"},{"id":"M5483","name":"Cerebral Infarction","asFound":"Cerebral Infarction","relevance":"HIGH"},{"id":"M11974","name":"Necrosis","relevance":"LOW"},{"id":"M5500","name":"Cerebrovascular Disorders","relevance":"LOW"},{"id":"M4894","name":"Brain Diseases","relevance":"LOW"},{"id":"M5432","name":"Central Nervous System Diseases","relevance":"LOW"},{"id":"M17090","name":"Vascular Diseases","relevance":"LOW"},{"id":"M21995","name":"Brain Infarction","relevance":"LOW"},{"id":"M5484","name":"Brain Ischemia","relevance":"LOW"},{"id":"T170","name":"Acute Graft Versus Host Disease","relevance":"LOW"}],"browseBranches":[{"abbrev":"BC10","name":"Nervous System Diseases"},{"abbrev":"BC14","name":"Heart and Blood Diseases"},{"abbrev":"All","name":"All Conditions"},{"abbrev":"BC23","name":"Symptoms and General Pathology"},{"abbrev":"Rare","name":"Rare Diseases"}]}},"hasResults":false}