{"protocolSection":{"identificationModule":{"nctId":"NCT04755283","orgStudyIdInfo":{"id":"ANT-006"},"secondaryIdInfos":[{"id":"2020-004507-13","type":"EUDRACT_NUMBER"}],"organization":{"fullName":"Anthos Therapeutics, Inc.","class":"INDUSTRY"},"briefTitle":"Safety and Tolerability of Abelacimab (MAA868) vs. Rivaroxaban in Patients With Atrial Fibrillation","officialTitle":"A Multicenter, RandomiZed, Active-ControLled Study to Evaluate the Safety and Tolerability of Two Blinded Doses of Abelacimab (MAA868) Compared With Open-Label Rivaroxaban in Patients With Atrial Fibrillation (AZALEA)","acronym":"AZALEA-TIMI 71"},"statusModule":{"statusVerifiedDate":"2024-01","overallStatus":"ACTIVE_NOT_RECRUITING","expandedAccessInfo":{"hasExpandedAccess":false},"startDateStruct":{"date":"2021-02-02","type":"ACTUAL"},"primaryCompletionDateStruct":{"date":"2023-12-14","type":"ACTUAL"},"completionDateStruct":{"date":"2025-01","type":"ESTIMATED"},"studyFirstSubmitDate":"2021-02-11","studyFirstSubmitQcDate":"2021-02-11","studyFirstPostDateStruct":{"date":"2021-02-16","type":"ACTUAL"},"lastUpdateSubmitDate":"2024-01-12","lastUpdatePostDateStruct":{"date":"2024-01-16","type":"ACTUAL"}},"sponsorCollaboratorsModule":{"responsibleParty":{"type":"SPONSOR"},"leadSponsor":{"name":"Anthos Therapeutics, Inc.","class":"INDUSTRY"},"collaborators":[{"name":"The TIMI Study Group","class":"OTHER"},{"name":"Laboratory Corporation of America","class":"INDUSTRY"}]},"oversightModule":{"oversightHasDmc":true,"isFdaRegulatedDrug":true,"isFdaRegulatedDevice":false},"descriptionModule":{"briefSummary":"The purpose of the ANT-006 study is to evaluate the bleeding profile of abelacimab relative to rivaroxaban in patients with atrial fibrillation (AF) at moderate-to-high risk of stroke."},"conditionsModule":{"conditions":["Atrial Fibrillation (AF)","Stroke"],"keywords":["randomized","prospective","blinded endpoint evaluation","abelacimab","MAA868","rivaroxaban","atrial fibrillation","Factor XI","stroke","bleeding events","anti-coagulant","anticoagulation therapy"]},"designModule":{"studyType":"INTERVENTIONAL","phases":["PHASE2"],"designInfo":{"allocation":"RANDOMIZED","interventionModel":"PARALLEL","interventionModelDescription":"This is an event-driven, randomized, active-controlled, blinded endpoint, parallel-group study to evaluate the effect of two blinded doses of abelacimab relative to open-label rivaroxaban on the rate of major or clinically relevant non-major (CRNM) bleeding events in patients with atrial fibrillation (AF) who are at moderate-to-high risk of stroke.","primaryPurpose":"SUPPORTIVE_CARE","maskingInfo":{"masking":"TRIPLE","maskingDescription":"All care providers are blinded with the exception of the pharmacist and study team member assigned to administer the subcutaneous injection of abelacimab.","whoMasked":["PARTICIPANT","CARE_PROVIDER","INVESTIGATOR"]}},"enrollmentInfo":{"count":1200,"type":"ESTIMATED"}},"armsInterventionsModule":{"armGroups":[{"label":"Abelacimab (MAA868)","type":"EXPERIMENTAL","description":"Treatment group 1: Abelacimab middle dose subcutaneous (s.c.) monthly\n\nTreatment group 2: Abelacimab high dose subcutaneous (s.c.) monthly\n\nExtension Treatment Group: Abelacimab high dose subcutaneous (s.c.) monthly","interventionNames":["Biological: Abelacimab"]},{"label":"Rivaroxaban","type":"ACTIVE_COMPARATOR","description":"Treatment group 3: Rivaroxaban 20 mg by mouth; orally (p.o.) once per day with the evening meal\n\nPatients with a Creatinine Clearance (CrCl) ≤50 ml/min by the Cockcroft-Gault equation will have a dose adaptation to rivaroxaban 15 mg p.o. daily.","interventionNames":["Drug: Rivaroxaban"]}],"interventions":[{"type":"BIOLOGICAL","name":"Abelacimab","description":"Abelacimab provided as liquid in vial (150 mg/mL)","armGroupLabels":["Abelacimab (MAA868)"],"otherNames":["MAA868"]},{"type":"DRUG","name":"Rivaroxaban","description":"Rivaroxaban 15 mg and 20 mg provided as commercially available film-coated tablets","armGroupLabels":["Rivaroxaban"]}]},"outcomesModule":{"primaryOutcomes":[{"measure":"Evaluate effect of abelacimab relative to rivaroxaban on the rate of major or clinically relevant non-major (CRNM) bleeding events","description":"Time to first event of composite of International Society on Thrombosis and Haemostasis (ISTH)-defined major bleeding or CRNM bleeding events","timeFrame":"From randomization through study completion, an average of 17 months"}],"secondaryOutcomes":[{"measure":"Evaluate effect of abelacimab relative to rivaroxaban on the rate of major bleeding events","description":"Time to first event ISTH-defined major bleeding events","timeFrame":"From randomization through study completion, an average of 17 months"},{"measure":"Evaluate the effect of abelacimab relative to rivaroxaban on the rate of major or minor bleeding events","description":"Time to first event ISTH-defined major or minor bleeding events","timeFrame":"From randomization through study completion, an average of 17 months"}]},"eligibilityModule":{"eligibilityCriteria":"Inclusion Criteria:\n\n* Male and female patients ≥ 55 years old\n* Patients with a history of atrial fibrillation (AF) or atrial flutter with planned indefinite anticoagulation\n* Patients with a CHA2DS2-VASc of ≥4 OR a CHA2DS2-VASc of ≥3 with at least 1 of the following:\n\n  1. Planned concomitant use of antiplatelet medication use (i.e., aspirin and/or P2Y12 inhibitor) for the duration of the trial\n  2. Creatinine Clearance (CrCl) ≤50 ml/min by the Cockcroft-Gault equation\n\nExclusion Criteria:\n\n* History of hypersensitivity to any of the study drugs (including rivaroxaban) or its excipients, to drugs of similar chemical classes, or any contraindication listed in the label for rivaroxaban\n* Patients with an intracranial or intraocular bleed within the 3 months prior to screening\n* Clinically significant mitral stenosis (valve area \\<1.5 cm2)\n* Mechanical heart valve or other indication for anticoagulation therapy other than atrial fibrillation (e.g., venous thromboembolism)\n* Known presence of an atrial myxoma or left ventricular thrombus\n* History of left atrial appendage closure or removal\n* Active endocarditis\n\nOther protocol defined Inclusion/Exclusion criteria may apply","healthyVolunteers":false,"sex":"ALL","minimumAge":"55 Years","stdAges":["ADULT","OLDER_ADULT"]},"contactsLocationsModule":{"locations":[{"facility":"Anthos Investigative Site","city":"Huntsville","state":"Alabama","zip":"35801","country":"United States","geoPoint":{"lat":34.7304,"lon":-86.58594}},{"facility":"Anthos Investigative Site","city":"Mobile","state":"Alabama","zip":"36608","country":"United States","geoPoint":{"lat":30.69436,"lon":-88.04305}},{"facility":"Anthos Investigative Site","city":"Stamford","state":"Connecticut","zip":"06905","country":"United States","geoPoint":{"lat":41.05343,"lon":-73.53873}},{"facility":"Anthos Investigative Site","city":"Clearwater","state":"Florida","zip":"33756","country":"United States","geoPoint":{"lat":27.96585,"lon":-82.8001}},{"facility":"Anthos Investigative Site","city":"Daytona Beach","state":"Florida","zip":"32114-2321","country":"United States","geoPoint":{"lat":29.21081,"lon":-81.02283}},{"facility":"Anthos Investigative Site","city":"Largo","state":"Florida","zip":"33777","country":"United States","geoPoint":{"lat":27.90979,"lon":-82.78842}},{"facility":"Anthos Investigative Site","city":"Safety Harbor","state":"Florida","zip":"34695","country":"United States","geoPoint":{"lat":27.99085,"lon":-82.69316}},{"facility":"Anthos Investigative Site","city":"Saint Augustine","state":"Florida","zip":"32086","country":"United States","geoPoint":{"lat":29.89469,"lon":-81.31452}},{"facility":"Anthos Investigative Site","city":"Johns Creek","state":"Georgia","zip":"30024","country":"United States","geoPoint":{"lat":34.02893,"lon":-84.19858}},{"facility":"Anthos Investigative Site","city":"Owensboro","state":"Kentucky","zip":"42303","country":"United States","geoPoint":{"lat":37.77422,"lon":-87.11333}},{"facility":"Anthos Investigative Site","city":"Baltimore","state":"Maryland","zip":"21229-5222","country":"United States","geoPoint":{"lat":39.29038,"lon":-76.61219}},{"facility":"Anthos Investigative Site","city":"Salisbury","state":"Maryland","zip":"21804","country":"United States","geoPoint":{"lat":38.36067,"lon":-75.59937}},{"facility":"Anthos Investigative Site","city":"Framingham","state":"Massachusetts","zip":"01701","country":"United States","geoPoint":{"lat":42.27926,"lon":-71.41617}},{"facility":"Anthos Investigative Site","city":"Haverhill","state":"Massachusetts","zip":"01830","country":"United States","geoPoint":{"lat":42.7762,"lon":-71.07728}},{"facility":"Anthos Investigative Site","city":"Lansing","state":"Michigan","zip":"48912","country":"United States","geoPoint":{"lat":42.73253,"lon":-84.55553}},{"facility":"Anthos Investigative Site","city":"Sewell","state":"New Jersey","zip":"08080","country":"United States","geoPoint":{"lat":39.7665,"lon":-75.14434}},{"facility":"Anthos Investigative Site","city":"Poughkeepsie","state":"New York","zip":"12601","country":"United States","geoPoint":{"lat":41.70037,"lon":-73.92097}},{"facility":"Anthos Investigative Site","city":"Southampton","state":"New York","zip":"11968","country":"United States","geoPoint":{"lat":40.88427,"lon":-72.38953}},{"facility":"Anthos Investigative Site","city":"Lenoir","state":"North Carolina","zip":"28645","country":"United States","geoPoint":{"lat":35.91402,"lon":-81.53898}},{"facility":"Anthos Investigative Site","city":"Fargo","state":"North Dakota","zip":"58104","country":"United States","geoPoint":{"lat":46.87719,"lon":-96.7898}},{"facility":"Anthos Investigative Site","city":"Oklahoma City","state":"Oklahoma","zip":"73135","country":"United States","geoPoint":{"lat":35.46756,"lon":-97.51643}},{"facility":"Anthos Investigative Site","city":"Camp Hill","state":"Pennsylvania","zip":"17011","country":"United States","geoPoint":{"lat":40.23981,"lon":-76.91997}},{"facility":"Anthos Investigative Site","city":"Kingsport","state":"Tennessee","zip":"37660","country":"United States","geoPoint":{"lat":36.54843,"lon":-82.56182}},{"facility":"Anthos Investigative Site","city":"Kingwood","state":"Texas","zip":"77339","country":"United States","geoPoint":{"lat":30.03355,"lon":-95.26104}},{"facility":"Anthos Investigative Site","city":"Odessa","state":"Texas","zip":"79761-5133","country":"United States","geoPoint":{"lat":31.84568,"lon":-102.36764}},{"facility":"Anthos Investigative Site","city":"Tomball","state":"Texas","zip":"77375","country":"United States","geoPoint":{"lat":30.09716,"lon":-95.61605}},{"facility":"Anthos Investigative Site","city":"Falls Church","state":"Virginia","zip":"22042","country":"United States","geoPoint":{"lat":38.88233,"lon":-77.17109}},{"facility":"Anthos Investigative Site","city":"Manassas","state":"Virginia","zip":"20109","country":"United States","geoPoint":{"lat":38.75095,"lon":-77.47527}},{"facility":"Anthos Investigative Site","city":"Cambridge","state":"Ontario","zip":"N1R 7R1","country":"Canada","geoPoint":{"lat":43.3601,"lon":-80.31269}},{"facility":"Anthos Investigative Site","city":"Oshawa","state":"Ontario","zip":"L1J2K1","country":"Canada","geoPoint":{"lat":43.90012,"lon":-78.84957}},{"facility":"Anthos Investigative Site","city":"Sudbury","state":"Ontario","zip":"P3B 4H5","country":"Canada","geoPoint":{"lat":46.49,"lon":-80.99001}},{"facility":"Anthos Investigative Site","city":"Greenfield Park","state":"Quebec","zip":"J4V 2G8","country":"Canada","geoPoint":{"lat":45.48649,"lon":-73.46223}},{"facility":"Anthos Investigative Site","city":"Montréal","state":"Quebec","zip":"H1T 3Y7","country":"Canada","geoPoint":{"lat":45.50884,"lon":-73.58781}},{"facility":"Anthos Investigative Site","city":"Mariánské Lázně","state":"KA","zip":"353 01","country":"Czechia","geoPoint":{"lat":49.96459,"lon":12.70118}},{"facility":"Anthos Investigative Site","city":"Trutnov","state":"KR","zip":"541 01","country":"Czechia","geoPoint":{"lat":50.56101,"lon":15.9127}},{"facility":"Anthos Investigative Site","city":"Liberec","state":"LB","zip":"460 01","country":"Czechia","geoPoint":{"lat":50.76711,"lon":15.05619}},{"facility":"Anthos Investigative Site","city":"Liberec","state":"LI","zip":"460 01","country":"Czechia","geoPoint":{"lat":50.76711,"lon":15.05619}},{"facility":"Anthos Investigative Site","city":"Česká Lípa","state":"LI","zip":"470 01","country":"Czechia","geoPoint":{"lat":50.68551,"lon":14.53764}},{"facility":"Anthos Investigative Site","city":"Pardubice","state":"PA","zip":"530 02","country":"Czechia","geoPoint":{"lat":50.04075,"lon":15.77659}},{"facility":"Anthos Investigative Site","city":"Praha","state":"PR","zip":"10100","country":"Czechia","geoPoint":{"lat":50.08804,"lon":14.42076}},{"facility":"Anthos Investigative Site","city":"Praha","state":"PR","zip":"110 00","country":"Czechia","geoPoint":{"lat":50.08804,"lon":14.42076}},{"facility":"Anthos Investigative Site","city":"Praha","state":"PR","zip":"158 00","country":"Czechia","geoPoint":{"lat":50.08804,"lon":14.42076}},{"facility":"Anthos Investigative Site","city":"Brandýs Nad Labem","state":"Středočeský Kraj","zip":"250 01","country":"Czechia","geoPoint":{"lat":50.18356,"lon":14.67244}},{"facility":"Anthos Investigative Site","city":"Poděbrady","state":"Středočeský Kraj","zip":"29001","country":"Czechia","geoPoint":{"lat":50.14242,"lon":15.11881}},{"facility":"Anthos Investigative Site","city":"Příbram","state":"Středočeský Kraj","zip":"261 01","country":"Czechia","geoPoint":{"lat":49.68988,"lon":14.01043}},{"facility":"Anthos Investigative Site","city":"Slaný","state":"Středočeský Kraj","zip":"274 01","country":"Czechia","geoPoint":{"lat":50.23046,"lon":14.08693}},{"facility":"Anthos Investigative Site","city":"Kroměříž","state":"ZL","zip":"767 01","country":"Czechia","geoPoint":{"lat":49.29785,"lon":17.39312}},{"facility":"Anthos Investigative Site","city":"Holešov","state":"Zlín","zip":"769 01","country":"Czechia","geoPoint":{"lat":49.33331,"lon":17.57832}},{"facility":"Anthos Investigative Site","city":"Orosháza","state":"BE","zip":"5900","country":"Hungary","geoPoint":{"lat":46.56667,"lon":20.66667}},{"facility":"Anthos Investigative Site","city":"Baja","state":"BK","zip":"6500","country":"Hungary","geoPoint":{"lat":46.17496,"lon":18.95639}},{"facility":"Anthos Investigative Site","city":"Budapest","state":"BP","zip":"1036","country":"Hungary","geoPoint":{"lat":47.49801,"lon":19.03991}},{"facility":"Anthos Investigative Site","city":"Budapest","state":"BP","zip":"1122","country":"Hungary","geoPoint":{"lat":47.49801,"lon":19.03991}},{"facility":"Anthos Investigative Site","city":"Budapest","state":"BU","zip":"1033","country":"Hungary","geoPoint":{"lat":47.49801,"lon":19.03991}},{"facility":"Anthos Investigative Site","city":"Budapest","state":"BU","zip":"1134","country":"Hungary","geoPoint":{"lat":47.49801,"lon":19.03991}},{"facility":"Anthos Investigative Site","city":"Székesfehérvár","state":"FE","zip":"8000","country":"Hungary","geoPoint":{"lat":47.18995,"lon":18.41034}},{"facility":"Anthos Investigative Site","city":"Debrecen","state":"HB","zip":"4025","country":"Hungary","geoPoint":{"lat":47.53333,"lon":21.63333}},{"facility":"Anthos Investigative Site","city":"Kaposvár","state":"SO","zip":"7400","country":"Hungary","geoPoint":{"lat":46.36667,"lon":17.8}},{"facility":"Anthos Investigative Site (4002)","city":"Nyíregyháza","state":"SZ","zip":"4400","country":"Hungary","geoPoint":{"lat":47.95539,"lon":21.71671}},{"facility":"Anthos Investigative Site (4003)","city":"Nyíregyháza","state":"SZ","zip":"4400","country":"Hungary","geoPoint":{"lat":47.95539,"lon":21.71671}},{"facility":"Anthos Investigative Site","city":"Balatonfüred","state":"VE","zip":"8230","country":"Hungary","geoPoint":{"lat":46.96188,"lon":17.87187}},{"facility":"Anthos Investigative Site","city":"Balatonfüred","state":"VM","zip":"8230","country":"Hungary","geoPoint":{"lat":46.96188,"lon":17.87187}},{"facility":"Anthos Investigative Site","city":"Seogu","state":"Busan","zip":"49201","country":"Korea, Republic of","geoPoint":{"lat":36.74484,"lon":127.13739}},{"facility":"Anthos Investigative Site","city":"Seongnam-si","state":"Gyeonggi","zip":"13496","country":"Korea, Republic of","geoPoint":{"lat":37.43861,"lon":127.13778}},{"facility":"Anthos Investigative Site","city":"Seongnam-si","state":"Gyeonggi","zip":"13620","country":"Korea, Republic of","geoPoint":{"lat":37.43861,"lon":127.13778}},{"facility":"Anthos Investigative Site","city":"Seoul","zip":"158-710","country":"Korea, Republic of","geoPoint":{"lat":37.566,"lon":126.9784}},{"facility":"Anthos Investigative Site","city":"Seoul","zip":"3080","country":"Korea, Republic of","geoPoint":{"lat":37.566,"lon":126.9784}},{"facility":"Anthos Investigative Site","city":"Seoul","zip":"3722","country":"Korea, Republic of","geoPoint":{"lat":37.566,"lon":126.9784}},{"facility":"Anthos Investigative Site","city":"Wrocław","state":"DS","zip":"51-162","country":"Poland","geoPoint":{"lat":51.1,"lon":17.03333}},{"facility":"Anthos Investigative Site","city":"Żarów","state":"DS","zip":"58-130","country":"Poland","geoPoint":{"lat":50.94116,"lon":16.49466}},{"facility":"Anthos Investigative Site","city":"Gdynia","state":"GDY","zip":"81-423","country":"Poland","geoPoint":{"lat":54.51889,"lon":18.53188}},{"facility":"Anthos Investigative Site","city":"Zamość","state":"LB","zip":"22-400","country":"Poland","geoPoint":{"lat":50.72314,"lon":23.25196}},{"facility":"Anthos Investigative Site","city":"Łódź","state":"LD","zip":"92-213","country":"Poland","geoPoint":{"lat":51.75,"lon":19.46667}},{"facility":"Anthos Investigative Site","city":"Lublin","state":"LU","zip":"20-001","country":"Poland","geoPoint":{"lat":51.25,"lon":22.56667}},{"facility":"Anthos Investigative Site","city":"Chrzanów","state":"MA","zip":"32-500","country":"Poland","geoPoint":{"lat":50.13546,"lon":19.40203}},{"facility":"Anthos Investigative Site","city":"Kraków","state":"MA","zip":"31-202","country":"Poland","geoPoint":{"lat":50.06143,"lon":19.93658}},{"facility":"Anthos Investigative Site","city":"Płock","state":"MZ","zip":"09-402","country":"Poland","geoPoint":{"lat":52.54682,"lon":19.70638}},{"facility":"Anthos Investigative Site","city":"Warsaw","state":"MZ","zip":"02-097","country":"Poland","geoPoint":{"lat":52.22977,"lon":21.01178}},{"facility":"Anthos Investigative Site","city":"Warszawa","state":"MZ","zip":"04-628","country":"Poland","geoPoint":{"lat":52.22977,"lon":21.01178}},{"facility":"Anthos Investigative Site","city":"Przemyśl","state":"PK","zip":"05-825","country":"Poland","geoPoint":{"lat":49.78498,"lon":22.76728}},{"facility":"Anthos Investigative Site","city":"Przemyśl","state":"PK","zip":"37-700","country":"Poland","geoPoint":{"lat":49.78498,"lon":22.76728}},{"facility":"Anthos Investigative Site","city":"Gdynia","state":"PM","zip":"81-157","country":"Poland","geoPoint":{"lat":54.51889,"lon":18.53188}},{"facility":"Anthos Investigative Site","city":"Bielsko-Biala","state":"SL","zip":"43-316","country":"Poland","geoPoint":{"lat":49.82245,"lon":19.04686}},{"facility":"Anthos Investigative Site","city":"Dąbrowa Górnicza","state":"SL","zip":"41-300","country":"Poland","geoPoint":{"lat":50.31818,"lon":19.2374}},{"facility":"Anthos Investigative Site","city":"Ruda Śląska","state":"SL","zip":"41-710","country":"Poland","geoPoint":{"lat":50.2584,"lon":18.85632}},{"facility":"Anthos Investigative Site","city":"Tychy","state":"SL","zip":"43-100","country":"Poland","geoPoint":{"lat":50.13717,"lon":18.96641}},{"facility":"Anthos Investigative Site","city":"Elbląg","state":"WN","zip":"82-300","country":"Poland","geoPoint":{"lat":54.1522,"lon":19.40884}},{"facility":"Anthos Investigative Site","city":"Taipei","state":"HSZ","zip":"30071","country":"Taiwan","geoPoint":{"lat":25.04776,"lon":121.53185}},{"facility":"Anthos Investigative Site","city":"Hualien City","state":"HUA","zip":"970","country":"Taiwan","geoPoint":{"lat":23.97694,"lon":121.60444}},{"facility":"Anthos Investigative Site","city":"Yilan","state":"ILA","zip":"26058","country":"Taiwan","geoPoint":{"lat":24.757,"lon":121.753}},{"facility":"Anthos Investigative Site","city":"Kaohsiung","state":"KHH","zip":"807","country":"Taiwan","geoPoint":{"lat":22.61626,"lon":120.31333}},{"facility":"Anthos Investigative Site","city":"Taipei City","state":"TPE","zip":"116","country":"Taiwan","geoPoint":{"lat":25.04776,"lon":121.53185}},{"facility":"Anthos Investigative Site","city":"Taipei","state":"TPE","zip":"11217","country":"Taiwan","geoPoint":{"lat":25.04776,"lon":121.53185}},{"facility":"Anthos Investigative Site","city":"Tiachung","state":"TXG","zip":"404","country":"Taiwan","geoPoint":{"lat":24.1469,"lon":120.6839}}]}},"derivedSection":{"miscInfoModule":{"versionHolder":"2024-02-14"},"conditionBrowseModule":{"meshes":[{"id":"D000001281","term":"Atrial Fibrillation"}],"ancestors":[{"id":"D000002318","term":"Cardiovascular Diseases"},{"id":"D000001145","term":"Arrhythmias, Cardiac"},{"id":"D000006331","term":"Heart Diseases"},{"id":"D000010335","term":"Pathologic Processes"}],"browseLeaves":[{"id":"M21996","name":"Stroke","relevance":"LOW"},{"id":"M9246","name":"Hemorrhage","relevance":"LOW"},{"id":"M4276","name":"Atrial Fibrillation","asFound":"Atrial Fibrillation","relevance":"HIGH"},{"id":"M4143","name":"Arrhythmias, Cardiac","relevance":"LOW"},{"id":"M9109","name":"Heart Diseases","relevance":"LOW"}],"browseBranches":[{"abbrev":"BC10","name":"Nervous System Diseases"},{"abbrev":"BC14","name":"Heart and Blood Diseases"},{"abbrev":"All","name":"All Conditions"},{"abbrev":"BC23","name":"Symptoms and General Pathology"}]},"interventionBrowseModule":{"meshes":[{"id":"D000069552","term":"Rivaroxaban"}],"ancestors":[{"id":"D000065427","term":"Factor Xa Inhibitors"},{"id":"D000000991","term":"Antithrombins"},{"id":"D000015842","term":"Serine Proteinase Inhibitors"},{"id":"D000011480","term":"Protease Inhibitors"},{"id":"D000004791","term":"Enzyme Inhibitors"},{"id":"D000045504","term":"Molecular Mechanisms of Pharmacological Action"},{"id":"D000000925","term":"Anticoagulants"}],"browseLeaves":[{"id":"M3934","name":"Anticoagulants","relevance":"LOW"},{"id":"M463","name":"Rivaroxaban","asFound":"Weight loss","relevance":"HIGH"},{"id":"M5949","name":"Coagulants","relevance":"LOW"},{"id":"M30203","name":"Factor Xa Inhibitors","relevance":"LOW"},{"id":"M3997","name":"Antithrombins","relevance":"LOW"},{"id":"M3996","name":"Antithrombin III","relevance":"LOW"},{"id":"M14033","name":"Protease Inhibitors","relevance":"LOW"},{"id":"M18081","name":"Serine Proteinase Inhibitors","relevance":"LOW"},{"id":"M19299","name":"HIV Protease Inhibitors","relevance":"LOW"},{"id":"M7641","name":"Enzyme Inhibitors","relevance":"LOW"},{"id":"T18","name":"Serine","relevance":"LOW"}],"browseBranches":[{"abbrev":"AnCoag","name":"Anticoagulants"},{"abbrev":"All","name":"All Drugs and Chemicals"},{"abbrev":"Coag","name":"Coagulants"},{"abbrev":"Infe","name":"Anti-Infective Agents"},{"abbrev":"AA","name":"Amino Acids"}]}},"hasResults":false}