{"protocolSection":{"identificationModule":{"nctId":"NCT03354429","orgStudyIdInfo":{"id":"D5134C00003"},"secondaryIdInfos":[{"id":"2016-004232-37","type":"EUDRACT_NUMBER"}],"organization":{"fullName":"AstraZeneca","class":"INDUSTRY"},"briefTitle":"THALES - Acute STroke or Transient IscHaemic Attack Treated With TicAgreLor and ASA for PrEvention of Stroke and Death","officialTitle":"A Randomised, Double-Blind, Placebo-Controlled, International, Multicentre, Phase III Study to Investigate the Efficacy and Safety of Ticagrelor and ASA Compared With ASA in the Prevention of Stroke and Death in Patients With Acute Ischaemic Stroke or Transient Ischaemic Attack","acronym":"THALES"},"statusModule":{"statusVerifiedDate":"2020-12","overallStatus":"COMPLETED","expandedAccessInfo":{"hasExpandedAccess":false},"startDateStruct":{"date":"2018-01-22","type":"ACTUAL"},"primaryCompletionDateStruct":{"date":"2019-12-13","type":"ACTUAL"},"completionDateStruct":{"date":"2019-12-13","type":"ACTUAL"},"studyFirstSubmitDate":"2017-11-20","studyFirstSubmitQcDate":"2017-11-24","studyFirstPostDateStruct":{"date":"2017-11-28","type":"ACTUAL"},"resultsFirstSubmitDate":"2020-11-18","resultsFirstSubmitQcDate":"2020-12-21","resultsFirstPostDateStruct":{"date":"2020-12-22","type":"ACTUAL"},"lastUpdateSubmitDate":"2020-12-21","lastUpdatePostDateStruct":{"date":"2020-12-22","type":"ACTUAL"}},"sponsorCollaboratorsModule":{"responsibleParty":{"type":"SPONSOR"},"leadSponsor":{"name":"AstraZeneca","class":"INDUSTRY"}},"oversightModule":{"oversightHasDmc":true,"isFdaRegulatedDrug":false,"isFdaRegulatedDevice":false,"isUsExport":false},"descriptionModule":{"briefSummary":"Study to investigate if the study drug ticagrelor and ASA is more effective than Placebo (inactive tablet) and ASA in preventing new stroke events"},"conditionsModule":{"conditions":["Acute Ischaemic Stroke","Transient Ischaemic Attack"],"keywords":["Acute ischaemic stroke; Transient Ischaemic Attack (TIA); Stroke"]},"designModule":{"studyType":"INTERVENTIONAL","phases":["PHASE3"],"designInfo":{"allocation":"RANDOMIZED","interventionModel":"PARALLEL","primaryPurpose":"TREATMENT","maskingInfo":{"masking":"QUADRUPLE","whoMasked":["PARTICIPANT","CARE_PROVIDER","INVESTIGATOR","OUTCOMES_ASSESSOR"]}},"enrollmentInfo":{"count":11016,"type":"ACTUAL"}},"armsInterventionsModule":{"armGroups":[{"label":"TICAGRELOR","type":"EXPERIMENTAL","interventionNames":["Drug: Ticagrelor"]},{"label":"TICAGRELOR PLACEBO","type":"PLACEBO_COMPARATOR","interventionNames":["Drug: Placebo"]}],"interventions":[{"type":"DRUG","name":"Ticagrelor","description":"Ticagrelor arm: Day 1, loading dose of ticagrelor followed by daily maintenance dose until Day 30.","armGroupLabels":["TICAGRELOR"]},{"type":"DRUG","name":"Placebo","description":"Placebo arm: Day 1, loading dose of placebo followed by placebo daily maintenance dose until Day 30.","armGroupLabels":["TICAGRELOR PLACEBO"]}]},"outcomesModule":{"primaryOutcomes":[{"measure":"Composite of Subsequent Stroke or Death","description":"Participants with subsequent stroke or death","timeFrame":"From randomisation (day 1) to visit 3 (day 30-34)"}],"secondaryOutcomes":[{"measure":"Ischaemic Stroke","description":"Number of participants with ischaemic stroke","timeFrame":"From randomisation (day 1) to visit 3 (day 30-34)"},{"measure":"Number of Participants With Modified Rankin Scale (mRS) Score >1 at Visit 3","description":"The modified Rankin Scale (mRS) is a scale for measuring the degree of disability or dependence in the daily activities of people who have suffered a stroke or other causes of neurological disability. The scale runs from 0-6, running from perfect health without symptoms to death.0 - No symptoms,1 - No significant disability. Able to carry out all usual activities, despite some symptoms. 2 - Slight disability. Able to look after own affairs without assistance, but unable to carry out all previous activities. 3 - Moderate disability. Requires some help, but able to walk unassisted. 4 - Moderately severe disability. Unable to attend to own bodily needs without assistance, and unable to walk unassisted. 5 - Severe disability. Requires constant nursing care and attention, bedridden, incontinent. 6 - Dead.","timeFrame":"Visit 3 (day 30-34)"}],"otherOutcomes":[{"measure":"Bleeding Event That Fulfils Serious Adverse Event Criteria and is Categorised as GUSTO Severe","description":"Participants with bleeding event that fulfils serious adverse event criteria and is categorised as GUSTO Severe. GUSTO is a bleeding scale (GUSTO = Global Utilization of Streptokinase and Tissue plasminogen activator for Occluded coronary arteries). GUSTO Severe bleeding is defined as any of the following: (1) fatal bleeding, (2) intracranial bleeding, or (3) bleeding that caused haemodynamic compromise requiring intervention","timeFrame":"From randomisation (day 1) to visit 3 (day 30-34)"},{"measure":"ICH or Fatal Bleeding Event","description":"Participants with ICH or fatal bleeding event","timeFrame":"From randomisation (day 1) to visit 3 (day 30-34)"},{"measure":"Bleeding Event That Fulfils Serious Adverse Event Criteria and is Categorised as GUSTO Moderate/Severe","description":"Participants with bleeding event that fulfils serious adverse event criteria and is categorised as GUSTO Moderate/Severe. GUSTO is a bleeding scale (GUSTO = Global Utilization of Streptokinase and Tissue plasminogen activator for Occluded coronary arteries). GUSTO Severe bleeding is defined as any of the following: (1) fatal bleeding, (2) intracranial bleeding, or (3) bleeding that caused haemodynamic compromise requiring intervention. GUSTO Moderate bleeding is a bleeding requiring transfusion of whole blood or packed red blood cells without haemodynamic compromise","timeFrame":"From randomisation (day 1) to visit 3 (day 30-34)"},{"measure":"Premature Permanent Discontinuation of IP Due to Bleeding","description":"Participants with premature permanent discontinuation of IP due to bleeding","timeFrame":"From randomisation (day 1) to visit 3 (day 30-34)"}]},"eligibilityModule":{"eligibilityCriteria":"Inclusion Criteria:\n\n1. Provision of signed informed consent prior to any study-specific procedure\n2. ≥40 years of age\n3. Acute onset of cerebral ischaemia due to\n\n   1. AIS with NIHSS ≤5. AIS is defined as acute onset of neurological deficit attributed to focal brain ischaemia, and either of the following:\n\n      * Persistent signs or symptoms of the ischaemic event at the time o randomisation, OR\n      * Acute ischaemic brain lesion documented before randomisation by computed tomography (CT) scan or magnetic resonance imaging (MRI) (diffusion-weighted imaging) and that could account for the clinical presentation\n   2. High-risk TIA, defined as neurological deficit of acute onset attributed to focal ischaemia of the brain by history or examination with complete resolution of the deficit, and at least one of the following:\n\n      * ABCD2 score ≥6 and TIA symptoms not limited to isolated numbness, isolated visual changes, or isolated dizziness/vertigo\n      * Symptomatic intracranial arterial occlusive disease that could account for the clinical presentation, documented by transcranial Doppler or vascular imaging and defined as at least 50% narrowing in the diameter of the vessel lumen\n      * Internal carotid arterial occlusive disease that could account for the clinical presentation, documented by Doppler, ultrasound, or vascular imaging and defined as at least 50% narrowing in diameter of the vessel lumen\n4. Randomisation occurring within 24 hours after onset of symptoms; for wake-up strokes (when the time of symptom onset is not known), within 24 hours from the time point at which the patient was reported to be in their normal condition\n5. CT or MRI performed after symptom onset ruling out intracranial haemorrhage or other pathology, such as vascular malformation, tumour, or abscess that according\n\nto the Investigator could explain symptoms or contraindicate study treatment\n\nExclusion Criteria:\n\n1. Need for or an anticipated need for any of the following:\n\n   1. Dual antiplatelet therapy with ASA and P2Y12 inhibitors (including patients with carotid artery stenting and percutaneous coronary intervention)\n   2. Antiplatelets other than ASA (eg, GPIIb/IIIa inhibitors, clopidogrel, ticlopidine, prasugrel, dipyridamole, ozagrel, cilostazol, ticagrelor) and other antithrombotic agents with antiplatelet effects, including traditional/herbal medicine agents\n   3. Anticoagulants (eg, warfarin, oral thrombin and factor Xa inhibitors, bivalirudin, hirudin, argatroban, fondaparinux, or unfractionated heparin and long-term treatment with low-molecular weight heparins). Short-term treatment (≤7 days) with low-dose low-molecular weight heparin may be used in immobilised patients at the discretion of the Investigator\n2. Any history of atrial fibrillation/flutter, ventricular aneurysm, or suspicion of other cardioembolic pathology for TIA or stroke\n3. Patients who should receive or have received any intravenous or intra-arterial thrombolysis or mechanical thrombectomy within 24 hours prior to randomisation\n4. Planned carotid endarterectomy that requires halting investigational product within 3 days of randomisation or is expected to require unblinding of investigational product (planned carotid endarterectomy is in itself not an exclusion criterion)\n5. History of previous intracranial haemorrhage at any time (asymptomatic microbleeds do not qualify), gastrointestinal haemorrhage within the past 6 months, or major surgery within 30 days\n6. Patients considered to be at risk of bradycardic events (eg, known sick sinus syndrome or second- or third-degree atrioventricular block) unless already treated with a permanent pacemaker\n7. Inability of the patient to understand and/or comply with study procedures and/or follow-up, in the opinion of the Investigator\n8. Known hypersensitivity to ticagrelor or ASA\n9. Need for or an anticipated need for oral or intravenous therapy with any of the following:\n\n   1. Strong cytochrome P450 3A (CYP3A4) inhibitors (eg, ketoconazole, clarithromycin \\[but not erythromycin or azithromycin\\], nefazadone, ritonavir, atazanavir) that cannot be stopped for the course of the study\n   2. Long-term (\\>7 days) non-steroidal anti-inflammatory drugs\n10. Known bleeding diathesis or coagulation disorder (eg, thrombotic thrombocytopenic purpura)\n11. Known severe liver disease (eg, ascites or signs of coagulopathy)\n12. Renal failure requiring dialysis\n13. Pregnancy or breastfeeding. Women of child-bearing potential who are not willing to use a medically accepted method of contraception that is considered reliable in the judgment of the Investigator\n14. Involvement in the planning and/or conduct of the study (applies to both AstraZeneca staff and/or staff at the study site)\n15. Previous enrolment or randomisation in the present study\n16. Participation in another clinical study with an investigational product at any time during the 30 days prior to randomisation (regardless of when treatment with the investigational product was discontinued)","healthyVolunteers":false,"sex":"ALL","minimumAge":"40 Years","maximumAge":"130 Years","stdAges":["ADULT","OLDER_ADULT"]},"contactsLocationsModule":{"locations":[{"facility":"Research Site","city":"Adrogué","zip":"1846","country":"Argentina","geoPoint":{"lat":-34.80041,"lon":-58.38384}},{"facility":"Research Site","city":"Buenos Aires","zip":"1180AAX","country":"Argentina","geoPoint":{"lat":-34.61315,"lon":-58.37723}},{"facility":"Research Site","city":"Buenos Aires","zip":"1437","country":"Argentina","geoPoint":{"lat":-34.61315,"lon":-58.37723}},{"facility":"Research Site","city":"Buenos Aires","zip":"AR-CP 1221","country":"Argentina","geoPoint":{"lat":-34.61315,"lon":-58.37723}},{"facility":"Research Site","city":"Buenos Aires","zip":"C1425 FSD","country":"Argentina","geoPoint":{"lat":-34.61315,"lon":-58.37723}},{"facility":"Research Site","city":"Buenos Aires","zip":"C1437BZK","country":"Argentina","geoPoint":{"lat":-34.61315,"lon":-58.37723}},{"facility":"Research Site","city":"Capital Federal","zip":"1428","country":"Argentina","geoPoint":{"lat":-34.61315,"lon":-58.37723}},{"facility":"Research Site","city":"Ciudad Autónoma de Bs. As.","zip":"C1199ABB","country":"Argentina","geoPoint":{"lat":-34.61315,"lon":-58.37723}},{"facility":"Research Site","city":"Cordoba","zip":"5000","country":"Argentina","geoPoint":{"lat":-31.4135,"lon":-64.18105}},{"facility":"Research Site","city":"Mar del Plata","zip":"B7602CBM","country":"Argentina","geoPoint":{"lat":-38.00228,"lon":-57.55754}},{"facility":"Research Site","city":"Mendoza","zip":"M5500IDN","country":"Argentina","geoPoint":{"lat":-32.89084,"lon":-68.82717}},{"facility":"Research Site","city":"Rosario","zip":"S2000DSV","country":"Argentina","geoPoint":{"lat":-32.94682,"lon":-60.63932}},{"facility":"Research Site","city":"Rosario","zip":"S200GAP","country":"Argentina","geoPoint":{"lat":-32.94682,"lon":-60.63932}},{"facility":"Research Site","city":"Salta","zip":"A4400","country":"Argentina","geoPoint":{"lat":-24.7859,"lon":-65.41166}},{"facility":"Research Site","city":"Adelaide","zip":"5000","country":"Australia","geoPoint":{"lat":-34.92866,"lon":138.59863}},{"facility":"Research Site","city":"Heidelberg","zip":"3084","country":"Australia","geoPoint":{"lat":-37.75,"lon":145.06667}},{"facility":"Research Site","city":"Herston","zip":"4029","country":"Australia","geoPoint":{"lat":-27.44453,"lon":153.01852}},{"facility":"Research Site","city":"Parkville","zip":"3050","country":"Australia","geoPoint":{"lat":-37.78333,"lon":144.95}},{"facility":"Research Site","city":"Southport","zip":"4215","country":"Australia","geoPoint":{"lat":-27.96724,"lon":153.39796}},{"facility":"Research Site","city":"St Albans","zip":"3021","country":"Australia","geoPoint":{"lat":-37.73901,"lon":144.80024}},{"facility":"Research Site","city":"Antwerpen","zip":"2020","country":"Belgium","geoPoint":{"lat":51.21989,"lon":4.40346}},{"facility":"Research Site","city":"Assebroek (Brugge)","zip":"8310","country":"Belgium"},{"facility":"Research Site","city":"Bruges","zip":"8000","country":"Belgium","geoPoint":{"lat":51.20892,"lon":3.22424}},{"facility":"Research Site","city":"Brussels","zip":"1200","country":"Belgium","geoPoint":{"lat":50.85045,"lon":4.34878}},{"facility":"Research Site","city":"Dendermonde","zip":"9200","country":"Belgium","geoPoint":{"lat":51.02869,"lon":4.10106}},{"facility":"Research Site","city":"Edegem","zip":"2650","country":"Belgium","geoPoint":{"lat":51.15662,"lon":4.44504}},{"facility":"Research Site","city":"Kortrijk","zip":"8500","country":"Belgium","geoPoint":{"lat":50.82803,"lon":3.26487}},{"facility":"Research Site","city":"Leuven","zip":"3000","country":"Belgium","geoPoint":{"lat":50.87959,"lon":4.70093}},{"facility":"Research Site","city":"Liège","zip":"4000","country":"Belgium","geoPoint":{"lat":50.63373,"lon":5.56749}},{"facility":"Research Site","city":"Oostende","zip":"8400","country":"Belgium","geoPoint":{"lat":51.21551,"lon":2.927}},{"facility":"Research Site","city":"Roeselare","zip":"8800","country":"Belgium","geoPoint":{"lat":50.94653,"lon":3.12269}},{"facility":"Research Site","city":"Sint-Truiden","zip":"3800","country":"Belgium","geoPoint":{"lat":50.81679,"lon":5.18647}},{"facility":"Research Site","city":"Yvoir","zip":"5530","country":"Belgium","geoPoint":{"lat":50.3279,"lon":4.88059}},{"facility":"Research Site","city":"Botucatu","zip":"18618-687","country":"Brazil","geoPoint":{"lat":-22.88583,"lon":-48.445}},{"facility":"Research Site","city":"Curitiba","zip":"81210-310","country":"Brazil","geoPoint":{"lat":-25.42778,"lon":-49.27306}},{"facility":"Research Site","city":"Goiania","zip":"74083-100","country":"Brazil","geoPoint":{"lat":-16.67861,"lon":-49.25389}},{"facility":"Research Site","city":"Joinville","zip":"89202-165","country":"Brazil","geoPoint":{"lat":-26.30444,"lon":-48.84556}},{"facility":"Research Site","city":"Maringa","zip":"87015-000","country":"Brazil","geoPoint":{"lat":-23.42528,"lon":-51.93861}},{"facility":"Research Site","city":"Porto Alegre","zip":"90610-000","country":"Brazil","geoPoint":{"lat":-30.03306,"lon":-51.23}},{"facility":"Research Site","city":"Ribeirao Preto","zip":"14015130","country":"Brazil","geoPoint":{"lat":-21.1775,"lon":-47.81028}},{"facility":"Research Site","city":"Rio de Janeiro","zip":"22270-005","country":"Brazil","geoPoint":{"lat":-22.90278,"lon":-43.2075}},{"facility":"Research Site","city":"Salvador","zip":"41820011","country":"Brazil","geoPoint":{"lat":-12.97111,"lon":-38.51083}},{"facility":"Research Site","city":"Dupnitsa","zip":"2600","country":"Bulgaria","geoPoint":{"lat":42.26667,"lon":23.11667}},{"facility":"Research Site","city":"Kozloduy","zip":"3320","country":"Bulgaria","geoPoint":{"lat":43.77867,"lon":23.72067}},{"facility":"Research Site","city":"Lukovit","zip":"5770","country":"Bulgaria","geoPoint":{"lat":43.2,"lon":24.16667}},{"facility":"Research Site","city":"Pazardzhik","zip":"4400","country":"Bulgaria","geoPoint":{"lat":42.2,"lon":24.33333}},{"facility":"Research Site","city":"Pleven","zip":"5800","country":"Bulgaria","geoPoint":{"lat":43.41667,"lon":24.61667}},{"facility":"Research Site","city":"Sliven","zip":"8800","country":"Bulgaria","geoPoint":{"lat":42.68583,"lon":26.32917}},{"facility":"Research Site","city":"Sofia","zip":"1142","country":"Bulgaria","geoPoint":{"lat":42.69751,"lon":23.32415}},{"facility":"Research Site","city":"Sofia","zip":"1407","country":"Bulgaria","geoPoint":{"lat":42.69751,"lon":23.32415}},{"facility":"Research Site","city":"Sofia","zip":"1606","country":"Bulgaria","geoPoint":{"lat":42.69751,"lon":23.32415}},{"facility":"Research Site","city":"Teteven","zip":"5700","country":"Bulgaria","geoPoint":{"lat":42.91667,"lon":24.26667}},{"facility":"Research Site","city":"Calgary","state":"Alberta","zip":"T2N 2T9","country":"Canada","geoPoint":{"lat":51.05011,"lon":-114.08529}},{"facility":"Research Site","city":"Edmonton","state":"Alberta","zip":"T6G 2B7","country":"Canada","geoPoint":{"lat":53.55014,"lon":-113.46871}},{"facility":"Research Site","city":"Lethbridge","state":"Alberta","zip":"T1J 0N9","country":"Canada","geoPoint":{"lat":49.69999,"lon":-112.81856}},{"facility":"Research Site","city":"Chicoutimi","zip":"G7H 5H6","country":"Canada","geoPoint":{"lat":48.41963,"lon":-71.06369}},{"facility":"Research Site","city":"Baoji","zip":"721008","country":"China"},{"facility":"Research Site","city":"Baotou","zip":"014016","country":"China","geoPoint":{"lat":40.65222,"lon":109.82222}},{"facility":"Research Site","city":"Beijing","zip":"100049","country":"China","geoPoint":{"lat":39.9075,"lon":116.39723}},{"facility":"Research Site","city":"Beijing","zip":"100070","country":"China","geoPoint":{"lat":39.9075,"lon":116.39723}},{"facility":"Research Site","city":"Beijing","zip":"100191","country":"China","geoPoint":{"lat":39.9075,"lon":116.39723}},{"facility":"Research Site","city":"Changsha","zip":"410013","country":"China","geoPoint":{"lat":28.19874,"lon":112.97087}},{"facility":"Research Site","city":"Changsha","zip":"410078","country":"China","geoPoint":{"lat":28.19874,"lon":112.97087}},{"facility":"Research Site","city":"Changsha","zip":"430033","country":"China","geoPoint":{"lat":28.19874,"lon":112.97087}},{"facility":"Research Site","city":"Chifeng","zip":"024000","country":"China","geoPoint":{"lat":42.26833,"lon":118.96361}},{"facility":"Research Site","city":"Daqing","zip":"163000","country":"China","geoPoint":{"lat":46.58333,"lon":125.0}},{"facility":"Research Site","city":"Foshan","zip":"528000","country":"China","geoPoint":{"lat":23.02677,"lon":113.13148}},{"facility":"Research Site","city":"Guangzhou","zip":"510080","country":"China","geoPoint":{"lat":23.11667,"lon":113.25}},{"facility":"Research Site","city":"Guangzhou","zip":"510180","country":"China","geoPoint":{"lat":23.11667,"lon":113.25}},{"facility":"Research Site","city":"Guangzhou","zip":"510630","country":"China","geoPoint":{"lat":23.11667,"lon":113.25}},{"facility":"Research Site","city":"Guiyang","zip":"550004","country":"China","geoPoint":{"lat":26.58333,"lon":106.71667}},{"facility":"Research Site","city":"Haikou","zip":"570311","country":"China","geoPoint":{"lat":20.04583,"lon":110.34167}},{"facility":"Research Site","city":"Hangzhou","zip":"310009","country":"China","geoPoint":{"lat":30.29365,"lon":120.16142}},{"facility":"Research Site","city":"Hohhot","zip":"010017","country":"China","geoPoint":{"lat":40.81056,"lon":111.65222}},{"facility":"Research Site","city":"Hohhot","zip":"10050","country":"China","geoPoint":{"lat":40.81056,"lon":111.65222}},{"facility":"Research Site","city":"Jinan","zip":"250001","country":"China","geoPoint":{"lat":36.66833,"lon":116.99722}},{"facility":"Research Site","city":"Jinzhou","zip":"121004","country":"China","geoPoint":{"lat":41.10778,"lon":121.14167}},{"facility":"Research Site","city":"Liuzhou","zip":"545006","country":"China"},{"facility":"Research Site","city":"Nanchang","zip":"330006","country":"China","geoPoint":{"lat":28.68396,"lon":115.85306}},{"facility":"Research Site","city":"Nanjing","zip":"210029","country":"China","geoPoint":{"lat":32.06167,"lon":118.77778}},{"facility":"Research Site","city":"Nantong","zip":"226001","country":"China","geoPoint":{"lat":32.03028,"lon":120.87472}},{"facility":"Research Site","city":"Ningbo","zip":"315010","country":"China","geoPoint":{"lat":29.87819,"lon":121.54945}},{"facility":"Research Site","city":"Shanghai","zip":"200080","country":"China","geoPoint":{"lat":31.22222,"lon":121.45806}},{"facility":"Research Site","city":"Shanghai","zip":"200090","country":"China","geoPoint":{"lat":31.22222,"lon":121.45806}},{"facility":"Research Site","city":"Shanghai","zip":"CN-200120","country":"China","geoPoint":{"lat":31.22222,"lon":121.45806}},{"facility":"Research Site","city":"Shenyang","zip":"110016","country":"China","geoPoint":{"lat":41.79222,"lon":123.43278}},{"facility":"Research Site","city":"Taiyuan","zip":"030001","country":"China","geoPoint":{"lat":37.86944,"lon":112.56028}},{"facility":"Research Site","city":"Tangshan","zip":"063001","country":"China","geoPoint":{"lat":39.63333,"lon":118.18333}},{"facility":"Research Site","city":"Tianjin","zip":"300060","country":"China","geoPoint":{"lat":39.14222,"lon":117.17667}},{"facility":"Research Site","city":"Tianjin","zip":"300121","country":"China","geoPoint":{"lat":39.14222,"lon":117.17667}},{"facility":"Research Site","city":"Wenzhou","zip":"325000","country":"China","geoPoint":{"lat":27.99942,"lon":120.66682}},{"facility":"Research Site","city":"Wu Han","zip":"430060","country":"China"},{"facility":"Research Site","city":"Wuhan","zip":"430022","country":"China","geoPoint":{"lat":30.58333,"lon":114.26667}},{"facility":"Research Site","city":"Wuhan","zip":"430033","country":"China","geoPoint":{"lat":30.58333,"lon":114.26667}},{"facility":"Research Site","city":"Wuxi","zip":"214002","country":"China","geoPoint":{"lat":31.56887,"lon":120.28857}},{"facility":"Research Site","city":"Xi'an","zip":"710061","country":"China","geoPoint":{"lat":34.25833,"lon":108.92861}},{"facility":"Research Site","city":"Xiamen","zip":"361004","country":"China","geoPoint":{"lat":24.47979,"lon":118.08187}},{"facility":"Research Site","city":"Xining","zip":"810001","country":"China","geoPoint":{"lat":36.62554,"lon":101.75739}},{"facility":"Research Site","city":"Xuzhou","zip":"221006","country":"China","geoPoint":{"lat":34.18045,"lon":117.15707}},{"facility":"Research Site","city":"Brno","zip":"656 91","country":"Czechia","geoPoint":{"lat":49.19522,"lon":16.60796}},{"facility":"Research Site","city":"Chomutov","zip":"430 12","country":"Czechia","geoPoint":{"lat":50.46048,"lon":13.41779}},{"facility":"Research Site","city":"Ostrava","zip":"703 84","country":"Czechia","geoPoint":{"lat":49.83465,"lon":18.28204}},{"facility":"Research Site","city":"Ostrava","zip":"708 52","country":"Czechia","geoPoint":{"lat":49.83465,"lon":18.28204}},{"facility":"Research Site","city":"Pardubice","zip":"520 03","country":"Czechia","geoPoint":{"lat":50.04075,"lon":15.77659}},{"facility":"Research Site","city":"Praha 4","zip":"140 59","country":"Czechia","geoPoint":{"lat":50.08804,"lon":14.42076}},{"facility":"Research Site","city":"Usti nad Labem","zip":"401 13","country":"Czechia","geoPoint":{"lat":50.6607,"lon":14.03227}},{"facility":"Research Site","city":"Bayonne","zip":"64100","country":"France","geoPoint":{"lat":43.48333,"lon":-1.48333}},{"facility":"Research Site","city":"Besancon Cedex","zip":"25030","country":"France","geoPoint":{"lat":47.24878,"lon":6.01815}},{"facility":"Research Site","city":"Bordeaux Cedex","zip":"33076","country":"France","geoPoint":{"lat":44.84044,"lon":-0.5805}},{"facility":"Research Site","city":"Bourg en Bresse","zip":"01012","country":"France","geoPoint":{"lat":46.20574,"lon":5.2258}},{"facility":"Research Site","city":"Brest Cedex 2","zip":"29609","country":"France","geoPoint":{"lat":48.3903,"lon":-4.48628}},{"facility":"Research Site","city":"Caen","zip":"14033","country":"France","geoPoint":{"lat":49.18585,"lon":-0.35912}},{"facility":"Research Site","city":"Corbeil Essonnes Cedex","zip":"91106","country":"France","geoPoint":{"lat":48.60603,"lon":2.48757}},{"facility":"Research Site","city":"Dijon","zip":"21079","country":"France","geoPoint":{"lat":47.31667,"lon":5.01667}},{"facility":"Research Site","city":"Le Chesnay Cedex","zip":"78157","country":"France","geoPoint":{"lat":48.8222,"lon":2.12213}},{"facility":"Research Site","city":"Lille","zip":"59037","country":"France","geoPoint":{"lat":50.63297,"lon":3.05858}},{"facility":"Research Site","city":"Metz","zip":"57085","country":"France","geoPoint":{"lat":49.11911,"lon":6.17269}},{"facility":"Research Site","city":"Montpellier Cedex 5","zip":"34295","country":"France","geoPoint":{"lat":43.61092,"lon":3.87723}},{"facility":"Research Site","city":"Nancy","zip":"54035","country":"France","geoPoint":{"lat":48.68439,"lon":6.18496}},{"facility":"Research Site","city":"NICE Cedex 01","zip":"06001","country":"France","geoPoint":{"lat":43.70313,"lon":7.26608}},{"facility":"Research Site","city":"PARIS Cedex 12","zip":"75571","country":"France","geoPoint":{"lat":48.85341,"lon":2.3488}},{"facility":"Research Site","city":"Paris Cedex 13","zip":"75651","country":"France","geoPoint":{"lat":48.85341,"lon":2.3488}},{"facility":"Research Site","city":"Paris Cedex 18","zip":"75877","country":"France","geoPoint":{"lat":48.85341,"lon":2.3488}},{"facility":"Research Site","city":"Paris","zip":"75019","country":"France","geoPoint":{"lat":48.85341,"lon":2.3488}},{"facility":"Research Site","city":"Paris","zip":"75475","country":"France","geoPoint":{"lat":48.85341,"lon":2.3488}},{"facility":"Research Site","city":"Rennes","zip":"35033","country":"France","geoPoint":{"lat":48.11198,"lon":-1.67429}},{"facility":"Research Site","city":"Rouen Cedex","zip":"76031","country":"France","geoPoint":{"lat":49.44313,"lon":1.09932}},{"facility":"Research Site","city":"Saint Herblain","zip":"44093","country":"France","geoPoint":{"lat":47.21765,"lon":-1.64841}},{"facility":"Research Site","city":"Saint-Priez En Jarez","zip":"42270","country":"France"},{"facility":"Research Site","city":"Strasbourg Cedex","zip":"67098","country":"France","geoPoint":{"lat":48.58392,"lon":7.74553}},{"facility":"Research Site","city":"Suresnes Cedex","zip":"92151","country":"France","geoPoint":{"lat":48.87143,"lon":2.22929}},{"facility":"Research Site","city":"Toulouse Cedex 9","zip":"31059","country":"France","geoPoint":{"lat":43.60426,"lon":1.44367}},{"facility":"Research Site","city":"Altenburg","zip":"04600","country":"Germany","geoPoint":{"lat":50.98763,"lon":12.43684}},{"facility":"Research Site","city":"Bad Neustadt","zip":"97616","country":"Germany"},{"facility":"Research Site","city":"Berlin","zip":"12351","country":"Germany","geoPoint":{"lat":52.52437,"lon":13.41053}},{"facility":"Research Site","city":"Erlangen","zip":"91054","country":"Germany","geoPoint":{"lat":49.59099,"lon":11.00783}},{"facility":"Research Site","city":"Essen","zip":"45147","country":"Germany","geoPoint":{"lat":51.45657,"lon":7.01228}},{"facility":"Research Site","city":"Hamburg","zip":"20099","country":"Germany","geoPoint":{"lat":53.57532,"lon":10.01534}},{"facility":"Research Site","city":"Hamburg","zip":"22043","country":"Germany","geoPoint":{"lat":53.57532,"lon":10.01534}},{"facility":"Research Site","city":"Hamburg","zip":"22291","country":"Germany","geoPoint":{"lat":53.57532,"lon":10.01534}},{"facility":"Research Site","city":"Hamburg","zip":"22763","country":"Germany","geoPoint":{"lat":53.57532,"lon":10.01534}},{"facility":"Research Site","city":"Hannover","zip":"30625","country":"Germany","geoPoint":{"lat":52.37052,"lon":9.73322}},{"facility":"Research Site","city":"Minden","zip":"32429","country":"Germany","geoPoint":{"lat":52.28953,"lon":8.91455}},{"facility":"Research Site","city":"Münster","zip":"48149","country":"Germany","geoPoint":{"lat":51.96236,"lon":7.62571}},{"facility":"Research Site","city":"Hong Kong","country":"Hong Kong","geoPoint":{"lat":22.27832,"lon":114.17469}},{"facility":"Research Site","city":"Kowloon","country":"Hong Kong","geoPoint":{"lat":22.31667,"lon":114.18333}},{"facility":"Research Site","city":"Baja","zip":"6500","country":"Hungary","geoPoint":{"lat":46.17496,"lon":18.95639}},{"facility":"Research Site","city":"Balassagyarmat","zip":"2660","country":"Hungary","geoPoint":{"lat":48.07296,"lon":19.29614}},{"facility":"Research Site","city":"Budapest","zip":"1083","country":"Hungary","geoPoint":{"lat":47.49801,"lon":19.03991}},{"facility":"Research Site","city":"Budapest","zip":"1106","country":"Hungary","geoPoint":{"lat":47.49801,"lon":19.03991}},{"facility":"Research Site","city":"Budapest","zip":"1125","country":"Hungary","geoPoint":{"lat":47.49801,"lon":19.03991}},{"facility":"Research Site","city":"Budapest","zip":"1134","country":"Hungary","geoPoint":{"lat":47.49801,"lon":19.03991}},{"facility":"Research Site","city":"Budapest","zip":"1204","country":"Hungary","geoPoint":{"lat":47.49801,"lon":19.03991}},{"facility":"Research Site","city":"Debrecen","zip":"4043","country":"Hungary","geoPoint":{"lat":47.53333,"lon":21.63333}},{"facility":"Research Site","city":"Győr","zip":"9000","country":"Hungary","geoPoint":{"lat":47.68333,"lon":17.63512}},{"facility":"Research Site","city":"Kistarcsa","zip":"2143","country":"Hungary","geoPoint":{"lat":47.54757,"lon":19.26247}},{"facility":"Research Site","city":"Miskolc","zip":"3526","country":"Hungary","geoPoint":{"lat":48.1,"lon":20.78333}},{"facility":"Research Site","city":"Nyíregyháza","zip":"4400","country":"Hungary","geoPoint":{"lat":47.95539,"lon":21.71671}},{"facility":"Research Site","city":"Pécs","zip":"7623","country":"Hungary","geoPoint":{"lat":46.08333,"lon":18.23333}},{"facility":"Research Site","city":"Sopron-Balf","zip":"9494","country":"Hungary"},{"facility":"Research Site","city":"Székesfehérvár","zip":"8000","country":"Hungary","geoPoint":{"lat":47.18995,"lon":18.41034}},{"facility":"Research Site","city":"Tatabánya","zip":"2800","country":"Hungary","geoPoint":{"lat":47.58494,"lon":18.39325}},{"facility":"Research Site","city":"Bangalore","zip":"560002","country":"India","geoPoint":{"lat":12.97194,"lon":77.59369}},{"facility":"Research Site","city":"Bangalore","zip":"560068","country":"India","geoPoint":{"lat":12.97194,"lon":77.59369}},{"facility":"Research Site","city":"Bengaluru","zip":"560076","country":"India","geoPoint":{"lat":12.97194,"lon":77.59369}},{"facility":"Research Site","city":"Dehradun","zip":"248001","country":"India","geoPoint":{"lat":30.32295,"lon":78.03168}},{"facility":"Research Site","city":"Guntur","zip":"522001","country":"India","geoPoint":{"lat":16.29974,"lon":80.45729}},{"facility":"Research Site","city":"Gurgaon","zip":"122001","country":"India","geoPoint":{"lat":28.4601,"lon":77.02635}},{"facility":"Research Site","city":"Gurgaon","zip":"122002","country":"India","geoPoint":{"lat":28.4601,"lon":77.02635}},{"facility":"Research Site","city":"Hyderabad","zip":"500018","country":"India","geoPoint":{"lat":17.38405,"lon":78.45636}},{"facility":"Research Site","city":"Kanpur","zip":"208002","country":"India","geoPoint":{"lat":26.46523,"lon":80.34975}},{"facility":"Research Site","city":"Kolkata","zip":"700017","country":"India","geoPoint":{"lat":22.56263,"lon":88.36304}},{"facility":"Research Site","city":"Mangalore","zip":"575002","country":"India","geoPoint":{"lat":12.91723,"lon":74.85603}},{"facility":"Research Site","city":"Nagpur","zip":"420012","country":"India","geoPoint":{"lat":21.14631,"lon":79.08491}},{"facility":"Research Site","city":"Nagpur","zip":"440012","country":"India","geoPoint":{"lat":21.14631,"lon":79.08491}},{"facility":"Research Site","city":"Nashik","zip":"422005","country":"India","geoPoint":{"lat":19.99727,"lon":73.79096}},{"facility":"Research Site","city":"New Delhi","zip":"110005","country":"India","geoPoint":{"lat":28.63576,"lon":77.22445}},{"facility":"Research Site","city":"New Delhi","zip":"110026","country":"India","geoPoint":{"lat":28.63576,"lon":77.22445}},{"facility":"Research Site","city":"New Delhi","zip":"110029","country":"India","geoPoint":{"lat":28.63576,"lon":77.22445}},{"facility":"Research Site","city":"Srikakulam","zip":"532001","country":"India","geoPoint":{"lat":16.19645,"lon":80.84671}},{"facility":"Research Site","city":"Varanasi","zip":"221004","country":"India","geoPoint":{"lat":25.31668,"lon":83.01041}},{"facility":"Research Site","city":"Cona","zip":"44124","country":"Italy","geoPoint":{"lat":44.80583,"lon":11.7069}},{"facility":"Research Site","city":"Genova","zip":"16128","country":"Italy","geoPoint":{"lat":44.40478,"lon":8.94438}},{"facility":"Research Site","city":"Genova","zip":"16132","country":"Italy","geoPoint":{"lat":44.40478,"lon":8.94438}},{"facility":"Research Site","city":"Massa","zip":"55100","country":"Italy","geoPoint":{"lat":44.03541,"lon":10.13927}},{"facility":"Research Site","city":"Milano","zip":"20132","country":"Italy","geoPoint":{"lat":45.46427,"lon":9.18951}},{"facility":"Research Site","city":"Modena","zip":"41100","country":"Italy","geoPoint":{"lat":44.64783,"lon":10.92539}},{"facility":"Research Site","city":"Negrar","zip":"37024","country":"Italy","geoPoint":{"lat":45.52918,"lon":10.93899}},{"facility":"Research Site","city":"Pavia","zip":"27100","country":"Italy","geoPoint":{"lat":45.19205,"lon":9.15917}},{"facility":"Research Site","city":"Perugia","zip":"06132","country":"Italy","geoPoint":{"lat":43.1122,"lon":12.38878}},{"facility":"Research Site","city":"Pietra Ligure","zip":"17027","country":"Italy","geoPoint":{"lat":44.1492,"lon":8.28206}},{"facility":"Research Site","city":"Pisa","zip":"56100","country":"Italy","geoPoint":{"lat":43.70853,"lon":10.4036}},{"facility":"Research Site","city":"Roma","zip":"00144","country":"Italy","geoPoint":{"lat":41.89193,"lon":12.51133}},{"facility":"Research Site","city":"Roma","zip":"00152","country":"Italy","geoPoint":{"lat":41.89193,"lon":12.51133}},{"facility":"Research Site","city":"Roma","zip":"00161","country":"Italy","geoPoint":{"lat":41.89193,"lon":12.51133}},{"facility":"Research Site","city":"Siena","zip":"53100","country":"Italy","geoPoint":{"lat":43.31822,"lon":11.33064}},{"facility":"Research Site","city":"Varese","zip":"21100","country":"Italy","geoPoint":{"lat":45.82058,"lon":8.82511}},{"facility":"Research Site","city":"Verona","zip":"37126","country":"Italy","geoPoint":{"lat":45.4299,"lon":10.98444}},{"facility":"Research Site","city":"Vicenza","zip":"36100","country":"Italy","geoPoint":{"lat":45.54672,"lon":11.5475}},{"facility":"Research Site","city":"Vizzolo Predabissi","zip":"20070","country":"Italy","geoPoint":{"lat":45.35587,"lon":9.34815}},{"facility":"Research Site","city":"Anyang-si","zip":"14068","country":"Korea, Republic of","geoPoint":{"lat":37.3925,"lon":126.92694}},{"facility":"Research Site","city":"Busan","zip":"49201","country":"Korea, Republic of","geoPoint":{"lat":35.10278,"lon":129.04028}},{"facility":"Research Site","city":"Busan","zip":"49241","country":"Korea, Republic of","geoPoint":{"lat":35.10278,"lon":129.04028}},{"facility":"Research Site","city":"Cheongju-si","zip":"28644","country":"Korea, Republic of","geoPoint":{"lat":36.63722,"lon":127.48972}},{"facility":"Research Site","city":"Daegu","zip":"42415","country":"Korea, Republic of","geoPoint":{"lat":35.87028,"lon":128.59111}},{"facility":"Research Site","city":"Daegu","zip":"42601","country":"Korea, Republic of","geoPoint":{"lat":35.87028,"lon":128.59111}},{"facility":"Research Site","city":"Daegu","zip":"700-721","country":"Korea, Republic of","geoPoint":{"lat":35.87028,"lon":128.59111}},{"facility":"Research Site","city":"Daejeon-si","zip":"35233","country":"Korea, Republic of","geoPoint":{"lat":36.32139,"lon":127.41972}},{"facility":"Research Site","city":"Goyang-si","zip":"411-706","country":"Korea, Republic of","geoPoint":{"lat":37.65639,"lon":126.835}},{"facility":"Research Site","city":"Gwangju","zip":"61469","country":"Korea, Republic of","geoPoint":{"lat":35.15472,"lon":126.91556}},{"facility":"Research Site","city":"Incheon","zip":"400-711","country":"Korea, Republic of","geoPoint":{"lat":37.45646,"lon":126.70515}},{"facility":"Research Site","city":"Jeju-do","zip":"63241","country":"Korea, Republic of"},{"facility":"Research Site","city":"Seongnam-si","zip":"13620","country":"Korea, Republic of","geoPoint":{"lat":37.43861,"lon":127.13778}},{"facility":"Research Site","city":"Seoul","zip":"01830","country":"Korea, Republic of","geoPoint":{"lat":37.566,"lon":126.9784}},{"facility":"Research Site","city":"Seoul","zip":"02053","country":"Korea, Republic of","geoPoint":{"lat":37.566,"lon":126.9784}},{"facility":"Research Site","city":"Seoul","zip":"02447","country":"Korea, Republic of","geoPoint":{"lat":37.566,"lon":126.9784}},{"facility":"Research Site","city":"Seoul","zip":"04401","country":"Korea, Republic of","geoPoint":{"lat":37.566,"lon":126.9784}},{"facility":"Research Site","city":"Culiacan","zip":"80230","country":"Mexico","geoPoint":{"lat":24.79032,"lon":-107.38782}},{"facility":"Research Site","city":"D.F","zip":"14269","country":"Mexico","geoPoint":{"lat":19.42847,"lon":-99.12766}},{"facility":"Research Site","city":"Durango","zip":"34217","country":"Mexico","geoPoint":{"lat":24.02032,"lon":-104.65756}},{"facility":"Research Site","city":"Guadalajara","zip":"44280","country":"Mexico","geoPoint":{"lat":20.66682,"lon":-103.39182}},{"facility":"Research Site","city":"Mexico City","zip":"07760","country":"Mexico","geoPoint":{"lat":19.42847,"lon":-99.12766}},{"facility":"Research Site","city":"Mexico City","zip":"6726","country":"Mexico","geoPoint":{"lat":19.42847,"lon":-99.12766}},{"facility":"Research Site","city":"Mexico","zip":"01090","country":"Mexico","geoPoint":{"lat":19.42847,"lon":-99.12766}},{"facility":"Research Site","city":"Monterrey","zip":"64460","country":"Mexico","geoPoint":{"lat":25.67507,"lon":-100.31847}},{"facility":"Research Site","city":"México","zip":"03103","country":"Mexico","geoPoint":{"lat":19.42847,"lon":-99.12766}},{"facility":"Research Site","city":"Tijuana","zip":"22321","country":"Mexico","geoPoint":{"lat":32.5027,"lon":-117.00371}},{"facility":"Research Site","city":"Bellavista","zip":"CALLAO 2","country":"Peru","geoPoint":{"lat":-7.05614,"lon":-76.5911}},{"facility":"Research Site","city":"Callao","zip":"CALLAO 02","country":"Peru","geoPoint":{"lat":-12.05659,"lon":-77.11814}},{"facility":"Research Site","city":"Lima","zip":"LIMA 01","country":"Peru","geoPoint":{"lat":-12.04318,"lon":-77.02824}},{"facility":"Research Site","city":"Lima","zip":"LIMA 13","country":"Peru","geoPoint":{"lat":-12.04318,"lon":-77.02824}},{"facility":"Research Site","city":"Lima","zip":"LIMA 1","country":"Peru","geoPoint":{"lat":-12.04318,"lon":-77.02824}},{"facility":"Research Site","city":"Lima","zip":"LIMA 31","country":"Peru","geoPoint":{"lat":-12.04318,"lon":-77.02824}},{"facility":"Research Site","city":"Lima","zip":"Lima-1","country":"Peru","geoPoint":{"lat":-12.04318,"lon":-77.02824}},{"facility":"Research Site","city":"Trujillo","zip":"130101","country":"Peru","geoPoint":{"lat":-8.11599,"lon":-79.02998}},{"facility":"Research Site","city":"Urb. El Chipe","zip":"20007","country":"Peru"},{"facility":"Research Site","city":"Białystok","zip":"15-276","country":"Poland","geoPoint":{"lat":53.13333,"lon":23.16433}},{"facility":"Research Site","city":"Chełm","zip":"22-100","country":"Poland","geoPoint":{"lat":51.14312,"lon":23.4716}},{"facility":"Research Site","city":"Działdowo","zip":"13-200","country":"Poland","geoPoint":{"lat":53.23958,"lon":20.17004}},{"facility":"Research Site","city":"Gdańsk","zip":"80-803","country":"Poland","geoPoint":{"lat":54.35205,"lon":18.64637}},{"facility":"Research Site","city":"Gdańsk","zip":"80-952","country":"Poland","geoPoint":{"lat":54.35205,"lon":18.64637}},{"facility":"Research Site","city":"Grodzisk Mazowiecki","zip":"05-825","country":"Poland","geoPoint":{"lat":52.10387,"lon":20.6337}},{"facility":"Research Site","city":"Gryfice","zip":"72-300","country":"Poland","geoPoint":{"lat":53.9165,"lon":15.20027}},{"facility":"Research Site","city":"Katowice","zip":"40-635","country":"Poland","geoPoint":{"lat":50.25841,"lon":19.02754}},{"facility":"Research Site","city":"Końskie","zip":"26-200","country":"Poland","geoPoint":{"lat":51.19166,"lon":20.40607}},{"facility":"Research Site","city":"Kraków","zip":"31-826","country":"Poland","geoPoint":{"lat":50.06143,"lon":19.93658}},{"facility":"Research Site","city":"Lublin","zip":"20-954","country":"Poland","geoPoint":{"lat":51.25,"lon":22.56667}},{"facility":"Research Site","city":"Olsztyn","zip":"10-082","country":"Poland","geoPoint":{"lat":53.77995,"lon":20.49416}},{"facility":"Research Site","city":"Olsztyn","zip":"10-560","country":"Poland","geoPoint":{"lat":53.77995,"lon":20.49416}},{"facility":"Research Site","city":"Ostrołęka","zip":"07-410","country":"Poland","geoPoint":{"lat":53.08621,"lon":21.57566}},{"facility":"Research Site","city":"Rybnik","zip":"44-200","country":"Poland","geoPoint":{"lat":50.09713,"lon":18.54179}},{"facility":"Research Site","city":"Sandomierz","zip":"27-600","country":"Poland","geoPoint":{"lat":50.68265,"lon":21.74898}},{"facility":"Research Site","city":"Skarżysko-Kamienna","zip":"26-110","country":"Poland","geoPoint":{"lat":51.11311,"lon":20.87162}},{"facility":"Research Site","city":"Warszawa","zip":"02-957","country":"Poland","geoPoint":{"lat":52.22977,"lon":21.01178}},{"facility":"Research Site","city":"Warszawa","zip":"03-242","country":"Poland","geoPoint":{"lat":52.22977,"lon":21.01178}},{"facility":"Research Site","city":"Zielona Góra","zip":"65-046","country":"Poland","geoPoint":{"lat":51.93548,"lon":15.50643}},{"facility":"Research Site","city":"Łódź","zip":"90-153","country":"Poland","geoPoint":{"lat":51.75,"lon":19.46667}},{"facility":"Research Site","city":"Łódź","zip":"93-113","country":"Poland","geoPoint":{"lat":51.75,"lon":19.46667}},{"facility":"Research Site","city":"Świebodzin","zip":"66-200","country":"Poland","geoPoint":{"lat":52.24751,"lon":15.53355}},{"facility":"Research Site","city":"Bucharest","zip":"011461","country":"Romania","geoPoint":{"lat":44.43225,"lon":26.10626}},{"facility":"Research Site","city":"Bucharest","zip":"020125","country":"Romania","geoPoint":{"lat":44.43225,"lon":26.10626}},{"facility":"Research Site","city":"Bucharest","zip":"050098","country":"Romania","geoPoint":{"lat":44.43225,"lon":26.10626}},{"facility":"Research Site","city":"Iasi","zip":"700309","country":"Romania","geoPoint":{"lat":47.16667,"lon":27.6}},{"facility":"Research Site","city":"Oradea","zip":"410169","country":"Romania","geoPoint":{"lat":47.0458,"lon":21.91833}},{"facility":"Research Site","city":"Sibiu","zip":"550166","country":"Romania","geoPoint":{"lat":45.8,"lon":24.15}},{"facility":"Research Site","city":"Timisoara","zip":"300736","country":"Romania","geoPoint":{"lat":45.75372,"lon":21.22571}},{"facility":"Research Site","city":"Tirgu-Mures","zip":"540136","country":"Romania"},{"facility":"Research Site","city":"Chelyabinsk","zip":"454106","country":"Russian Federation","geoPoint":{"lat":55.15402,"lon":61.42915}},{"facility":"Research Site","city":"Ekaterinburg","zip":"620102","country":"Russian Federation","geoPoint":{"lat":56.8519,"lon":60.6122}},{"facility":"Research Site","city":"Izhevsk","zip":"426063","country":"Russian Federation","geoPoint":{"lat":56.84976,"lon":53.20448}},{"facility":"Research Site","city":"Kazan","zip":"420012","country":"Russian Federation","geoPoint":{"lat":55.78874,"lon":49.12214}},{"facility":"Research Site","city":"Kazan","zip":"420101","country":"Russian Federation","geoPoint":{"lat":55.78874,"lon":49.12214}},{"facility":"Research Site","city":"Kemerovo","zip":"650002","country":"Russian Federation","geoPoint":{"lat":55.33333,"lon":86.08333}},{"facility":"Research Site","city":"Moscow","zip":"109004","country":"Russian Federation","geoPoint":{"lat":55.75222,"lon":37.61556}},{"facility":"Research Site","city":"Moscow","zip":"115516","country":"Russian Federation","geoPoint":{"lat":55.75222,"lon":37.61556}},{"facility":"Research Site","city":"Moscow","zip":"117292","country":"Russian Federation","geoPoint":{"lat":55.75222,"lon":37.61556}},{"facility":"Research Site","city":"Moscow","zip":"117997","country":"Russian Federation","geoPoint":{"lat":55.75222,"lon":37.61556}},{"facility":"Research Site","city":"Moscow","zip":"121374","country":"Russian Federation","geoPoint":{"lat":55.75222,"lon":37.61556}},{"facility":"Research Site","city":"Moscow","zip":"123367","country":"Russian Federation","geoPoint":{"lat":55.75222,"lon":37.61556}},{"facility":"Research Site","city":"Nizhnii Novgorod","zip":"603018","country":"Russian Federation","geoPoint":{"lat":56.32867,"lon":44.00205}},{"facility":"Research Site","city":"Nizhniy Novgorod","zip":"603005","country":"Russian Federation","geoPoint":{"lat":56.32867,"lon":44.00205}},{"facility":"Research Site","city":"Novosibirsk","zip":"630003","country":"Russian Federation","geoPoint":{"lat":55.0415,"lon":82.9346}},{"facility":"Research Site","city":"Novosibirsk","zip":"630051","country":"Russian Federation","geoPoint":{"lat":55.0415,"lon":82.9346}},{"facility":"Research Site","city":"Ryazan","zip":"390039","country":"Russian Federation","geoPoint":{"lat":54.6269,"lon":39.6916}},{"facility":"Research Site","city":"Saint Petersburg","zip":"196247","country":"Russian Federation","geoPoint":{"lat":59.93863,"lon":30.31413}},{"facility":"Research Site","city":"Saint Petersburg","zip":"196601","country":"Russian Federation","geoPoint":{"lat":59.93863,"lon":30.31413}},{"facility":"Research Site","city":"Saint-Petersburg","zip":"192242","country":"Russian Federation","geoPoint":{"lat":59.93863,"lon":30.31413}},{"facility":"Research Site","city":"Saint-Petersburg","zip":"194354","country":"Russian Federation","geoPoint":{"lat":59.93863,"lon":30.31413}},{"facility":"Research Site","city":"Samara","zip":"443095","country":"Russian Federation","geoPoint":{"lat":53.20007,"lon":50.15}},{"facility":"Research Site","city":"Samara","zip":"443096","country":"Russian Federation","geoPoint":{"lat":53.20007,"lon":50.15}},{"facility":"Research Site","city":"Saratov","zip":"410030","country":"Russian Federation","geoPoint":{"lat":51.54056,"lon":46.00861}},{"facility":"Research Site","city":"Sochi","zip":"354057","country":"Russian Federation","geoPoint":{"lat":43.59917,"lon":39.72569}},{"facility":"Research Site","city":"Tomsk","zip":"634063","country":"Russian Federation","geoPoint":{"lat":56.49771,"lon":84.97437}},{"facility":"Research Site","city":"Ufa","zip":"450071","country":"Russian Federation","geoPoint":{"lat":54.74306,"lon":55.96779}},{"facility":"Research Site","city":"Voronezh","zip":"394066","country":"Russian Federation","geoPoint":{"lat":51.67204,"lon":39.1843}},{"facility":"Research Site","city":"Yaroslavl","zip":"150030","country":"Russian Federation","geoPoint":{"lat":57.62987,"lon":39.87368}},{"facility":"Research Site","city":"Ar Riyāḑ","zip":"11426","country":"Saudi Arabia"},{"facility":"Research Site","city":"Jeddah","zip":"21423","country":"Saudi Arabia","geoPoint":{"lat":21.54238,"lon":39.19797}},{"facility":"Research Site","city":"Riyadh","zip":"11525","country":"Saudi Arabia","geoPoint":{"lat":24.68773,"lon":46.72185}},{"facility":"Research Site","city":"Riyadh","zip":"12372","country":"Saudi Arabia","geoPoint":{"lat":24.68773,"lon":46.72185}},{"facility":"Research Site","city":"Dolny Kubin","zip":"02614","country":"Slovakia","geoPoint":{"lat":49.20983,"lon":19.30341}},{"facility":"Research Site","city":"Levoca","zip":"054 01","country":"Slovakia","geoPoint":{"lat":49.02173,"lon":20.59212}},{"facility":"Research Site","city":"Liptovsky Mikulas","zip":"031 23","country":"Slovakia","geoPoint":{"lat":49.08061,"lon":19.62218}},{"facility":"Research Site","city":"Martin","zip":"03659","country":"Slovakia","geoPoint":{"lat":49.06651,"lon":18.92399}},{"facility":"Research Site","city":"Nitra","zip":"949 01","country":"Slovakia","geoPoint":{"lat":48.30763,"lon":18.08453}},{"facility":"Research Site","city":"Rimavska Sobota","zip":"97912","country":"Slovakia","geoPoint":{"lat":48.38284,"lon":20.02239}},{"facility":"Research Site","city":"Skalica","zip":"909 82","country":"Slovakia","geoPoint":{"lat":48.8449,"lon":17.22635}},{"facility":"Research Site","city":"Spisska Nova Ves","zip":"052 01","country":"Slovakia","geoPoint":{"lat":48.94464,"lon":20.56153}},{"facility":"Research Site","city":"Trencin","zip":"81171","country":"Slovakia","geoPoint":{"lat":48.89452,"lon":18.04436}},{"facility":"Research Site","city":"Trnava","zip":"91701","country":"Slovakia","geoPoint":{"lat":48.37741,"lon":17.58723}},{"facility":"Research Site","city":"Ziar nad Hronom","zip":"96537","country":"Slovakia","geoPoint":{"lat":48.59184,"lon":18.84958}},{"facility":"Research Site","city":"Albacete","zip":"02006","country":"Spain","geoPoint":{"lat":38.99424,"lon":-1.85643}},{"facility":"Research Site","city":"Alicante","zip":"03010","country":"Spain","geoPoint":{"lat":38.34517,"lon":-0.48149}},{"facility":"Research Site","city":"Badalona(Barcelona)","zip":"08916","country":"Spain"},{"facility":"Research Site","city":"Barcelona","zip":"08003","country":"Spain","geoPoint":{"lat":41.38879,"lon":2.15899}},{"facility":"Research Site","city":"Barcelona","zip":"08025","country":"Spain","geoPoint":{"lat":41.38879,"lon":2.15899}},{"facility":"Research Site","city":"Barcelona","zip":"08035","country":"Spain","geoPoint":{"lat":41.38879,"lon":2.15899}},{"facility":"Research Site","city":"Gerona","zip":"17007","country":"Spain","geoPoint":{"lat":41.98311,"lon":2.82493}},{"facility":"Research Site","city":"Lleida","zip":"25198","country":"Spain","geoPoint":{"lat":41.61674,"lon":0.62218}},{"facility":"Research Site","city":"Madrid","zip":"28006","country":"Spain","geoPoint":{"lat":40.4165,"lon":-3.70256}},{"facility":"Research Site","city":"Madrid","zip":"28034","country":"Spain","geoPoint":{"lat":40.4165,"lon":-3.70256}},{"facility":"Research Site","city":"Sevilla","zip":"41009","country":"Spain","geoPoint":{"lat":37.38283,"lon":-5.97317}},{"facility":"Research Site","city":"Sevilla","zip":"41013","country":"Spain","geoPoint":{"lat":37.38283,"lon":-5.97317}},{"facility":"Research Site","city":"Valencia","zip":"46009","country":"Spain","geoPoint":{"lat":39.46975,"lon":-0.37739}},{"facility":"Research Site","city":"Valladolid","zip":"47005","country":"Spain","geoPoint":{"lat":41.65518,"lon":-4.72372}},{"facility":"Research Site","city":"Zaragoza","zip":"50009","country":"Spain","geoPoint":{"lat":41.65606,"lon":-0.87734}},{"facility":"Research Site","city":"Göteborg","zip":"413 45","country":"Sweden","geoPoint":{"lat":57.70716,"lon":11.96679}},{"facility":"Research Site","city":"Linköping","zip":"581 85","country":"Sweden","geoPoint":{"lat":58.41086,"lon":15.62157}},{"facility":"Research Site","city":"Lund","zip":"221 85","country":"Sweden","geoPoint":{"lat":55.70584,"lon":13.19321}},{"facility":"Research Site","city":"Malmö","zip":"205 02","country":"Sweden","geoPoint":{"lat":55.60587,"lon":13.00073}},{"facility":"Research Site","city":"Ostersund","zip":"831 83","country":"Sweden","geoPoint":{"lat":63.1792,"lon":14.63566}},{"facility":"Research Site","city":"Skövde","zip":"541 85","country":"Sweden","geoPoint":{"lat":58.39118,"lon":13.84506}},{"facility":"Research Site","city":"Solna","zip":"171 76","country":"Sweden","geoPoint":{"lat":59.36004,"lon":18.00086}},{"facility":"Research Site","city":"Stockholm","zip":"118 83","country":"Sweden","geoPoint":{"lat":59.33258,"lon":18.0649}},{"facility":"Research Site","city":"Stockholm","zip":"182 88","country":"Sweden","geoPoint":{"lat":59.33258,"lon":18.0649}},{"facility":"Research Site","city":"Uppsala","zip":"751 85","country":"Sweden","geoPoint":{"lat":59.85882,"lon":17.63889}},{"facility":"Research Site","city":"Changhua","zip":"500","country":"Taiwan","geoPoint":{"lat":24.07327,"lon":120.56276}},{"facility":"Research Site","city":"Kaohsiung City","zip":"83301","country":"Taiwan","geoPoint":{"lat":22.61626,"lon":120.31333}},{"facility":"Research Site","city":"Kaohsiung","zip":"80756","country":"Taiwan","geoPoint":{"lat":22.61626,"lon":120.31333}},{"facility":"Research Site","city":"Keelung","zip":"20448","country":"Taiwan","geoPoint":{"lat":25.12825,"lon":121.7419}},{"facility":"Research Site","city":"New Taipei City","zip":"237","country":"Taiwan","geoPoint":{"lat":25.01111,"lon":121.44583}},{"facility":"Research Site","city":"New Taipei","zip":"23561","country":"Taiwan","geoPoint":{"lat":25.01111,"lon":121.44583}},{"facility":"Research Site","city":"Taichung City","zip":"437","country":"Taiwan","geoPoint":{"lat":24.1469,"lon":120.6839}},{"facility":"Research Site","city":"Taichung","zip":"40447","country":"Taiwan","geoPoint":{"lat":24.1469,"lon":120.6839}},{"facility":"Research Site","city":"Taichung","zip":"40705","country":"Taiwan","geoPoint":{"lat":24.1469,"lon":120.6839}},{"facility":"Research Site","city":"Tainan","zip":"704","country":"Taiwan","geoPoint":{"lat":22.99083,"lon":120.21333}},{"facility":"Research Site","city":"Tainan","zip":"710","country":"Taiwan","geoPoint":{"lat":22.99083,"lon":120.21333}},{"facility":"Research Site","city":"Taipei","zip":"10002","country":"Taiwan","geoPoint":{"lat":25.04776,"lon":121.53185}},{"facility":"Research Site","city":"Taipei","zip":"10449","country":"Taiwan","geoPoint":{"lat":25.04776,"lon":121.53185}},{"facility":"Research Site","city":"Taipei","zip":"11101","country":"Taiwan","geoPoint":{"lat":25.04776,"lon":121.53185}},{"facility":"Research Site","city":"Taipei","zip":"116","country":"Taiwan","geoPoint":{"lat":25.04776,"lon":121.53185}},{"facility":"Research Site","city":"Taoyuan Hsien","zip":"33305","country":"Taiwan"},{"facility":"Research Site","city":"Bangkok","zip":"10220","country":"Thailand","geoPoint":{"lat":13.75398,"lon":100.50144}},{"facility":"Research Site","city":"Bangkok","zip":"10300","country":"Thailand","geoPoint":{"lat":13.75398,"lon":100.50144}},{"facility":"Research Site","city":"Bangkok","zip":"10330","country":"Thailand","geoPoint":{"lat":13.75398,"lon":100.50144}},{"facility":"Research Site","city":"Bangkok","zip":"10400","country":"Thailand","geoPoint":{"lat":13.75398,"lon":100.50144}},{"facility":"Research Site","city":"Bangkok","zip":"10600","country":"Thailand","geoPoint":{"lat":13.75398,"lon":100.50144}},{"facility":"Research Site","city":"Bangkok","zip":"10700","country":"Thailand","geoPoint":{"lat":13.75398,"lon":100.50144}},{"facility":"Research Site","city":"Chonburi","zip":"20000","country":"Thailand"},{"facility":"Research Site","city":"Hat Yai","zip":"90110","country":"Thailand","geoPoint":{"lat":7.00836,"lon":100.47668}},{"facility":"Research Site","city":"Khlong Luang","zip":"12120","country":"Thailand","geoPoint":{"lat":14.06467,"lon":100.64578}},{"facility":"Research Site","city":"Khon Kaen","zip":"40002","country":"Thailand","geoPoint":{"lat":16.44671,"lon":102.833}},{"facility":"Research Site","city":"Lampang","zip":"52000","country":"Thailand","geoPoint":{"lat":18.29232,"lon":99.49277}},{"facility":"Research Site","city":"Muang","zip":"57000","country":"Thailand"},{"facility":"Research Site","city":"Nakhonpathom","zip":"73000","country":"Thailand"},{"facility":"Research Site","city":"Prachinburi","zip":"25000","country":"Thailand"},{"facility":"Research Site","city":"Rajthevi","zip":"10400","country":"Thailand"},{"facility":"Research Site","city":"Ratchaburi","zip":"70000","country":"Thailand","geoPoint":{"lat":13.53671,"lon":99.81712}},{"facility":"Research Site","city":"Ubonratchathani","zip":"34000","country":"Thailand"},{"facility":"Research Site","city":"Chernivtsі","zip":"58001","country":"Ukraine"},{"facility":"Research Site","city":"Ivano-Frankivsk","zip":"76008","country":"Ukraine","geoPoint":{"lat":48.9215,"lon":24.70972}},{"facility":"Research Site","city":"Ivano-Frankivsk","zip":"76018","country":"Ukraine","geoPoint":{"lat":48.9215,"lon":24.70972}},{"facility":"Research Site","city":"Kharkiv Region","zip":"61018","country":"Ukraine"},{"facility":"Research Site","city":"Kharkiv Region","zip":"61176","country":"Ukraine"},{"facility":"Research Site","city":"Kherson","zip":"73000","country":"Ukraine","geoPoint":{"lat":46.65581,"lon":32.6178}},{"facility":"Research Site","city":"Kyiv","zip":"03129","country":"Ukraine","geoPoint":{"lat":50.45466,"lon":30.5238}},{"facility":"Research Site","city":"Lutsk","zip":"43024","country":"Ukraine","geoPoint":{"lat":50.75932,"lon":25.34244}},{"facility":"Research Site","city":"Lviv","zip":"79013","country":"Ukraine","geoPoint":{"lat":49.83826,"lon":24.02324}},{"facility":"Research Site","city":"Poltava","zip":"36038","country":"Ukraine","geoPoint":{"lat":49.59373,"lon":34.54073}},{"facility":"Research Site","city":"Ternopil","zip":"46027","country":"Ukraine","geoPoint":{"lat":49.55589,"lon":25.60556}},{"facility":"Research Site","city":"Vinnytsia","zip":"21005","country":"Ukraine","geoPoint":{"lat":49.23278,"lon":28.48097}},{"facility":"Research Site","city":"Zaporizhzhia","zip":"69068","country":"Ukraine","geoPoint":{"lat":50.60727,"lon":31.78792}},{"facility":"Research Site","city":"Zaporizhzhia","zip":"69600","country":"Ukraine","geoPoint":{"lat":50.60727,"lon":31.78792}},{"facility":"Research Site","city":"Dong Nai","zip":"81000","country":"Vietnam"},{"facility":"Research Site","city":"Ha Noi","zip":"10000","country":"Vietnam","geoPoint":{"lat":20.47366,"lon":106.02292}},{"facility":"Research Site","city":"Hanoi","zip":"10000","country":"Vietnam","geoPoint":{"lat":21.0245,"lon":105.84117}},{"facility":"Research Site","city":"Ho Chi Minh City","zip":"70000","country":"Vietnam","geoPoint":{"lat":10.82302,"lon":106.62965}},{"facility":"Research Site","city":"Ho Chi Minh","zip":"70000","country":"Vietnam","geoPoint":{"lat":10.82302,"lon":106.62965}}]},"referencesModule":{"references":[{"pmid":"34477459","type":"DERIVED","citation":"Johnston SC, Amarenco P, Aunes M, Denison H, Evans SR, Himmelmann A, Jahreskog M, James S, Knutsson M, Ladenvall P, Molina CA, Nylander S, Rother J, Wang Y; THALES Investigators. Ischemic Benefit and Hemorrhage Risk of Ticagrelor-Aspirin Versus Aspirin in Patients With Acute Ischemic Stroke or Transient Ischemic Attack. Stroke. 2021 Nov;52(11):3482-3489. doi: 10.1161/STROKEAHA.121.035555. Epub 2021 Sep 3."},{"pmid":"34244703","type":"DERIVED","citation":"Wang Y, Pan Y, Li H, Amarenco P, Denison H, Evans SR, Himmelmann A, James S, Birve F, Ladenvall P, Molina CA, Johnston SC; THALES Steering Committee and Investigators. Efficacy and Safety of Ticagrelor and Aspirin in Patients With Moderate Ischemic Stroke: An Exploratory Analysis of the THALES Randomized Clinical Trial. JAMA Neurol. 2021 Sep 1;78(9):1091-1098. doi: 10.1001/jamaneurol.2021.2440."},{"pmid":"33940954","type":"DERIVED","citation":"Yaghi S, de Havenon A, Rostanski S, Kvernland A, Mac Grory B, Furie KL, Kim AS, Easton JD, Johnston SC, Henninger N. Carotid Stenosis and Recurrent Ischemic Stroke: A Post-Hoc Analysis of the POINT Trial. Stroke. 2021 Jul;52(7):2414-2417. doi: 10.1161/STROKEAHA.121.034089. Epub 2021 May 4."},{"pmid":"33198608","type":"DERIVED","citation":"Amarenco P, Denison H, Evans SR, Himmelmann A, James S, Knutsson M, Ladenvall P, Molina CA, Wang Y, Johnston SC; THALES Steering Committee and Investigators*. Ticagrelor Added to Aspirin in Acute Nonsevere Ischemic Stroke or Transient Ischemic Attack of Atherosclerotic Origin. Stroke. 2020 Dec;51(12):3504-3513. doi: 10.1161/STROKEAHA.120.032239. Epub 2020 Nov 16."},{"pmid":"33159526","type":"DERIVED","citation":"Amarenco P, Denison H, Evans SR, Himmelmann A, James S, Knutsson M, Ladenvall P, Molina CA, Wang Y, Johnston SC; THALES Steering Committee and Investigators. Ticagrelor Added to Aspirin in Acute Ischemic Stroke or Transient Ischemic Attack in Prevention of Disabling Stroke: A Randomized Clinical Trial. JAMA Neurol. 2020 Nov 7;78(2):1-9. doi: 10.1001/jamaneurol.2020.4396. Online ahead of print. Erratum In: JAMA Neurol. 2021 Feb 1;78(2):253."},{"pmid":"32668111","type":"DERIVED","citation":"Johnston SC, Amarenco P, Denison H, Evans SR, Himmelmann A, James S, Knutsson M, Ladenvall P, Molina CA, Wang Y; THALES Investigators. Ticagrelor and Aspirin or Aspirin Alone in Acute Ischemic Stroke or TIA. N Engl J Med. 2020 Jul 16;383(3):207-217. doi: 10.1056/NEJMoa1916870."},{"pmid":"30747613","type":"DERIVED","citation":"Johnston SC, Amarenco P, Denison H, Evans SR, Himmelmann A, James S, Knutsson M, Ladenvall P, Molina CA, Wang Y; THALES Investigators. The Acute Stroke or Transient Ischemic Attack Treated with Ticagrelor and Aspirin for Prevention of Stroke and Death (THALES) trial: Rationale and design. Int J Stroke. 2019 Oct;14(7):745-751. doi: 10.1177/1747493019830307. Epub 2019 Feb 12."},{"pmid":"29915123","type":"DERIVED","citation":"Wong KSL, Amarenco P, Albers GW, Denison H, Easton JD, Evans SR, Held P, Himmelmann A, Kasner SE, Knutsson M, Ladenvall P, Minematsu K, Molina CA, Wang Y, Johnston SC; SOCRATES Steering Committee and Investigators. Efficacy and Safety of Ticagrelor in Relation to Aspirin Use Within the Week Before Randomization in the SOCRATES Trial. Stroke. 2018 Jul;49(7):1678-1685. doi: 10.1161/STROKEAHA.118.020553. Epub 2018 Jun 18."}],"seeAlsoLinks":[{"label":"redacted SAP","url":"https://filehosting-v2.pharmacm.com/api/Attachment/Download?tenantId=80217111&amp;parentIdentifier=D5134C00003&amp;attachmentIdentifier=3c773278-ed11-4f6a-ba36-6d927f39a776&amp;fileName=d5134c00003_SAP_redacted.pdf&amp;versionIdentifier="},{"label":"redacted CSP","url":"https://filehosting-v2.pharmacm.com/api/Attachment/Download?tenantId=80217111&amp;parentIdentifier=D5134C00003&amp;attachmentIdentifier=52098dc2-641a-49a8-8478-d745f5a10a26&amp;fileName=d5134c00003_CSP_redacted.pdf&amp;versionIdentifier="}]}},"resultsSection":{"participantFlowModule":{"preAssignmentDetails":"11073 patients screened; 11016 patients randomised. 57 patients who were not randomised (patient did not meet inclusion/exclusion criteria n=52, patient decision n=5).","recruitmentDetails":"414 study sites in 28 countries enrolled patients. The first patient was enrolled on 22 January 2018. The last patient visit took place on 13 December 2019.","groups":[{"id":"FG000","title":"TICAGRELOR","description":"Ticagrelor 180 mg day 1, followed by 90 mg twice daily day 2-30"},{"id":"FG001","title":"PLACEBO","description":"Placebo 180 mg day 1, followed by 90 mg twice daily day 2-30"}],"periods":[{"title":"Overall Study","milestones":[{"type":"STARTED","achievements":[{"groupId":"FG000","numSubjects":"5523"},{"groupId":"FG001","numSubjects":"5493"}]},{"type":"COMPLETED","achievements":[{"groupId":"FG000","numSubjects":"5514"},{"groupId":"FG001","numSubjects":"5486"}]},{"type":"NOT COMPLETED","achievements":[{"groupId":"FG000","numSubjects":"9"},{"groupId":"FG001","numSubjects":"7"}]}],"dropWithdraws":[{"type":"Withdrawal by Subject","reasons":[{"groupId":"FG000","numSubjects":"8"},{"groupId":"FG001","numSubjects":"7"}]},{"type":"Lost to Follow-up","reasons":[{"groupId":"FG000","numSubjects":"1"},{"groupId":"FG001","numSubjects":"0"}]}]}]},"baselineCharacteristicsModule":{"populationDescription":"Full analysis set including all randomised patients","groups":[{"id":"BG000","title":"TICAGRELOR","description":"Ticagrelor 180 mg day 1, followed by 90 mg twice daily day 2-30"},{"id":"BG001","title":"PLACEBO","description":"Placebo 180 mg day 1, followed by 90 mg twice daily day 2-30"},{"id":"BG002","title":"Total","description":"Total of all reporting groups"}],"denoms":[{"units":"Participants","counts":[{"groupId":"BG000","value":"5523"},{"groupId":"BG001","value":"5493"},{"groupId":"BG002","value":"11016"}]}],"measures":[{"title":"Age, Continuous","paramType":"MEAN","dispersionType":"STANDARD_DEVIATION","unitOfMeasure":"Years","classes":[{"categories":[{"measurements":[{"groupId":"BG000","value":"65.2","spread":"11.0"},{"groupId":"BG001","value":"65.1","spread":"11.1"},{"groupId":"BG002","value":"65.1","spread":"11.0"}]}]}]},{"title":"Sex: Female, Male","paramType":"COUNT_OF_PARTICIPANTS","unitOfMeasure":"Participants","classes":[{"categories":[{"title":"Female","measurements":[{"groupId":"BG000","value":"2108"},{"groupId":"BG001","value":"2171"},{"groupId":"BG002","value":"4279"}]},{"title":"Male","measurements":[{"groupId":"BG000","value":"3415"},{"groupId":"BG001","value":"3322"},{"groupId":"BG002","value":"6737"}]}]}]},{"title":"Race/Ethnicity, Customized","paramType":"NUMBER","unitOfMeasure":"Participants","classes":[{"title":"White","categories":[{"measurements":[{"groupId":"BG000","value":"2973"},{"groupId":"BG001","value":"2948"},{"groupId":"BG002","value":"5921"}]}]},{"title":"Black or African American","categories":[{"measurements":[{"groupId":"BG000","value":"21"},{"groupId":"BG001","value":"32"},{"groupId":"BG002","value":"53"}]}]},{"title":"Asian","categories":[{"measurements":[{"groupId":"BG000","value":"2353"},{"groupId":"BG001","value":"2339"},{"groupId":"BG002","value":"4692"}]}]},{"title":"Native Hawaiian or other Pacific Islander","categories":[{"measurements":[{"groupId":"BG000","value":"1"},{"groupId":"BG001","value":"3"},{"groupId":"BG002","value":"4"}]}]},{"title":"American Indian or Alaska Native","categories":[{"measurements":[{"groupId":"BG000","value":"173"},{"groupId":"BG001","value":"168"},{"groupId":"BG002","value":"341"}]}]},{"title":"Other","categories":[{"measurements":[{"groupId":"BG000","value":"2"},{"groupId":"BG001","value":"3"},{"groupId":"BG002","value":"5"}]}]}]}]},"outcomeMeasuresModule":{"outcomeMeasures":[{"type":"PRIMARY","title":"Composite of Subsequent Stroke or Death","description":"Participants with subsequent stroke or death","populationDescription":"Full analysis set including all randomised patients","reportingStatus":"POSTED","paramType":"COUNT_OF_PARTICIPANTS","unitOfMeasure":"Participants","timeFrame":"From randomisation (day 1) to visit 3 (day 30-34)","groups":[{"id":"OG000","title":"TICAGRELOR","description":"Ticagrelor 180 mg day 1, followed by 90 mg twice daily day 2-30"},{"id":"OG001","title":"PLACEBO","description":"Placebo 180 mg day 1, followed by 90 mg twice daily day 2-30"}],"denoms":[{"units":"Participants","counts":[{"groupId":"OG000","value":"5523"},{"groupId":"OG001","value":"5493"}]}],"classes":[{"categories":[{"measurements":[{"groupId":"OG000","value":"303"},{"groupId":"OG001","value":"362"}]}]}],"analyses":[{"groupIds":["OG000","OG001"],"nonInferiorityType":"SUPERIORITY","pValue":"0.015","pValueComment":"The hypothesis was tested at the 4.996% two-sided significance level to account for the planned interim analysis with the overall type I error preserved at 5%. A hierarchical test sequence was used to address the issue of multiple testing","statisticalMethod":"Regression, Cox","paramType":"Hazard Ratio (HR)","paramValue":"0.83","ciPctValue":"95","ciNumSides":"TWO_SIDED","ciLowerLimit":"0.71","ciUpperLimit":"0.96","estimateComment":"Placebo is the reference group (denominator)"}]},{"type":"SECONDARY","title":"Ischaemic Stroke","description":"Number of participants with ischaemic stroke","populationDescription":"Full analysis set including all randomised patients","reportingStatus":"POSTED","paramType":"COUNT_OF_PARTICIPANTS","unitOfMeasure":"Participants","timeFrame":"From randomisation (day 1) to visit 3 (day 30-34)","groups":[{"id":"OG000","title":"TICAGRELOR","description":"Ticagrelor 180 mg day 1, followed by 90 mg twice daily day 2-30"},{"id":"OG001","title":"PLACEBO","description":"Placebo 180 mg day 1, followed by 90 mg twice daily day 2-30"}],"denoms":[{"units":"Participants","counts":[{"groupId":"OG000","value":"5523"},{"groupId":"OG001","value":"5493"}]}],"classes":[{"categories":[{"measurements":[{"groupId":"OG000","value":"276"},{"groupId":"OG001","value":"345"}]}]}],"analyses":[{"groupIds":["OG000","OG001"],"nonInferiorityType":"SUPERIORITY","pValue":"0.004","pValueComment":"The hypothesis was tested at the 4.996% two-sided significance level to account for the planned interim analysis with the overall type I error preserved at 5%. A hierarchical test sequence was used to address the issue of multiple testing","statisticalMethod":"Regression, Cox","paramType":"Hazard Ratio (HR)","paramValue":"0.79","ciPctValue":"95","ciNumSides":"TWO_SIDED","ciLowerLimit":"0.68","ciUpperLimit":"0.93","estimateComment":"Placebo is the reference group (denominator)"}]},{"type":"SECONDARY","title":"Number of Participants With Modified Rankin Scale (mRS) Score >1 at Visit 3","description":"The modified Rankin Scale (mRS) is a scale for measuring the degree of disability or dependence in the daily activities of people who have suffered a stroke or other causes of neurological disability. The scale runs from 0-6, running from perfect health without symptoms to death.0 - No symptoms,1 - No significant disability. Able to carry out all usual activities, despite some symptoms. 2 - Slight disability. Able to look after own affairs without assistance, but unable to carry out all previous activities. 3 - Moderate disability. Requires some help, but able to walk unassisted. 4 - Moderately severe disability. Unable to attend to own bodily needs without assistance, and unable to walk unassisted. 5 - Severe disability. Requires constant nursing care and attention, bedridden, incontinent. 6 - Dead.","populationDescription":"Full analysis set including all randomised patients. Patients with missing mRS score or missing covariates, NIHSS (National Institutes of Health Stroke Scale) score and history of stroke (yes/no), were excluded","reportingStatus":"POSTED","paramType":"COUNT_OF_PARTICIPANTS","unitOfMeasure":"Participants","timeFrame":"Visit 3 (day 30-34)","groups":[{"id":"OG000","title":"TICAGRELOR","description":"Ticagrelor 180 mg day 1, followed by 90 mg twice daily day 2-30"},{"id":"OG001","title":"PLACEBO","description":"Placebo 180 mg day 1, followed by 90 mg twice daily day 2-30"}],"denoms":[{"units":"Participants","counts":[{"groupId":"OG000","value":"5386"},{"groupId":"OG001","value":"5333"}]}],"classes":[{"categories":[{"measurements":[{"groupId":"OG000","value":"1282"},{"groupId":"OG001","value":"1284"}]}]}],"analyses":[{"groupIds":["OG000","OG001"],"nonInferiorityType":"SUPERIORITY","pValue":"0.613","pValueComment":"The hypothesis was tested at the 4.996% two-sided significance level to account for the planned interim analysis with the overall type I error preserved at 5%. A hierarchical test sequence was used to address the issue of multiple testing","statisticalMethod":"Regression, Logistic","statisticalComment":"NIHSS (National Institutes of Health Stroke Scale) score and history of stroke (yes/no) included as covariates","paramType":"Odds Ratio (OR)","paramValue":"0.98","ciPctValue":"95","ciNumSides":"TWO_SIDED","ciLowerLimit":"0.89","ciUpperLimit":"1.07","estimateComment":"Placebo is the reference group (denominator)"}]},{"type":"OTHER_PRE_SPECIFIED","title":"Bleeding Event That Fulfils Serious Adverse Event Criteria and is Categorised as GUSTO Severe","description":"Participants with bleeding event that fulfils serious adverse event criteria and is categorised as GUSTO Severe. GUSTO is a bleeding scale (GUSTO = Global Utilization of Streptokinase and Tissue plasminogen activator for Occluded coronary arteries). GUSTO Severe bleeding is defined as any of the following: (1) fatal bleeding, (2) intracranial bleeding, or (3) bleeding that caused haemodynamic compromise requiring intervention","populationDescription":"Full analysis set including all randomised patients","reportingStatus":"POSTED","paramType":"COUNT_OF_PARTICIPANTS","unitOfMeasure":"Participants","timeFrame":"From randomisation (day 1) to visit 3 (day 30-34)","groups":[{"id":"OG000","title":"TICAGRELOR","description":"Ticagrelor 180 mg day 1, followed by 90 mg twice daily day 2-30"},{"id":"OG001","title":"PLACEBO","description":"Placebo 180 mg day 1, followed by 90 mg twice daily day 2-30"}],"denoms":[{"units":"Participants","counts":[{"groupId":"OG000","value":"5523"},{"groupId":"OG001","value":"5493"}]}],"classes":[{"categories":[{"measurements":[{"groupId":"OG000","value":"28"},{"groupId":"OG001","value":"7"}]}]}],"analyses":[{"groupIds":["OG000","OG001"],"nonInferiorityType":"OTHER","pValue":"0.001","statisticalMethod":"Regression, Cox","paramType":"Hazard Ratio (HR)","paramValue":"3.99","ciPctValue":"95","ciNumSides":"TWO_SIDED","ciLowerLimit":"1.74","ciUpperLimit":"9.14","estimateComment":"Placebo is the reference group (denominator)"}]},{"type":"OTHER_PRE_SPECIFIED","title":"ICH or Fatal Bleeding Event","description":"Participants with ICH or fatal bleeding event","populationDescription":"Full analysis set including all randomised patients","reportingStatus":"POSTED","paramType":"COUNT_OF_PARTICIPANTS","unitOfMeasure":"Participants","timeFrame":"From randomisation (day 1) to visit 3 (day 30-34)","groups":[{"id":"OG000","title":"TICAGRELOR","description":"Ticagrelor 180 mg day 1, followed by 90 mg twice daily day 2-30"},{"id":"OG001","title":"PLACEBO","description":"Placebo 180 mg day 1, followed by 90 mg twice daily day 2-30"}],"denoms":[{"units":"Participants","counts":[{"groupId":"OG000","value":"5523"},{"groupId":"OG001","value":"5493"}]}],"classes":[{"categories":[{"measurements":[{"groupId":"OG000","value":"22"},{"groupId":"OG001","value":"6"}]}]}],"analyses":[{"groupIds":["OG000","OG001"],"nonInferiorityType":"OTHER","pValue":"0.005","statisticalMethod":"Regression, Cox","paramType":"Hazard Ratio (HR)","paramValue":"3.66","ciPctValue":"95","ciNumSides":"TWO_SIDED","ciLowerLimit":"1.48","ciUpperLimit":"9.02","estimateComment":"Placebo is the reference group (denominator)"}]},{"type":"OTHER_PRE_SPECIFIED","title":"Bleeding Event That Fulfils Serious Adverse Event Criteria and is Categorised as GUSTO Moderate/Severe","description":"Participants with bleeding event that fulfils serious adverse event criteria and is categorised as GUSTO Moderate/Severe. GUSTO is a bleeding scale (GUSTO = Global Utilization of Streptokinase and Tissue plasminogen activator for Occluded coronary arteries). GUSTO Severe bleeding is defined as any of the following: (1) fatal bleeding, (2) intracranial bleeding, or (3) bleeding that caused haemodynamic compromise requiring intervention. GUSTO Moderate bleeding is a bleeding requiring transfusion of whole blood or packed red blood cells without haemodynamic compromise","populationDescription":"Full analysis set including all randomised patients","reportingStatus":"POSTED","paramType":"COUNT_OF_PARTICIPANTS","unitOfMeasure":"Participants","timeFrame":"From randomisation (day 1) to visit 3 (day 30-34)","groups":[{"id":"OG000","title":"TICAGRELOR","description":"Ticagrelor 180 mg day 1, followed by 90 mg twice daily day 2-30"},{"id":"OG001","title":"PLACEBO","description":"Placebo 180 mg day 1, followed by 90 mg twice daily day 2-30"}],"denoms":[{"units":"Participants","counts":[{"groupId":"OG000","value":"5523"},{"groupId":"OG001","value":"5493"}]}],"classes":[{"categories":[{"measurements":[{"groupId":"OG000","value":"36"},{"groupId":"OG001","value":"11"}]}]}],"analyses":[{"groupIds":["OG000","OG001"],"nonInferiorityType":"OTHER","pValue":"<0.001","statisticalMethod":"Regression, Cox","paramType":"Hazard Ratio (HR)","paramValue":"3.27","ciPctValue":"95","ciNumSides":"TWO_SIDED","ciLowerLimit":"1.67","ciUpperLimit":"6.43","estimateComment":"Placebo is the reference group (denominator)"}]},{"type":"OTHER_PRE_SPECIFIED","title":"Premature Permanent Discontinuation of IP Due to Bleeding","description":"Participants with premature permanent discontinuation of IP due to bleeding","populationDescription":"Full analysis set including all randomised patients","reportingStatus":"POSTED","paramType":"COUNT_OF_PARTICIPANTS","unitOfMeasure":"Participants","timeFrame":"From randomisation (day 1) to visit 3 (day 30-34)","groups":[{"id":"OG000","title":"TICAGRELOR","description":"Ticagrelor 180 mg day 1, followed by 90 mg twice daily day 2-30"},{"id":"OG001","title":"PLACEBO","description":"Placebo 180 mg day 1, followed by 90 mg twice daily day 2-30"}],"denoms":[{"units":"Participants","counts":[{"groupId":"OG000","value":"5523"},{"groupId":"OG001","value":"5493"}]}],"classes":[{"categories":[{"measurements":[{"groupId":"OG000","value":"152"},{"groupId":"OG001","value":"32"}]}]}],"analyses":[{"groupIds":["OG000","OG001"],"nonInferiorityType":"OTHER","pValue":"<0.001","statisticalMethod":"Regression, Cox","paramType":"Hazard Ratio (HR)","paramValue":"4.80","ciPctValue":"95","ciNumSides":"TWO_SIDED","ciLowerLimit":"3.28","ciUpperLimit":"7.02","estimateComment":"Placebo is the reference group (denominator)"}]}]},"adverseEventsModule":{"frequencyThreshold":"5","timeFrame":"From randomisation (day 1) to visit 3 (day 30-34)","description":"Only serious adverse events (SAEs) and premature permanent discontinuations of study drug due to AEs (DAEs) were to be collected","eventGroups":[{"id":"EG000","title":"Ticagrelor","description":"Ticagrelor 180 mg day 1, followed by 90 mg twice daily day 2-30","deathsNumAffected":40,"deathsNumAtRisk":5523,"seriousNumAffected":571,"seriousNumAtRisk":5523,"otherNumAffected":0,"otherNumAtRisk":5523},{"id":"EG001","title":"Placebo","description":"Placebo 180 mg day 1, followed by 90 mg twice daily day 2-30","deathsNumAffected":32,"deathsNumAtRisk":5493,"seriousNumAffected":609,"seriousNumAtRisk":5493,"otherNumAffected":0,"otherNumAtRisk":5493}],"seriousEvents":[{"term":"Anaemia","organSystem":"Blood and lymphatic system disorders","sourceVocabulary":"MedDRA 22.1","assessmentType":"SYSTEMATIC_ASSESSMENT","stats":[{"groupId":"EG000","numEvents":0,"numAffected":0,"numAtRisk":5523},{"groupId":"EG001","numEvents":1,"numAffected":1,"numAtRisk":5493}]},{"term":"Iron deficiency anaemia","organSystem":"Blood and lymphatic system disorders","sourceVocabulary":"MedDRA 22.1","assessmentType":"SYSTEMATIC_ASSESSMENT","stats":[{"groupId":"EG000","numEvents":1,"numAffected":1,"numAtRisk":5523},{"groupId":"EG001","numEvents":1,"numAffected":1,"numAtRisk":5493}]},{"term":"Lymphadenopathy mediastinal","organSystem":"Blood and lymphatic system disorders","sourceVocabulary":"MedDRA 22.1","assessmentType":"SYSTEMATIC_ASSESSMENT","stats":[{"groupId":"EG000","numEvents":1,"numAffected":1,"numAtRisk":5523},{"groupId":"EG001","numEvents":0,"numAffected":0,"numAtRisk":5493}]},{"term":"Normochromic normocytic anaemia","organSystem":"Blood and lymphatic system disorders","sourceVocabulary":"MedDRA 22.1","assessmentType":"SYSTEMATIC_ASSESSMENT","stats":[{"groupId":"EG000","numEvents":0,"numAffected":0,"numAtRisk":5523},{"groupId":"EG001","numEvents":1,"numAffected":1,"numAtRisk":5493}]},{"term":"Normocytic anaemia","organSystem":"Blood and lymphatic system disorders","sourceVocabulary":"MedDRA 22.1","assessmentType":"SYSTEMATIC_ASSESSMENT","stats":[{"groupId":"EG000","numEvents":1,"numAffected":1,"numAtRisk":5523},{"groupId":"EG001","numEvents":0,"numAffected":0,"numAtRisk":5493}]},{"term":"Polycythaemia","organSystem":"Blood and lymphatic system disorders","sourceVocabulary":"MedDRA 22.1","assessmentType":"SYSTEMATIC_ASSESSMENT","stats":[{"groupId":"EG000","numEvents":0,"numAffected":0,"numAtRisk":5523},{"groupId":"EG001","numEvents":1,"numAffected":1,"numAtRisk":5493}]},{"term":"Spontaneous haematoma","organSystem":"Blood and lymphatic system disorders","sourceVocabulary":"MedDRA 22.1","assessmentType":"SYSTEMATIC_ASSESSMENT","stats":[{"groupId":"EG000","numEvents":1,"numAffected":1,"numAtRisk":5523},{"groupId":"EG001","numEvents":0,"numAffected":0,"numAtRisk":5493}]},{"term":"Thrombocytopenia","organSystem":"Blood and lymphatic system disorders","sourceVocabulary":"MedDRA 22.1","assessmentType":"SYSTEMATIC_ASSESSMENT","stats":[{"groupId":"EG000","numEvents":1,"numAffected":1,"numAtRisk":5523},{"groupId":"EG001","numEvents":0,"numAffected":0,"numAtRisk":5493}]},{"term":"Acute coronary syndrome","organSystem":"Cardiac disorders","sourceVocabulary":"MedDRA 22.1","assessmentType":"SYSTEMATIC_ASSESSMENT","stats":[{"groupId":"EG000","numEvents":1,"numAffected":1,"numAtRisk":5523},{"groupId":"EG001","numEvents":0,"numAffected":0,"numAtRisk":5493}]},{"term":"Acute left ventricular failure","organSystem":"Cardiac disorders","sourceVocabulary":"MedDRA 22.1","assessmentType":"SYSTEMATIC_ASSESSMENT","stats":[{"groupId":"EG000","numEvents":1,"numAffected":1,"numAtRisk":5523},{"groupId":"EG001","numEvents":0,"numAffected":0,"numAtRisk":5493}]},{"term":"Acute myocardial infarction","organSystem":"Cardiac disorders","sourceVocabulary":"MedDRA 22.1","assessmentType":"SYSTEMATIC_ASSESSMENT","stats":[{"groupId":"EG000","numEvents":4,"numAffected":4,"numAtRisk":5523},{"groupId":"EG001","numEvents":5,"numAffected":5,"numAtRisk":5493}]},{"term":"Angina unstable","organSystem":"Cardiac disorders","sourceVocabulary":"MedDRA 22.1","assessmentType":"SYSTEMATIC_ASSESSMENT","stats":[{"groupId":"EG000","numEvents":2,"numAffected":2,"numAtRisk":5523},{"groupId":"EG001","numEvents":0,"numAffected":0,"numAtRisk":5493}]},{"term":"Aortic valve disease mixed","organSystem":"Cardiac disorders","sourceVocabulary":"MedDRA 22.1","assessmentType":"SYSTEMATIC_ASSESSMENT","stats":[{"groupId":"EG000","numEvents":1,"numAffected":1,"numAtRisk":5523},{"groupId":"EG001","numEvents":0,"numAffected":0,"numAtRisk":5493}]},{"term":"Arrhythmia","organSystem":"Cardiac disorders","sourceVocabulary":"MedDRA 22.1","assessmentType":"SYSTEMATIC_ASSESSMENT","stats":[{"groupId":"EG000","numEvents":0,"numAffected":0,"numAtRisk":5523},{"groupId":"EG001","numEvents":1,"numAffected":1,"numAtRisk":5493}]},{"term":"Arteriosclerosis coronary artery","organSystem":"Cardiac disorders","sourceVocabulary":"MedDRA 22.1","assessmentType":"SYSTEMATIC_ASSESSMENT","stats":[{"groupId":"EG000","numEvents":0,"numAffected":0,"numAtRisk":5523},{"groupId":"EG001","numEvents":1,"numAffected":1,"numAtRisk":5493}]},{"term":"Atrial fibrillation","organSystem":"Cardiac disorders","sourceVocabulary":"MedDRA 22.1","assessmentType":"SYSTEMATIC_ASSESSMENT","stats":[{"groupId":"EG000","numEvents":18,"numAffected":18,"numAtRisk":5523},{"groupId":"EG001","numEvents":17,"numAffected":15,"numAtRisk":5493}]},{"term":"Atrial tachycardia","organSystem":"Cardiac disorders","sourceVocabulary":"MedDRA 22.1","assessmentType":"SYSTEMATIC_ASSESSMENT","stats":[{"groupId":"EG000","numEvents":1,"numAffected":1,"numAtRisk":5523},{"groupId":"EG001","numEvents":0,"numAffected":0,"numAtRisk":5493}]},{"term":"Atrial thrombosis","organSystem":"Cardiac disorders","sourceVocabulary":"MedDRA 22.1","assessmentType":"SYSTEMATIC_ASSESSMENT","stats":[{"groupId":"EG000","numEvents":4,"numAffected":4,"numAtRisk":5523},{"groupId":"EG001","numEvents":2,"numAffected":2,"numAtRisk":5493}]},{"term":"Atrioventricular block complete","organSystem":"Cardiac disorders","sourceVocabulary":"MedDRA 22.1","assessmentType":"SYSTEMATIC_ASSESSMENT","stats":[{"groupId":"EG000","numEvents":1,"numAffected":1,"numAtRisk":5523},{"groupId":"EG001","numEvents":2,"numAffected":2,"numAtRisk":5493}]},{"term":"Atrioventricular block second degree","organSystem":"Cardiac disorders","sourceVocabulary":"MedDRA 22.1","assessmentType":"SYSTEMATIC_ASSESSMENT","stats":[{"groupId":"EG000","numEvents":3,"numAffected":3,"numAtRisk":5523},{"groupId":"EG001","numEvents":0,"numAffected":0,"numAtRisk":5493}]},{"term":"Bradycardia","organSystem":"Cardiac disorders","sourceVocabulary":"MedDRA 22.1","assessmentType":"SYSTEMATIC_ASSESSMENT","stats":[{"groupId":"EG000","numEvents":1,"numAffected":1,"numAtRisk":5523},{"groupId":"EG001","numEvents":2,"numAffected":2,"numAtRisk":5493}]},{"term":"Cardiac arrest","organSystem":"Cardiac disorders","sourceVocabulary":"MedDRA 22.1","assessmentType":"SYSTEMATIC_ASSESSMENT","stats":[{"groupId":"EG000","numEvents":1,"numAffected":1,"numAtRisk":5523},{"groupId":"EG001","numEvents":0,"numAffected":0,"numAtRisk":5493}]},{"term":"Cardiac asthma","organSystem":"Cardiac disorders","sourceVocabulary":"MedDRA 22.1","assessmentType":"SYSTEMATIC_ASSESSMENT","stats":[{"groupId":"EG000","numEvents":1,"numAffected":1,"numAtRisk":5523},{"groupId":"EG001","numEvents":0,"numAffected":0,"numAtRisk":5493}]},{"term":"Cardiac failure","organSystem":"Cardiac disorders","sourceVocabulary":"MedDRA 22.1","assessmentType":"SYSTEMATIC_ASSESSMENT","stats":[{"groupId":"EG000","numEvents":0,"numAffected":0,"numAtRisk":5523},{"groupId":"EG001","numEvents":2,"numAffected":2,"numAtRisk":5493}]},{"term":"Cardiac failure acute","organSystem":"Cardiac disorders","sourceVocabulary":"MedDRA 22.1","assessmentType":"SYSTEMATIC_ASSESSMENT","stats":[{"groupId":"EG000","numEvents":1,"numAffected":1,"numAtRisk":5523},{"groupId":"EG001","numEvents":0,"numAffected":0,"numAtRisk":5493}]},{"term":"Cardiac failure chronic","organSystem":"Cardiac disorders","sourceVocabulary":"MedDRA 22.1","assessmentType":"SYSTEMATIC_ASSESSMENT","stats":[{"groupId":"EG000","numEvents":1,"numAffected":1,"numAtRisk":5523},{"groupId":"EG001","numEvents":0,"numAffected":0,"numAtRisk":5493}]},{"term":"Cardiac failure congestive","organSystem":"Cardiac disorders","sourceVocabulary":"MedDRA 22.1","assessmentType":"SYSTEMATIC_ASSESSMENT","stats":[{"groupId":"EG000","numEvents":3,"numAffected":3,"numAtRisk":5523},{"groupId":"EG001","numEvents":0,"numAffected":0,"numAtRisk":5493}]},{"term":"Cardiac ventricular thrombosis","organSystem":"Cardiac disorders","sourceVocabulary":"MedDRA 22.1","assessmentType":"SYSTEMATIC_ASSESSMENT","stats":[{"groupId":"EG000","numEvents":0,"numAffected":0,"numAtRisk":5523},{"groupId":"EG001","numEvents":1,"numAffected":1,"numAtRisk":5493}]},{"term":"Cardio-respiratory arrest","organSystem":"Cardiac disorders","sourceVocabulary":"MedDRA 22.1","assessmentType":"SYSTEMATIC_ASSESSMENT","stats":[{"groupId":"EG000","numEvents":0,"numAffected":0,"numAtRisk":5523},{"groupId":"EG001","numEvents":2,"numAffected":2,"numAtRisk":5493}]},{"term":"Cardiomyopathy","organSystem":"Cardiac disorders","sourceVocabulary":"MedDRA 22.1","assessmentType":"SYSTEMATIC_ASSESSMENT","stats":[{"groupId":"EG000","numEvents":1,"numAffected":1,"numAtRisk":5523},{"groupId":"EG001","numEvents":0,"numAffected":0,"numAtRisk":5493}]},{"term":"Congestive cardiomyopathy","organSystem":"Cardiac disorders","sourceVocabulary":"MedDRA 22.1","assessmentType":"SYSTEMATIC_ASSESSMENT","stats":[{"groupId":"EG000","numEvents":1,"numAffected":1,"numAtRisk":5523},{"groupId":"EG001","numEvents":0,"numAffected":0,"numAtRisk":5493}]},{"term":"Coronary artery disease","organSystem":"Cardiac disorders","sourceVocabulary":"MedDRA 22.1","assessmentType":"SYSTEMATIC_ASSESSMENT","stats":[{"groupId":"EG000","numEvents":2,"numAffected":2,"numAtRisk":5523},{"groupId":"EG001","numEvents":2,"numAffected":2,"numAtRisk":5493}]},{"term":"Coronary artery occlusion","organSystem":"Cardiac disorders","sourceVocabulary":"MedDRA 22.1","assessmentType":"SYSTEMATIC_ASSESSMENT","stats":[{"groupId":"EG000","numEvents":0,"numAffected":0,"numAtRisk":5523},{"groupId":"EG001","numEvents":1,"numAffected":1,"numAtRisk":5493}]},{"term":"Intracardiac thrombus","organSystem":"Cardiac disorders","sourceVocabulary":"MedDRA 22.1","assessmentType":"SYSTEMATIC_ASSESSMENT","stats":[{"groupId":"EG000","numEvents":2,"numAffected":2,"numAtRisk":5523},{"groupId":"EG001","numEvents":0,"numAffected":0,"numAtRisk":5493}]},{"term":"Ischaemic cardiomyopathy","organSystem":"Cardiac disorders","sourceVocabulary":"MedDRA 22.1","assessmentType":"SYSTEMATIC_ASSESSMENT","stats":[{"groupId":"EG000","numEvents":0,"numAffected":0,"numAtRisk":5523},{"groupId":"EG001","numEvents":1,"numAffected":1,"numAtRisk":5493}]},{"term":"Mitral valve disease","organSystem":"Cardiac disorders","sourceVocabulary":"MedDRA 22.1","assessmentType":"SYSTEMATIC_ASSESSMENT","stats":[{"groupId":"EG000","numEvents":1,"numAffected":1,"numAtRisk":5523},{"groupId":"EG001","numEvents":0,"numAffected":0,"numAtRisk":5493}]},{"term":"Mitral valve disease mixed","organSystem":"Cardiac disorders","sourceVocabulary":"MedDRA 22.1","assessmentType":"SYSTEMATIC_ASSESSMENT","stats":[{"groupId":"EG000","numEvents":0,"numAffected":0,"numAtRisk":5523},{"groupId":"EG001","numEvents":1,"numAffected":1,"numAtRisk":5493}]},{"term":"Mitral valve incompetence","organSystem":"Cardiac disorders","sourceVocabulary":"MedDRA 22.1","assessmentType":"SYSTEMATIC_ASSESSMENT","stats":[{"groupId":"EG000","numEvents":1,"numAffected":1,"numAtRisk":5523},{"groupId":"EG001","numEvents":0,"numAffected":0,"numAtRisk":5493}]},{"term":"Myocardial infarction","organSystem":"Cardiac disorders","sourceVocabulary":"MedDRA 22.1","assessmentType":"SYSTEMATIC_ASSESSMENT","stats":[{"groupId":"EG000","numEvents":2,"numAffected":2,"numAtRisk":5523},{"groupId":"EG001","numEvents":0,"numAffected":0,"numAtRisk":5493}]},{"term":"Myocardial ischaemia","organSystem":"Cardiac disorders","sourceVocabulary":"MedDRA 22.1","assessmentType":"SYSTEMATIC_ASSESSMENT","stats":[{"groupId":"EG000","numEvents":1,"numAffected":1,"numAtRisk":5523},{"groupId":"EG001","numEvents":1,"numAffected":1,"numAtRisk":5493}]},{"term":"Pericardial effusion","organSystem":"Cardiac disorders","sourceVocabulary":"MedDRA 22.1","assessmentType":"SYSTEMATIC_ASSESSMENT","stats":[{"groupId":"EG000","numEvents":0,"numAffected":0,"numAtRisk":5523},{"groupId":"EG001","numEvents":2,"numAffected":2,"numAtRisk":5493}]},{"term":"Right ventricular failure","organSystem":"Cardiac disorders","sourceVocabulary":"MedDRA 22.1","assessmentType":"SYSTEMATIC_ASSESSMENT","stats":[{"groupId":"EG000","numEvents":0,"numAffected":0,"numAtRisk":5523},{"groupId":"EG001","numEvents":1,"numAffected":1,"numAtRisk":5493}]},{"term":"Sinoatrial block","organSystem":"Cardiac disorders","sourceVocabulary":"MedDRA 22.1","assessmentType":"SYSTEMATIC_ASSESSMENT","stats":[{"groupId":"EG000","numEvents":1,"numAffected":1,"numAtRisk":5523},{"groupId":"EG001","numEvents":0,"numAffected":0,"numAtRisk":5493}]},{"term":"Sinus bradycardia","organSystem":"Cardiac disorders","sourceVocabulary":"MedDRA 22.1","assessmentType":"SYSTEMATIC_ASSESSMENT","stats":[{"groupId":"EG000","numEvents":1,"numAffected":1,"numAtRisk":5523},{"groupId":"EG001","numEvents":1,"numAffected":1,"numAtRisk":5493}]},{"term":"Sinus node dysfunction","organSystem":"Cardiac disorders","sourceVocabulary":"MedDRA 22.1","assessmentType":"SYSTEMATIC_ASSESSMENT","stats":[{"groupId":"EG000","numEvents":1,"numAffected":1,"numAtRisk":5523},{"groupId":"EG001","numEvents":0,"numAffected":0,"numAtRisk":5493}]},{"term":"Supraventricular tachycardia","organSystem":"Cardiac disorders","sourceVocabulary":"MedDRA 22.1","assessmentType":"SYSTEMATIC_ASSESSMENT","stats":[{"groupId":"EG000","numEvents":1,"numAffected":1,"numAtRisk":5523},{"groupId":"EG001","numEvents":1,"numAffected":1,"numAtRisk":5493}]},{"term":"Ventricular extrasystoles","organSystem":"Cardiac disorders","sourceVocabulary":"MedDRA 22.1","assessmentType":"SYSTEMATIC_ASSESSMENT","stats":[{"groupId":"EG000","numEvents":0,"numAffected":0,"numAtRisk":5523},{"groupId":"EG001","numEvents":1,"numAffected":1,"numAtRisk":5493}]},{"term":"Ventricular fibrillation","organSystem":"Cardiac disorders","sourceVocabulary":"MedDRA 22.1","assessmentType":"SYSTEMATIC_ASSESSMENT","stats":[{"groupId":"EG000","numEvents":0,"numAffected":0,"numAtRisk":5523},{"groupId":"EG001","numEvents":1,"numAffected":1,"numAtRisk":5493}]},{"term":"Ventricular tachycardia","organSystem":"Cardiac disorders","sourceVocabulary":"MedDRA 22.1","assessmentType":"SYSTEMATIC_ASSESSMENT","stats":[{"groupId":"EG000","numEvents":1,"numAffected":1,"numAtRisk":5523},{"groupId":"EG001","numEvents":0,"numAffected":0,"numAtRisk":5493}]},{"term":"Atrial septal defect","organSystem":"Congenital, familial and genetic disorders","sourceVocabulary":"MedDRA 22.1","assessmentType":"SYSTEMATIC_ASSESSMENT","stats":[{"groupId":"EG000","numEvents":1,"numAffected":1,"numAtRisk":5523},{"groupId":"EG001","numEvents":4,"numAffected":4,"numAtRisk":5493}]},{"term":"Vascular malformation","organSystem":"Congenital, familial and genetic disorders","sourceVocabulary":"MedDRA 22.1","assessmentType":"SYSTEMATIC_ASSESSMENT","stats":[{"groupId":"EG000","numEvents":1,"numAffected":1,"numAtRisk":5523},{"groupId":"EG001","numEvents":0,"numAffected":0,"numAtRisk":5493}]},{"term":"Vertigo positional","organSystem":"Ear and labyrinth disorders","sourceVocabulary":"MedDRA 22.1","assessmentType":"SYSTEMATIC_ASSESSMENT","stats":[{"groupId":"EG000","numEvents":2,"numAffected":2,"numAtRisk":5523},{"groupId":"EG001","numEvents":2,"numAffected":2,"numAtRisk":5493}]},{"term":"Vestibular ataxia","organSystem":"Ear and labyrinth disorders","sourceVocabulary":"MedDRA 22.1","assessmentType":"SYSTEMATIC_ASSESSMENT","stats":[{"groupId":"EG000","numEvents":1,"numAffected":1,"numAtRisk":5523},{"groupId":"EG001","numEvents":0,"numAffected":0,"numAtRisk":5493}]},{"term":"Hypothyroidism","organSystem":"Endocrine disorders","sourceVocabulary":"MedDRA 22.1","assessmentType":"SYSTEMATIC_ASSESSMENT","stats":[{"groupId":"EG000","numEvents":1,"numAffected":1,"numAtRisk":5523},{"groupId":"EG001","numEvents":0,"numAffected":0,"numAtRisk":5493}]},{"term":"Angle closure glaucoma","organSystem":"Eye disorders","sourceVocabulary":"MedDRA 22.1","assessmentType":"SYSTEMATIC_ASSESSMENT","stats":[{"groupId":"EG000","numEvents":0,"numAffected":0,"numAtRisk":5523},{"groupId":"EG001","numEvents":1,"numAffected":1,"numAtRisk":5493}]},{"term":"Diabetic retinopathy","organSystem":"Eye disorders","sourceVocabulary":"MedDRA 22.1","assessmentType":"SYSTEMATIC_ASSESSMENT","stats":[{"groupId":"EG000","numEvents":1,"numAffected":1,"numAtRisk":5523},{"groupId":"EG001","numEvents":0,"numAffected":0,"numAtRisk":5493}]},{"term":"Idiopathic orbital inflammation","organSystem":"Eye disorders","sourceVocabulary":"MedDRA 22.1","assessmentType":"SYSTEMATIC_ASSESSMENT","stats":[{"groupId":"EG000","numEvents":1,"numAffected":1,"numAtRisk":5523},{"groupId":"EG001","numEvents":0,"numAffected":0,"numAtRisk":5493}]},{"term":"Visual impairment","organSystem":"Eye disorders","sourceVocabulary":"MedDRA 22.1","assessmentType":"SYSTEMATIC_ASSESSMENT","stats":[{"groupId":"EG000","numEvents":0,"numAffected":0,"numAtRisk":5523},{"groupId":"EG001","numEvents":1,"numAffected":1,"numAtRisk":5493}]},{"term":"Abdominal pain","organSystem":"Gastrointestinal disorders","sourceVocabulary":"MedDRA 22.1","assessmentType":"SYSTEMATIC_ASSESSMENT","stats":[{"groupId":"EG000","numEvents":1,"numAffected":1,"numAtRisk":5523},{"groupId":"EG001","numEvents":0,"numAffected":0,"numAtRisk":5493}]},{"term":"Constipation","organSystem":"Gastrointestinal disorders","sourceVocabulary":"MedDRA 22.1","assessmentType":"SYSTEMATIC_ASSESSMENT","stats":[{"groupId":"EG000","numEvents":1,"numAffected":1,"numAtRisk":5523},{"groupId":"EG001","numEvents":0,"numAffected":0,"numAtRisk":5493}]},{"term":"Diarrhoea","organSystem":"Gastrointestinal disorders","sourceVocabulary":"MedDRA 22.1","assessmentType":"SYSTEMATIC_ASSESSMENT","stats":[{"groupId":"EG000","numEvents":1,"numAffected":1,"numAtRisk":5523},{"groupId":"EG001","numEvents":0,"numAffected":0,"numAtRisk":5493}]},{"term":"Diverticular perforation","organSystem":"Gastrointestinal disorders","sourceVocabulary":"MedDRA 22.1","assessmentType":"SYSTEMATIC_ASSESSMENT","stats":[{"groupId":"EG000","numEvents":1,"numAffected":1,"numAtRisk":5523},{"groupId":"EG001","numEvents":0,"numAffected":0,"numAtRisk":5493}]},{"term":"Duodenal ulcer haemorrhage","organSystem":"Gastrointestinal disorders","sourceVocabulary":"MedDRA 22.1","assessmentType":"SYSTEMATIC_ASSESSMENT","stats":[{"groupId":"EG000","numEvents":1,"numAffected":1,"numAtRisk":5523},{"groupId":"EG001","numEvents":0,"numAffected":0,"numAtRisk":5493}]},{"term":"Dyspepsia","organSystem":"Gastrointestinal disorders","sourceVocabulary":"MedDRA 22.1","assessmentType":"SYSTEMATIC_ASSESSMENT","stats":[{"groupId":"EG000","numEvents":1,"numAffected":1,"numAtRisk":5523},{"groupId":"EG001","numEvents":0,"numAffected":0,"numAtRisk":5493}]},{"term":"Dysphagia","organSystem":"Gastrointestinal disorders","sourceVocabulary":"MedDRA 22.1","assessmentType":"SYSTEMATIC_ASSESSMENT","stats":[{"groupId":"EG000","numEvents":1,"numAffected":1,"numAtRisk":5523},{"groupId":"EG001","numEvents":2,"numAffected":2,"numAtRisk":5493}]},{"term":"Gastric disorder","organSystem":"Gastrointestinal disorders","sourceVocabulary":"MedDRA 22.1","assessmentType":"SYSTEMATIC_ASSESSMENT","stats":[{"groupId":"EG000","numEvents":1,"numAffected":1,"numAtRisk":5523},{"groupId":"EG001","numEvents":0,"numAffected":0,"numAtRisk":5493}]},{"term":"Gastritis","organSystem":"Gastrointestinal disorders","sourceVocabulary":"MedDRA 22.1","assessmentType":"SYSTEMATIC_ASSESSMENT","stats":[{"groupId":"EG000","numEvents":1,"numAffected":1,"numAtRisk":5523},{"groupId":"EG001","numEvents":0,"numAffected":0,"numAtRisk":5493}]},{"term":"Gastrointestinal haemorrhage","organSystem":"Gastrointestinal disorders","sourceVocabulary":"MedDRA 22.1","assessmentType":"SYSTEMATIC_ASSESSMENT","stats":[{"groupId":"EG000","numEvents":6,"numAffected":6,"numAtRisk":5523},{"groupId":"EG001","numEvents":6,"numAffected":6,"numAtRisk":5493}]},{"term":"Gingival bleeding","organSystem":"Gastrointestinal disorders","sourceVocabulary":"MedDRA 22.1","assessmentType":"SYSTEMATIC_ASSESSMENT","stats":[{"groupId":"EG000","numEvents":1,"numAffected":1,"numAtRisk":5523},{"groupId":"EG001","numEvents":0,"numAffected":0,"numAtRisk":5493}]},{"term":"Haemorrhoidal haemorrhage","organSystem":"Gastrointestinal disorders","sourceVocabulary":"MedDRA 22.1","assessmentType":"SYSTEMATIC_ASSESSMENT","stats":[{"groupId":"EG000","numEvents":1,"numAffected":1,"numAtRisk":5523},{"groupId":"EG001","numEvents":1,"numAffected":1,"numAtRisk":5493}]},{"term":"Inguinal hernia","organSystem":"Gastrointestinal disorders","sourceVocabulary":"MedDRA 22.1","assessmentType":"SYSTEMATIC_ASSESSMENT","stats":[{"groupId":"EG000","numEvents":0,"numAffected":0,"numAtRisk":5523},{"groupId":"EG001","numEvents":1,"numAffected":1,"numAtRisk":5493}]},{"term":"Lower gastrointestinal haemorrhage","organSystem":"Gastrointestinal disorders","sourceVocabulary":"MedDRA 22.1","assessmentType":"SYSTEMATIC_ASSESSMENT","stats":[{"groupId":"EG000","numEvents":3,"numAffected":3,"numAtRisk":5523},{"groupId":"EG001","numEvents":0,"numAffected":0,"numAtRisk":5493}]},{"term":"Melaena","organSystem":"Gastrointestinal disorders","sourceVocabulary":"MedDRA 22.1","assessmentType":"SYSTEMATIC_ASSESSMENT","stats":[{"groupId":"EG000","numEvents":2,"numAffected":2,"numAtRisk":5523},{"groupId":"EG001","numEvents":0,"numAffected":0,"numAtRisk":5493}]},{"term":"Oesophageal haemorrhage","organSystem":"Gastrointestinal disorders","sourceVocabulary":"MedDRA 22.1","assessmentType":"SYSTEMATIC_ASSESSMENT","stats":[{"groupId":"EG000","numEvents":2,"numAffected":2,"numAtRisk":5523},{"groupId":"EG001","numEvents":0,"numAffected":0,"numAtRisk":5493}]},{"term":"Oesophageal ulcer haemorrhage","organSystem":"Gastrointestinal disorders","sourceVocabulary":"MedDRA 22.1","assessmentType":"SYSTEMATIC_ASSESSMENT","stats":[{"groupId":"EG000","numEvents":1,"numAffected":1,"numAtRisk":5523},{"groupId":"EG001","numEvents":0,"numAffected":0,"numAtRisk":5493}]},{"term":"Pancreatitis chronic","organSystem":"Gastrointestinal disorders","sourceVocabulary":"MedDRA 22.1","assessmentType":"SYSTEMATIC_ASSESSMENT","stats":[{"groupId":"EG000","numEvents":0,"numAffected":0,"numAtRisk":5523},{"groupId":"EG001","numEvents":1,"numAffected":1,"numAtRisk":5493}]},{"term":"Rectal haemorrhage","organSystem":"Gastrointestinal disorders","sourceVocabulary":"MedDRA 22.1","assessmentType":"SYSTEMATIC_ASSESSMENT","stats":[{"groupId":"EG000","numEvents":3,"numAffected":3,"numAtRisk":5523},{"groupId":"EG001","numEvents":2,"numAffected":2,"numAtRisk":5493}]},{"term":"Rectal ulcer haemorrhage","organSystem":"Gastrointestinal disorders","sourceVocabulary":"MedDRA 22.1","assessmentType":"SYSTEMATIC_ASSESSMENT","stats":[{"groupId":"EG000","numEvents":1,"numAffected":1,"numAtRisk":5523},{"groupId":"EG001","numEvents":0,"numAffected":0,"numAtRisk":5493}]},{"term":"Small intestinal haemorrhage","organSystem":"Gastrointestinal disorders","sourceVocabulary":"MedDRA 22.1","assessmentType":"SYSTEMATIC_ASSESSMENT","stats":[{"groupId":"EG000","numEvents":2,"numAffected":2,"numAtRisk":5523},{"groupId":"EG001","numEvents":0,"numAffected":0,"numAtRisk":5493}]},{"term":"Upper gastrointestinal haemorrhage","organSystem":"Gastrointestinal disorders","sourceVocabulary":"MedDRA 22.1","assessmentType":"SYSTEMATIC_ASSESSMENT","stats":[{"groupId":"EG000","numEvents":5,"numAffected":5,"numAtRisk":5523},{"groupId":"EG001","numEvents":1,"numAffected":1,"numAtRisk":5493}]},{"term":"Vomiting","organSystem":"Gastrointestinal disorders","sourceVocabulary":"MedDRA 22.1","assessmentType":"SYSTEMATIC_ASSESSMENT","stats":[{"groupId":"EG000","numEvents":0,"numAffected":0,"numAtRisk":5523},{"groupId":"EG001","numEvents":1,"numAffected":1,"numAtRisk":5493}]},{"term":"Chest discomfort","organSystem":"General disorders","sourceVocabulary":"MedDRA 22.1","assessmentType":"SYSTEMATIC_ASSESSMENT","stats":[{"groupId":"EG000","numEvents":1,"numAffected":1,"numAtRisk":5523},{"groupId":"EG001","numEvents":0,"numAffected":0,"numAtRisk":5493}]},{"term":"Chest pain","organSystem":"General disorders","sourceVocabulary":"MedDRA 22.1","assessmentType":"SYSTEMATIC_ASSESSMENT","stats":[{"groupId":"EG000","numEvents":1,"numAffected":1,"numAtRisk":5523},{"groupId":"EG001","numEvents":0,"numAffected":0,"numAtRisk":5493}]},{"term":"Death","organSystem":"General disorders","sourceVocabulary":"MedDRA 22.1","assessmentType":"SYSTEMATIC_ASSESSMENT","stats":[{"groupId":"EG000","numEvents":4,"numAffected":4,"numAtRisk":5523},{"groupId":"EG001","numEvents":4,"numAffected":4,"numAtRisk":5493}]},{"term":"Device related thrombosis","organSystem":"General disorders","sourceVocabulary":"MedDRA 22.1","assessmentType":"SYSTEMATIC_ASSESSMENT","stats":[{"groupId":"EG000","numEvents":0,"numAffected":0,"numAtRisk":5523},{"groupId":"EG001","numEvents":1,"numAffected":1,"numAtRisk":5493}]},{"term":"General physical health deterioration","organSystem":"General disorders","sourceVocabulary":"MedDRA 22.1","assessmentType":"SYSTEMATIC_ASSESSMENT","stats":[{"groupId":"EG000","numEvents":1,"numAffected":1,"numAtRisk":5523},{"groupId":"EG001","numEvents":0,"numAffected":0,"numAtRisk":5493}]},{"term":"Necrosis","organSystem":"General disorders","sourceVocabulary":"MedDRA 22.1","assessmentType":"SYSTEMATIC_ASSESSMENT","stats":[{"groupId":"EG000","numEvents":1,"numAffected":1,"numAtRisk":5523},{"groupId":"EG001","numEvents":0,"numAffected":0,"numAtRisk":5493}]},{"term":"Non-cardiac chest pain","organSystem":"General disorders","sourceVocabulary":"MedDRA 22.1","assessmentType":"SYSTEMATIC_ASSESSMENT","stats":[{"groupId":"EG000","numEvents":1,"numAffected":1,"numAtRisk":5523},{"groupId":"EG001","numEvents":0,"numAffected":0,"numAtRisk":5493}]},{"term":"Pyrexia","organSystem":"General disorders","sourceVocabulary":"MedDRA 22.1","assessmentType":"SYSTEMATIC_ASSESSMENT","stats":[{"groupId":"EG000","numEvents":2,"numAffected":2,"numAtRisk":5523},{"groupId":"EG001","numEvents":1,"numAffected":1,"numAtRisk":5493}]},{"term":"Sudden cardiac death","organSystem":"General disorders","sourceVocabulary":"MedDRA 22.1","assessmentType":"SYSTEMATIC_ASSESSMENT","stats":[{"groupId":"EG000","numEvents":0,"numAffected":0,"numAtRisk":5523},{"groupId":"EG001","numEvents":1,"numAffected":1,"numAtRisk":5493}]},{"term":"Acute hepatic failure","organSystem":"Hepatobiliary disorders","sourceVocabulary":"MedDRA 22.1","assessmentType":"SYSTEMATIC_ASSESSMENT","stats":[{"groupId":"EG000","numEvents":1,"numAffected":1,"numAtRisk":5523},{"groupId":"EG001","numEvents":0,"numAffected":0,"numAtRisk":5493}]},{"term":"Bile duct stone","organSystem":"Hepatobiliary disorders","sourceVocabulary":"MedDRA 22.1","assessmentType":"SYSTEMATIC_ASSESSMENT","stats":[{"groupId":"EG000","numEvents":0,"numAffected":0,"numAtRisk":5523},{"groupId":"EG001","numEvents":1,"numAffected":1,"numAtRisk":5493}]},{"term":"Cholangitis","organSystem":"Hepatobiliary disorders","sourceVocabulary":"MedDRA 22.1","assessmentType":"SYSTEMATIC_ASSESSMENT","stats":[{"groupId":"EG000","numEvents":1,"numAffected":1,"numAtRisk":5523},{"groupId":"EG001","numEvents":1,"numAffected":1,"numAtRisk":5493}]},{"term":"Cholecystitis","organSystem":"Hepatobiliary disorders","sourceVocabulary":"MedDRA 22.1","assessmentType":"SYSTEMATIC_ASSESSMENT","stats":[{"groupId":"EG000","numEvents":1,"numAffected":1,"numAtRisk":5523},{"groupId":"EG001","numEvents":2,"numAffected":2,"numAtRisk":5493}]},{"term":"Cholecystitis acute","organSystem":"Hepatobiliary disorders","sourceVocabulary":"MedDRA 22.1","assessmentType":"SYSTEMATIC_ASSESSMENT","stats":[{"groupId":"EG000","numEvents":1,"numAffected":1,"numAtRisk":5523},{"groupId":"EG001","numEvents":2,"numAffected":2,"numAtRisk":5493}]},{"term":"Cholelithiasis","organSystem":"Hepatobiliary disorders","sourceVocabulary":"MedDRA 22.1","assessmentType":"SYSTEMATIC_ASSESSMENT","stats":[{"groupId":"EG000","numEvents":0,"numAffected":0,"numAtRisk":5523},{"groupId":"EG001","numEvents":1,"numAffected":1,"numAtRisk":5493}]},{"term":"Hepatic function abnormal","organSystem":"Hepatobiliary disorders","sourceVocabulary":"MedDRA 22.1","assessmentType":"SYSTEMATIC_ASSESSMENT","stats":[{"groupId":"EG000","numEvents":1,"numAffected":1,"numAtRisk":5523},{"groupId":"EG001","numEvents":0,"numAffected":0,"numAtRisk":5493}]},{"term":"Hepatitis acute","organSystem":"Hepatobiliary disorders","sourceVocabulary":"MedDRA 22.1","assessmentType":"SYSTEMATIC_ASSESSMENT","stats":[{"groupId":"EG000","numEvents":1,"numAffected":1,"numAtRisk":5523},{"groupId":"EG001","numEvents":0,"numAffected":0,"numAtRisk":5493}]},{"term":"Hepatocellular injury","organSystem":"Hepatobiliary disorders","sourceVocabulary":"MedDRA 22.1","assessmentType":"SYSTEMATIC_ASSESSMENT","stats":[{"groupId":"EG000","numEvents":0,"numAffected":0,"numAtRisk":5523},{"groupId":"EG001","numEvents":1,"numAffected":1,"numAtRisk":5493}]},{"term":"Anaphylactic reaction","organSystem":"Immune system disorders","sourceVocabulary":"MedDRA 22.1","assessmentType":"SYSTEMATIC_ASSESSMENT","stats":[{"groupId":"EG000","numEvents":1,"numAffected":1,"numAtRisk":5523},{"groupId":"EG001","numEvents":2,"numAffected":2,"numAtRisk":5493}]},{"term":"Anaphylactic shock","organSystem":"Immune system disorders","sourceVocabulary":"MedDRA 22.1","assessmentType":"SYSTEMATIC_ASSESSMENT","stats":[{"groupId":"EG000","numEvents":0,"numAffected":0,"numAtRisk":5523},{"groupId":"EG001","numEvents":1,"numAffected":1,"numAtRisk":5493}]},{"term":"Drug hypersensitivity","organSystem":"Immune system disorders","sourceVocabulary":"MedDRA 22.1","assessmentType":"SYSTEMATIC_ASSESSMENT","stats":[{"groupId":"EG000","numEvents":0,"numAffected":0,"numAtRisk":5523},{"groupId":"EG001","numEvents":1,"numAffected":1,"numAtRisk":5493}]},{"term":"Anal abscess","organSystem":"Infections and infestations","sourceVocabulary":"MedDRA 22.1","assessmentType":"SYSTEMATIC_ASSESSMENT","stats":[{"groupId":"EG000","numEvents":1,"numAffected":1,"numAtRisk":5523},{"groupId":"EG001","numEvents":0,"numAffected":0,"numAtRisk":5493}]},{"term":"Appendicitis","organSystem":"Infections and infestations","sourceVocabulary":"MedDRA 22.1","assessmentType":"SYSTEMATIC_ASSESSMENT","stats":[{"groupId":"EG000","numEvents":1,"numAffected":1,"numAtRisk":5523},{"groupId":"EG001","numEvents":0,"numAffected":0,"numAtRisk":5493}]},{"term":"Brain abscess","organSystem":"Infections and infestations","sourceVocabulary":"MedDRA 22.1","assessmentType":"SYSTEMATIC_ASSESSMENT","stats":[{"groupId":"EG000","numEvents":0,"numAffected":0,"numAtRisk":5523},{"groupId":"EG001","numEvents":1,"numAffected":1,"numAtRisk":5493}]},{"term":"Bronchitis","organSystem":"Infections and infestations","sourceVocabulary":"MedDRA 22.1","assessmentType":"SYSTEMATIC_ASSESSMENT","stats":[{"groupId":"EG000","numEvents":0,"numAffected":0,"numAtRisk":5523},{"groupId":"EG001","numEvents":1,"numAffected":1,"numAtRisk":5493}]},{"term":"Cellulitis","organSystem":"Infections and infestations","sourceVocabulary":"MedDRA 22.1","assessmentType":"SYSTEMATIC_ASSESSMENT","stats":[{"groupId":"EG000","numEvents":1,"numAffected":1,"numAtRisk":5523},{"groupId":"EG001","numEvents":3,"numAffected":3,"numAtRisk":5493}]},{"term":"Clostridium colitis","organSystem":"Infections and infestations","sourceVocabulary":"MedDRA 22.1","assessmentType":"SYSTEMATIC_ASSESSMENT","stats":[{"groupId":"EG000","numEvents":0,"numAffected":0,"numAtRisk":5523},{"groupId":"EG001","numEvents":1,"numAffected":1,"numAtRisk":5493}]},{"term":"Endocarditis","organSystem":"Infections and infestations","sourceVocabulary":"MedDRA 22.1","assessmentType":"SYSTEMATIC_ASSESSMENT","stats":[{"groupId":"EG000","numEvents":2,"numAffected":2,"numAtRisk":5523},{"groupId":"EG001","numEvents":0,"numAffected":0,"numAtRisk":5493}]},{"term":"Escherichia sepsis","organSystem":"Infections and infestations","sourceVocabulary":"MedDRA 22.1","assessmentType":"SYSTEMATIC_ASSESSMENT","stats":[{"groupId":"EG000","numEvents":1,"numAffected":1,"numAtRisk":5523},{"groupId":"EG001","numEvents":0,"numAffected":0,"numAtRisk":5493}]},{"term":"Escherichia urinary tract infection","organSystem":"Infections and infestations","sourceVocabulary":"MedDRA 22.1","assessmentType":"SYSTEMATIC_ASSESSMENT","stats":[{"groupId":"EG000","numEvents":0,"numAffected":0,"numAtRisk":5523},{"groupId":"EG001","numEvents":1,"numAffected":1,"numAtRisk":5493}]},{"term":"Gastroenteritis","organSystem":"Infections and infestations","sourceVocabulary":"MedDRA 22.1","assessmentType":"SYSTEMATIC_ASSESSMENT","stats":[{"groupId":"EG000","numEvents":0,"numAffected":0,"numAtRisk":5523},{"groupId":"EG001","numEvents":1,"numAffected":1,"numAtRisk":5493}]},{"term":"Gastrointestinal bacterial infection","organSystem":"Infections and infestations","sourceVocabulary":"MedDRA 22.1","assessmentType":"SYSTEMATIC_ASSESSMENT","stats":[{"groupId":"EG000","numEvents":1,"numAffected":1,"numAtRisk":5523},{"groupId":"EG001","numEvents":2,"numAffected":2,"numAtRisk":5493}]},{"term":"Gastrointestinal infection","organSystem":"Infections and infestations","sourceVocabulary":"MedDRA 22.1","assessmentType":"SYSTEMATIC_ASSESSMENT","stats":[{"groupId":"EG000","numEvents":0,"numAffected":0,"numAtRisk":5523},{"groupId":"EG001","numEvents":1,"numAffected":1,"numAtRisk":5493}]},{"term":"Infectious pleural effusion","organSystem":"Infections and infestations","sourceVocabulary":"MedDRA 22.1","assessmentType":"SYSTEMATIC_ASSESSMENT","stats":[{"groupId":"EG000","numEvents":1,"numAffected":1,"numAtRisk":5523},{"groupId":"EG001","numEvents":0,"numAffected":0,"numAtRisk":5493}]},{"term":"Intervertebral discitis","organSystem":"Infections and infestations","sourceVocabulary":"MedDRA 22.1","assessmentType":"SYSTEMATIC_ASSESSMENT","stats":[{"groupId":"EG000","numEvents":0,"numAffected":0,"numAtRisk":5523},{"groupId":"EG001","numEvents":1,"numAffected":1,"numAtRisk":5493}]},{"term":"Klebsiella sepsis","organSystem":"Infections and infestations","sourceVocabulary":"MedDRA 22.1","assessmentType":"SYSTEMATIC_ASSESSMENT","stats":[{"groupId":"EG000","numEvents":0,"numAffected":0,"numAtRisk":5523},{"groupId":"EG001","numEvents":1,"numAffected":1,"numAtRisk":5493}]},{"term":"Neurosyphilis","organSystem":"Infections and infestations","sourceVocabulary":"MedDRA 22.1","assessmentType":"SYSTEMATIC_ASSESSMENT","stats":[{"groupId":"EG000","numEvents":1,"numAffected":1,"numAtRisk":5523},{"groupId":"EG001","numEvents":1,"numAffected":1,"numAtRisk":5493}]},{"term":"Peritonitis","organSystem":"Infections and infestations","sourceVocabulary":"MedDRA 22.1","assessmentType":"SYSTEMATIC_ASSESSMENT","stats":[{"groupId":"EG000","numEvents":0,"numAffected":0,"numAtRisk":5523},{"groupId":"EG001","numEvents":1,"numAffected":1,"numAtRisk":5493}]},{"term":"Pneumonia","organSystem":"Infections and infestations","sourceVocabulary":"MedDRA 22.1","assessmentType":"SYSTEMATIC_ASSESSMENT","stats":[{"groupId":"EG000","numEvents":25,"numAffected":25,"numAtRisk":5523},{"groupId":"EG001","numEvents":29,"numAffected":28,"numAtRisk":5493}]},{"term":"Pseudomembranous colitis","organSystem":"Infections and infestations","sourceVocabulary":"MedDRA 22.1","assessmentType":"SYSTEMATIC_ASSESSMENT","stats":[{"groupId":"EG000","numEvents":0,"numAffected":0,"numAtRisk":5523},{"groupId":"EG001","numEvents":1,"numAffected":1,"numAtRisk":5493}]},{"term":"Pyelonephritis acute","organSystem":"Infections and infestations","sourceVocabulary":"MedDRA 22.1","assessmentType":"SYSTEMATIC_ASSESSMENT","stats":[{"groupId":"EG000","numEvents":1,"numAffected":1,"numAtRisk":5523},{"groupId":"EG001","numEvents":0,"numAffected":0,"numAtRisk":5493}]},{"term":"Pyelonephritis chronic","organSystem":"Infections and infestations","sourceVocabulary":"MedDRA 22.1","assessmentType":"SYSTEMATIC_ASSESSMENT","stats":[{"groupId":"EG000","numEvents":1,"numAffected":1,"numAtRisk":5523},{"groupId":"EG001","numEvents":0,"numAffected":0,"numAtRisk":5493}]},{"term":"Respiratory syncytial virus infection","organSystem":"Infections and infestations","sourceVocabulary":"MedDRA 22.1","assessmentType":"SYSTEMATIC_ASSESSMENT","stats":[{"groupId":"EG000","numEvents":1,"numAffected":1,"numAtRisk":5523},{"groupId":"EG001","numEvents":0,"numAffected":0,"numAtRisk":5493}]},{"term":"Respiratory tract infection","organSystem":"Infections and infestations","sourceVocabulary":"MedDRA 22.1","assessmentType":"SYSTEMATIC_ASSESSMENT","stats":[{"groupId":"EG000","numEvents":1,"numAffected":1,"numAtRisk":5523},{"groupId":"EG001","numEvents":1,"numAffected":1,"numAtRisk":5493}]},{"term":"Sepsis","organSystem":"Infections and infestations","sourceVocabulary":"MedDRA 22.1","assessmentType":"SYSTEMATIC_ASSESSMENT","stats":[{"groupId":"EG000","numEvents":3,"numAffected":3,"numAtRisk":5523},{"groupId":"EG001","numEvents":5,"numAffected":5,"numAtRisk":5493}]},{"term":"Septic shock","organSystem":"Infections and infestations","sourceVocabulary":"MedDRA 22.1","assessmentType":"SYSTEMATIC_ASSESSMENT","stats":[{"groupId":"EG000","numEvents":2,"numAffected":2,"numAtRisk":5523},{"groupId":"EG001","numEvents":1,"numAffected":1,"numAtRisk":5493}]},{"term":"Tonsillitis","organSystem":"Infections and infestations","sourceVocabulary":"MedDRA 22.1","assessmentType":"SYSTEMATIC_ASSESSMENT","stats":[{"groupId":"EG000","numEvents":1,"numAffected":1,"numAtRisk":5523},{"groupId":"EG001","numEvents":0,"numAffected":0,"numAtRisk":5493}]},{"term":"Tracheobronchitis","organSystem":"Infections and infestations","sourceVocabulary":"MedDRA 22.1","assessmentType":"SYSTEMATIC_ASSESSMENT","stats":[{"groupId":"EG000","numEvents":1,"numAffected":1,"numAtRisk":5523},{"groupId":"EG001","numEvents":0,"numAffected":0,"numAtRisk":5493}]},{"term":"Tuberculosis","organSystem":"Infections and infestations","sourceVocabulary":"MedDRA 22.1","assessmentType":"SYSTEMATIC_ASSESSMENT","stats":[{"groupId":"EG000","numEvents":2,"numAffected":2,"numAtRisk":5523},{"groupId":"EG001","numEvents":0,"numAffected":0,"numAtRisk":5493}]},{"term":"Upper respiratory tract infection","organSystem":"Infections and infestations","sourceVocabulary":"MedDRA 22.1","assessmentType":"SYSTEMATIC_ASSESSMENT","stats":[{"groupId":"EG000","numEvents":0,"numAffected":0,"numAtRisk":5523},{"groupId":"EG001","numEvents":1,"numAffected":1,"numAtRisk":5493}]},{"term":"Urinary tract infection","organSystem":"Infections and infestations","sourceVocabulary":"MedDRA 22.1","assessmentType":"SYSTEMATIC_ASSESSMENT","stats":[{"groupId":"EG000","numEvents":6,"numAffected":6,"numAtRisk":5523},{"groupId":"EG001","numEvents":7,"numAffected":7,"numAtRisk":5493}]},{"term":"Urinary tract infection enterococcal","organSystem":"Infections and infestations","sourceVocabulary":"MedDRA 22.1","assessmentType":"SYSTEMATIC_ASSESSMENT","stats":[{"groupId":"EG000","numEvents":1,"numAffected":1,"numAtRisk":5523},{"groupId":"EG001","numEvents":0,"numAffected":0,"numAtRisk":5493}]},{"term":"Urosepsis","organSystem":"Infections and infestations","sourceVocabulary":"MedDRA 22.1","assessmentType":"SYSTEMATIC_ASSESSMENT","stats":[{"groupId":"EG000","numEvents":1,"numAffected":1,"numAtRisk":5523},{"groupId":"EG001","numEvents":1,"numAffected":1,"numAtRisk":5493}]},{"term":"Viral infection","organSystem":"Infections and infestations","sourceVocabulary":"MedDRA 22.1","assessmentType":"SYSTEMATIC_ASSESSMENT","stats":[{"groupId":"EG000","numEvents":1,"numAffected":1,"numAtRisk":5523},{"groupId":"EG001","numEvents":0,"numAffected":0,"numAtRisk":5493}]},{"term":"Wound infection","organSystem":"Infections and infestations","sourceVocabulary":"MedDRA 22.1","assessmentType":"SYSTEMATIC_ASSESSMENT","stats":[{"groupId":"EG000","numEvents":1,"numAffected":1,"numAtRisk":5523},{"groupId":"EG001","numEvents":1,"numAffected":1,"numAtRisk":5493}]},{"term":"Arterial bypass occlusion","organSystem":"Injury, poisoning and procedural complications","sourceVocabulary":"MedDRA 22.1","assessmentType":"SYSTEMATIC_ASSESSMENT","stats":[{"groupId":"EG000","numEvents":0,"numAffected":0,"numAtRisk":5523},{"groupId":"EG001","numEvents":1,"numAffected":1,"numAtRisk":5493}]},{"term":"Clavicle fracture","organSystem":"Injury, poisoning and procedural complications","sourceVocabulary":"MedDRA 22.1","assessmentType":"SYSTEMATIC_ASSESSMENT","stats":[{"groupId":"EG000","numEvents":0,"numAffected":0,"numAtRisk":5523},{"groupId":"EG001","numEvents":1,"numAffected":1,"numAtRisk":5493}]},{"term":"Femoral neck fracture","organSystem":"Injury, poisoning and procedural complications","sourceVocabulary":"MedDRA 22.1","assessmentType":"SYSTEMATIC_ASSESSMENT","stats":[{"groupId":"EG000","numEvents":1,"numAffected":1,"numAtRisk":5523},{"groupId":"EG001","numEvents":0,"numAffected":0,"numAtRisk":5493}]},{"term":"Femur fracture","organSystem":"Injury, poisoning and procedural complications","sourceVocabulary":"MedDRA 22.1","assessmentType":"SYSTEMATIC_ASSESSMENT","stats":[{"groupId":"EG000","numEvents":0,"numAffected":0,"numAtRisk":5523},{"groupId":"EG001","numEvents":2,"numAffected":2,"numAtRisk":5493}]},{"term":"Head injury","organSystem":"Injury, poisoning and procedural complications","sourceVocabulary":"MedDRA 22.1","assessmentType":"SYSTEMATIC_ASSESSMENT","stats":[{"groupId":"EG000","numEvents":0,"numAffected":0,"numAtRisk":5523},{"groupId":"EG001","numEvents":2,"numAffected":2,"numAtRisk":5493}]},{"term":"Hip fracture","organSystem":"Injury, poisoning and procedural complications","sourceVocabulary":"MedDRA 22.1","assessmentType":"SYSTEMATIC_ASSESSMENT","stats":[{"groupId":"EG000","numEvents":0,"numAffected":0,"numAtRisk":5523},{"groupId":"EG001","numEvents":1,"numAffected":1,"numAtRisk":5493}]},{"term":"Open globe injury","organSystem":"Injury, poisoning and procedural complications","sourceVocabulary":"MedDRA 22.1","assessmentType":"SYSTEMATIC_ASSESSMENT","stats":[{"groupId":"EG000","numEvents":0,"numAffected":0,"numAtRisk":5523},{"groupId":"EG001","numEvents":1,"numAffected":1,"numAtRisk":5493}]},{"term":"Periprocedural myocardial infarction","organSystem":"Injury, poisoning and procedural complications","sourceVocabulary":"MedDRA 22.1","assessmentType":"SYSTEMATIC_ASSESSMENT","stats":[{"groupId":"EG000","numEvents":1,"numAffected":1,"numAtRisk":5523},{"groupId":"EG001","numEvents":0,"numAffected":0,"numAtRisk":5493}]},{"term":"Post procedural haemorrhage","organSystem":"Injury, poisoning and procedural complications","sourceVocabulary":"MedDRA 22.1","assessmentType":"SYSTEMATIC_ASSESSMENT","stats":[{"groupId":"EG000","numEvents":1,"numAffected":1,"numAtRisk":5523},{"groupId":"EG001","numEvents":0,"numAffected":0,"numAtRisk":5493}]},{"term":"Rib fracture","organSystem":"Injury, poisoning and procedural complications","sourceVocabulary":"MedDRA 22.1","assessmentType":"SYSTEMATIC_ASSESSMENT","stats":[{"groupId":"EG000","numEvents":1,"numAffected":1,"numAtRisk":5523},{"groupId":"EG001","numEvents":0,"numAffected":0,"numAtRisk":5493}]},{"term":"Spinal compression fracture","organSystem":"Injury, poisoning and procedural complications","sourceVocabulary":"MedDRA 22.1","assessmentType":"SYSTEMATIC_ASSESSMENT","stats":[{"groupId":"EG000","numEvents":0,"numAffected":0,"numAtRisk":5523},{"groupId":"EG001","numEvents":2,"numAffected":2,"numAtRisk":5493}]},{"term":"Subdural haematoma","organSystem":"Injury, poisoning and procedural complications","sourceVocabulary":"MedDRA 22.1","assessmentType":"SYSTEMATIC_ASSESSMENT","stats":[{"groupId":"EG000","numEvents":1,"numAffected":1,"numAtRisk":5523},{"groupId":"EG001","numEvents":0,"numAffected":0,"numAtRisk":5493}]},{"term":"Thermal burn","organSystem":"Injury, poisoning and procedural complications","sourceVocabulary":"MedDRA 22.1","assessmentType":"SYSTEMATIC_ASSESSMENT","stats":[{"groupId":"EG000","numEvents":0,"numAffected":0,"numAtRisk":5523},{"groupId":"EG001","numEvents":1,"numAffected":1,"numAtRisk":5493}]},{"term":"Toxicity to various agents","organSystem":"Injury, poisoning and procedural complications","sourceVocabulary":"MedDRA 22.1","assessmentType":"SYSTEMATIC_ASSESSMENT","stats":[{"groupId":"EG000","numEvents":1,"numAffected":1,"numAtRisk":5523},{"groupId":"EG001","numEvents":0,"numAffected":0,"numAtRisk":5493}]},{"term":"Traumatic intracranial haemorrhage","organSystem":"Injury, poisoning and procedural complications","sourceVocabulary":"MedDRA 22.1","assessmentType":"SYSTEMATIC_ASSESSMENT","stats":[{"groupId":"EG000","numEvents":0,"numAffected":0,"numAtRisk":5523},{"groupId":"EG001","numEvents":1,"numAffected":1,"numAtRisk":5493}]},{"term":"Vascular pseudoaneurysm","organSystem":"Injury, poisoning and procedural complications","sourceVocabulary":"MedDRA 22.1","assessmentType":"SYSTEMATIC_ASSESSMENT","stats":[{"groupId":"EG000","numEvents":0,"numAffected":0,"numAtRisk":5523},{"groupId":"EG001","numEvents":1,"numAffected":1,"numAtRisk":5493}]},{"term":"Blood glucose increased","organSystem":"Investigations","sourceVocabulary":"MedDRA 22.1","assessmentType":"SYSTEMATIC_ASSESSMENT","stats":[{"groupId":"EG000","numEvents":0,"numAffected":0,"numAtRisk":5523},{"groupId":"EG001","numEvents":1,"numAffected":1,"numAtRisk":5493}]},{"term":"International normalised ratio increased","organSystem":"Investigations","sourceVocabulary":"MedDRA 22.1","assessmentType":"SYSTEMATIC_ASSESSMENT","stats":[{"groupId":"EG000","numEvents":1,"numAffected":1,"numAtRisk":5523},{"groupId":"EG001","numEvents":0,"numAffected":0,"numAtRisk":5493}]},{"term":"Occult blood positive","organSystem":"Investigations","sourceVocabulary":"MedDRA 22.1","assessmentType":"SYSTEMATIC_ASSESSMENT","stats":[{"groupId":"EG000","numEvents":0,"numAffected":0,"numAtRisk":5523},{"groupId":"EG001","numEvents":1,"numAffected":1,"numAtRisk":5493}]},{"term":"Dehydration","organSystem":"Metabolism and nutrition disorders","sourceVocabulary":"MedDRA 22.1","assessmentType":"SYSTEMATIC_ASSESSMENT","stats":[{"groupId":"EG000","numEvents":1,"numAffected":1,"numAtRisk":5523},{"groupId":"EG001","numEvents":0,"numAffected":0,"numAtRisk":5493}]},{"term":"Diabetes mellitus inadequate control","organSystem":"Metabolism and nutrition disorders","sourceVocabulary":"MedDRA 22.1","assessmentType":"SYSTEMATIC_ASSESSMENT","stats":[{"groupId":"EG000","numEvents":1,"numAffected":1,"numAtRisk":5523},{"groupId":"EG001","numEvents":0,"numAffected":0,"numAtRisk":5493}]},{"term":"Diabetic metabolic decompensation","organSystem":"Metabolism and nutrition disorders","sourceVocabulary":"MedDRA 22.1","assessmentType":"SYSTEMATIC_ASSESSMENT","stats":[{"groupId":"EG000","numEvents":0,"numAffected":0,"numAtRisk":5523},{"groupId":"EG001","numEvents":1,"numAffected":1,"numAtRisk":5493}]},{"term":"Electrolyte imbalance","organSystem":"Metabolism and nutrition disorders","sourceVocabulary":"MedDRA 22.1","assessmentType":"SYSTEMATIC_ASSESSMENT","stats":[{"groupId":"EG000","numEvents":1,"numAffected":1,"numAtRisk":5523},{"groupId":"EG001","numEvents":0,"numAffected":0,"numAtRisk":5493}]},{"term":"Gout","organSystem":"Metabolism and nutrition disorders","sourceVocabulary":"MedDRA 22.1","assessmentType":"SYSTEMATIC_ASSESSMENT","stats":[{"groupId":"EG000","numEvents":2,"numAffected":2,"numAtRisk":5523},{"groupId":"EG001","numEvents":2,"numAffected":2,"numAtRisk":5493}]},{"term":"Hypoglycaemia","organSystem":"Metabolism and nutrition disorders","sourceVocabulary":"MedDRA 22.1","assessmentType":"SYSTEMATIC_ASSESSMENT","stats":[{"groupId":"EG000","numEvents":3,"numAffected":3,"numAtRisk":5523},{"groupId":"EG001","numEvents":1,"numAffected":1,"numAtRisk":5493}]},{"term":"Hypokalaemia","organSystem":"Metabolism and nutrition disorders","sourceVocabulary":"MedDRA 22.1","assessmentType":"SYSTEMATIC_ASSESSMENT","stats":[{"groupId":"EG000","numEvents":1,"numAffected":1,"numAtRisk":5523},{"groupId":"EG001","numEvents":0,"numAffected":0,"numAtRisk":5493}]},{"term":"Hyponatraemia","organSystem":"Metabolism and nutrition disorders","sourceVocabulary":"MedDRA 22.1","assessmentType":"SYSTEMATIC_ASSESSMENT","stats":[{"groupId":"EG000","numEvents":3,"numAffected":3,"numAtRisk":5523},{"groupId":"EG001","numEvents":1,"numAffected":1,"numAtRisk":5493}]},{"term":"Back pain","organSystem":"Musculoskeletal and connective tissue disorders","sourceVocabulary":"MedDRA 22.1","assessmentType":"SYSTEMATIC_ASSESSMENT","stats":[{"groupId":"EG000","numEvents":0,"numAffected":0,"numAtRisk":5523},{"groupId":"EG001","numEvents":1,"numAffected":1,"numAtRisk":5493}]},{"term":"Bursitis","organSystem":"Musculoskeletal and connective tissue disorders","sourceVocabulary":"MedDRA 22.1","assessmentType":"SYSTEMATIC_ASSESSMENT","stats":[{"groupId":"EG000","numEvents":1,"numAffected":1,"numAtRisk":5523},{"groupId":"EG001","numEvents":0,"numAffected":0,"numAtRisk":5493}]},{"term":"Costochondritis","organSystem":"Musculoskeletal and connective tissue disorders","sourceVocabulary":"MedDRA 22.1","assessmentType":"SYSTEMATIC_ASSESSMENT","stats":[{"groupId":"EG000","numEvents":1,"numAffected":1,"numAtRisk":5523},{"groupId":"EG001","numEvents":0,"numAffected":0,"numAtRisk":5493}]},{"term":"Gouty arthritis","organSystem":"Musculoskeletal and connective tissue disorders","sourceVocabulary":"MedDRA 22.1","assessmentType":"SYSTEMATIC_ASSESSMENT","stats":[{"groupId":"EG000","numEvents":0,"numAffected":0,"numAtRisk":5523},{"groupId":"EG001","numEvents":1,"numAffected":1,"numAtRisk":5493}]},{"term":"Intervertebral disc protrusion","organSystem":"Musculoskeletal and connective tissue disorders","sourceVocabulary":"MedDRA 22.1","assessmentType":"SYSTEMATIC_ASSESSMENT","stats":[{"groupId":"EG000","numEvents":0,"numAffected":0,"numAtRisk":5523},{"groupId":"EG001","numEvents":2,"numAffected":2,"numAtRisk":5493}]},{"term":"Limb discomfort","organSystem":"Musculoskeletal and connective tissue disorders","sourceVocabulary":"MedDRA 22.1","assessmentType":"SYSTEMATIC_ASSESSMENT","stats":[{"groupId":"EG000","numEvents":1,"numAffected":1,"numAtRisk":5523},{"groupId":"EG001","numEvents":0,"numAffected":0,"numAtRisk":5493}]},{"term":"Muscular weakness","organSystem":"Musculoskeletal and connective tissue disorders","sourceVocabulary":"MedDRA 22.1","assessmentType":"SYSTEMATIC_ASSESSMENT","stats":[{"groupId":"EG000","numEvents":1,"numAffected":1,"numAtRisk":5523},{"groupId":"EG001","numEvents":2,"numAffected":2,"numAtRisk":5493}]},{"term":"Sympathetic posterior cervical syndrome","organSystem":"Musculoskeletal and connective tissue disorders","sourceVocabulary":"MedDRA 22.1","assessmentType":"SYSTEMATIC_ASSESSMENT","stats":[{"groupId":"EG000","numEvents":0,"numAffected":0,"numAtRisk":5523},{"groupId":"EG001","numEvents":1,"numAffected":1,"numAtRisk":5493}]},{"term":"Acute leukaemia","organSystem":"Neoplasms benign, malignant and unspecified (incl cysts and polyps)","sourceVocabulary":"MedDRA 22.1","assessmentType":"SYSTEMATIC_ASSESSMENT","stats":[{"groupId":"EG000","numEvents":1,"numAffected":1,"numAtRisk":5523},{"groupId":"EG001","numEvents":0,"numAffected":0,"numAtRisk":5493}]},{"term":"Adenocarcinoma","organSystem":"Neoplasms benign, malignant and unspecified (incl cysts and polyps)","sourceVocabulary":"MedDRA 22.1","assessmentType":"SYSTEMATIC_ASSESSMENT","stats":[{"groupId":"EG000","numEvents":1,"numAffected":1,"numAtRisk":5523},{"groupId":"EG001","numEvents":0,"numAffected":0,"numAtRisk":5493}]},{"term":"Bladder cancer","organSystem":"Neoplasms benign, malignant and unspecified (incl cysts and polyps)","sourceVocabulary":"MedDRA 22.1","assessmentType":"SYSTEMATIC_ASSESSMENT","stats":[{"groupId":"EG000","numEvents":1,"numAffected":1,"numAtRisk":5523},{"groupId":"EG001","numEvents":0,"numAffected":0,"numAtRisk":5493}]},{"term":"Brain neoplasm","organSystem":"Neoplasms benign, malignant and unspecified (incl cysts and polyps)","sourceVocabulary":"MedDRA 22.1","assessmentType":"SYSTEMATIC_ASSESSMENT","stats":[{"groupId":"EG000","numEvents":1,"numAffected":1,"numAtRisk":5523},{"groupId":"EG001","numEvents":0,"numAffected":0,"numAtRisk":5493}]},{"term":"Brain neoplasm malignant","organSystem":"Neoplasms benign, malignant and unspecified (incl cysts and polyps)","sourceVocabulary":"MedDRA 22.1","assessmentType":"SYSTEMATIC_ASSESSMENT","stats":[{"groupId":"EG000","numEvents":1,"numAffected":1,"numAtRisk":5523},{"groupId":"EG001","numEvents":0,"numAffected":0,"numAtRisk":5493}]},{"term":"Cardiac myxoma","organSystem":"Neoplasms benign, malignant and unspecified (incl cysts and polyps)","sourceVocabulary":"MedDRA 22.1","assessmentType":"SYSTEMATIC_ASSESSMENT","stats":[{"groupId":"EG000","numEvents":0,"numAffected":0,"numAtRisk":5523},{"groupId":"EG001","numEvents":1,"numAffected":1,"numAtRisk":5493}]},{"term":"Colon cancer","organSystem":"Neoplasms benign, malignant and unspecified (incl cysts and polyps)","sourceVocabulary":"MedDRA 22.1","assessmentType":"SYSTEMATIC_ASSESSMENT","stats":[{"groupId":"EG000","numEvents":1,"numAffected":1,"numAtRisk":5523},{"groupId":"EG001","numEvents":0,"numAffected":0,"numAtRisk":5493}]},{"term":"Colorectal adenocarcinoma","organSystem":"Neoplasms benign, malignant and unspecified (incl cysts and polyps)","sourceVocabulary":"MedDRA 22.1","assessmentType":"SYSTEMATIC_ASSESSMENT","stats":[{"groupId":"EG000","numEvents":1,"numAffected":1,"numAtRisk":5523},{"groupId":"EG001","numEvents":0,"numAffected":0,"numAtRisk":5493}]},{"term":"Focal nodular hyperplasia","organSystem":"Neoplasms benign, malignant and unspecified (incl cysts and polyps)","sourceVocabulary":"MedDRA 22.1","assessmentType":"SYSTEMATIC_ASSESSMENT","stats":[{"groupId":"EG000","numEvents":0,"numAffected":0,"numAtRisk":5523},{"groupId":"EG001","numEvents":1,"numAffected":1,"numAtRisk":5493}]},{"term":"Gastric cancer","organSystem":"Neoplasms benign, malignant and unspecified (incl cysts and polyps)","sourceVocabulary":"MedDRA 22.1","assessmentType":"SYSTEMATIC_ASSESSMENT","stats":[{"groupId":"EG000","numEvents":1,"numAffected":1,"numAtRisk":5523},{"groupId":"EG001","numEvents":1,"numAffected":1,"numAtRisk":5493}]},{"term":"Glioma","organSystem":"Neoplasms benign, malignant and unspecified (incl cysts and polyps)","sourceVocabulary":"MedDRA 22.1","assessmentType":"SYSTEMATIC_ASSESSMENT","stats":[{"groupId":"EG000","numEvents":0,"numAffected":0,"numAtRisk":5523},{"groupId":"EG001","numEvents":1,"numAffected":1,"numAtRisk":5493}]},{"term":"Hepatic cancer","organSystem":"Neoplasms benign, malignant and unspecified (incl cysts and polyps)","sourceVocabulary":"MedDRA 22.1","assessmentType":"SYSTEMATIC_ASSESSMENT","stats":[{"groupId":"EG000","numEvents":0,"numAffected":0,"numAtRisk":5523},{"groupId":"EG001","numEvents":1,"numAffected":1,"numAtRisk":5493}]},{"term":"Lung adenocarcinoma","organSystem":"Neoplasms benign, malignant and unspecified (incl cysts and polyps)","sourceVocabulary":"MedDRA 22.1","assessmentType":"SYSTEMATIC_ASSESSMENT","stats":[{"groupId":"EG000","numEvents":0,"numAffected":0,"numAtRisk":5523},{"groupId":"EG001","numEvents":1,"numAffected":1,"numAtRisk":5493}]},{"term":"Lung carcinoma cell type unspecified recurrent","organSystem":"Neoplasms benign, malignant and unspecified (incl cysts and polyps)","sourceVocabulary":"MedDRA 22.1","assessmentType":"SYSTEMATIC_ASSESSMENT","stats":[{"groupId":"EG000","numEvents":0,"numAffected":0,"numAtRisk":5523},{"groupId":"EG001","numEvents":1,"numAffected":1,"numAtRisk":5493}]},{"term":"Lung neoplasm","organSystem":"Neoplasms benign, malignant and unspecified (incl cysts and polyps)","sourceVocabulary":"MedDRA 22.1","assessmentType":"SYSTEMATIC_ASSESSMENT","stats":[{"groupId":"EG000","numEvents":0,"numAffected":0,"numAtRisk":5523},{"groupId":"EG001","numEvents":1,"numAffected":1,"numAtRisk":5493}]},{"term":"Lung neoplasm malignant","organSystem":"Neoplasms benign, malignant and unspecified (incl cysts and polyps)","sourceVocabulary":"MedDRA 22.1","assessmentType":"SYSTEMATIC_ASSESSMENT","stats":[{"groupId":"EG000","numEvents":2,"numAffected":2,"numAtRisk":5523},{"groupId":"EG001","numEvents":1,"numAffected":1,"numAtRisk":5493}]},{"term":"Malignant mediastinal neoplasm","organSystem":"Neoplasms benign, malignant and unspecified (incl cysts and polyps)","sourceVocabulary":"MedDRA 22.1","assessmentType":"SYSTEMATIC_ASSESSMENT","stats":[{"groupId":"EG000","numEvents":0,"numAffected":0,"numAtRisk":5523},{"groupId":"EG001","numEvents":1,"numAffected":1,"numAtRisk":5493}]},{"term":"Meningioma","organSystem":"Neoplasms benign, malignant and unspecified (incl cysts and polyps)","sourceVocabulary":"MedDRA 22.1","assessmentType":"SYSTEMATIC_ASSESSMENT","stats":[{"groupId":"EG000","numEvents":1,"numAffected":1,"numAtRisk":5523},{"groupId":"EG001","numEvents":0,"numAffected":0,"numAtRisk":5493}]},{"term":"Metastases to central nervous system","organSystem":"Neoplasms benign, malignant and unspecified (incl cysts and polyps)","sourceVocabulary":"MedDRA 22.1","assessmentType":"SYSTEMATIC_ASSESSMENT","stats":[{"groupId":"EG000","numEvents":0,"numAffected":0,"numAtRisk":5523},{"groupId":"EG001","numEvents":1,"numAffected":1,"numAtRisk":5493}]},{"term":"Metastatic gastric cancer","organSystem":"Neoplasms benign, malignant and unspecified (incl cysts and polyps)","sourceVocabulary":"MedDRA 22.1","assessmentType":"SYSTEMATIC_ASSESSMENT","stats":[{"groupId":"EG000","numEvents":0,"numAffected":0,"numAtRisk":5523},{"groupId":"EG001","numEvents":1,"numAffected":1,"numAtRisk":5493}]},{"term":"Myelofibrosis","organSystem":"Neoplasms benign, malignant and unspecified (incl cysts and polyps)","sourceVocabulary":"MedDRA 22.1","assessmentType":"SYSTEMATIC_ASSESSMENT","stats":[{"groupId":"EG000","numEvents":1,"numAffected":1,"numAtRisk":5523},{"groupId":"EG001","numEvents":0,"numAffected":0,"numAtRisk":5493}]},{"term":"Myeloproliferative neoplasm","organSystem":"Neoplasms benign, malignant and unspecified (incl cysts and polyps)","sourceVocabulary":"MedDRA 22.1","assessmentType":"SYSTEMATIC_ASSESSMENT","stats":[{"groupId":"EG000","numEvents":1,"numAffected":1,"numAtRisk":5523},{"groupId":"EG001","numEvents":0,"numAffected":0,"numAtRisk":5493}]},{"term":"Ovarian neoplasm","organSystem":"Neoplasms benign, malignant and unspecified (incl cysts and polyps)","sourceVocabulary":"MedDRA 22.1","assessmentType":"SYSTEMATIC_ASSESSMENT","stats":[{"groupId":"EG000","numEvents":1,"numAffected":1,"numAtRisk":5523},{"groupId":"EG001","numEvents":0,"numAffected":0,"numAtRisk":5493}]},{"term":"Pancreatic carcinoma metastatic","organSystem":"Neoplasms benign, malignant and unspecified (incl cysts and polyps)","sourceVocabulary":"MedDRA 22.1","assessmentType":"SYSTEMATIC_ASSESSMENT","stats":[{"groupId":"EG000","numEvents":0,"numAffected":0,"numAtRisk":5523},{"groupId":"EG001","numEvents":1,"numAffected":1,"numAtRisk":5493}]},{"term":"Phaeochromocytoma","organSystem":"Neoplasms benign, malignant and unspecified (incl cysts and polyps)","sourceVocabulary":"MedDRA 22.1","assessmentType":"SYSTEMATIC_ASSESSMENT","stats":[{"groupId":"EG000","numEvents":0,"numAffected":0,"numAtRisk":5523},{"groupId":"EG001","numEvents":1,"numAffected":1,"numAtRisk":5493}]},{"term":"Pharyngeal cancer","organSystem":"Neoplasms benign, malignant and unspecified (incl cysts and polyps)","sourceVocabulary":"MedDRA 22.1","assessmentType":"SYSTEMATIC_ASSESSMENT","stats":[{"groupId":"EG000","numEvents":1,"numAffected":1,"numAtRisk":5523},{"groupId":"EG001","numEvents":0,"numAffected":0,"numAtRisk":5493}]},{"term":"Pituitary tumour benign","organSystem":"Neoplasms benign, malignant and unspecified (incl cysts and polyps)","sourceVocabulary":"MedDRA 22.1","assessmentType":"SYSTEMATIC_ASSESSMENT","stats":[{"groupId":"EG000","numEvents":1,"numAffected":1,"numAtRisk":5523},{"groupId":"EG001","numEvents":0,"numAffected":0,"numAtRisk":5493}]},{"term":"Prostate cancer","organSystem":"Neoplasms benign, malignant and unspecified (incl cysts and polyps)","sourceVocabulary":"MedDRA 22.1","assessmentType":"SYSTEMATIC_ASSESSMENT","stats":[{"groupId":"EG000","numEvents":0,"numAffected":0,"numAtRisk":5523},{"groupId":"EG001","numEvents":1,"numAffected":1,"numAtRisk":5493}]},{"term":"Prostate cancer metastatic","organSystem":"Neoplasms benign, malignant and unspecified (incl cysts and polyps)","sourceVocabulary":"MedDRA 22.1","assessmentType":"SYSTEMATIC_ASSESSMENT","stats":[{"groupId":"EG000","numEvents":1,"numAffected":1,"numAtRisk":5523},{"groupId":"EG001","numEvents":0,"numAffected":0,"numAtRisk":5493}]},{"term":"Rectal adenocarcinoma","organSystem":"Neoplasms benign, malignant and unspecified (incl cysts and polyps)","sourceVocabulary":"MedDRA 22.1","assessmentType":"SYSTEMATIC_ASSESSMENT","stats":[{"groupId":"EG000","numEvents":1,"numAffected":1,"numAtRisk":5523},{"groupId":"EG001","numEvents":0,"numAffected":0,"numAtRisk":5493}]},{"term":"Rectal cancer","organSystem":"Neoplasms benign, malignant and unspecified (incl cysts and polyps)","sourceVocabulary":"MedDRA 22.1","assessmentType":"SYSTEMATIC_ASSESSMENT","stats":[{"groupId":"EG000","numEvents":1,"numAffected":1,"numAtRisk":5523},{"groupId":"EG001","numEvents":0,"numAffected":0,"numAtRisk":5493}]},{"term":"Renal cancer","organSystem":"Neoplasms benign, malignant and unspecified (incl cysts and polyps)","sourceVocabulary":"MedDRA 22.1","assessmentType":"SYSTEMATIC_ASSESSMENT","stats":[{"groupId":"EG000","numEvents":0,"numAffected":0,"numAtRisk":5523},{"groupId":"EG001","numEvents":1,"numAffected":1,"numAtRisk":5493}]},{"term":"Renal neoplasm","organSystem":"Neoplasms benign, malignant and unspecified (incl cysts and polyps)","sourceVocabulary":"MedDRA 22.1","assessmentType":"SYSTEMATIC_ASSESSMENT","stats":[{"groupId":"EG000","numEvents":1,"numAffected":1,"numAtRisk":5523},{"groupId":"EG001","numEvents":0,"numAffected":0,"numAtRisk":5493}]},{"term":"Uterine cancer","organSystem":"Neoplasms benign, malignant and unspecified (incl cysts and polyps)","sourceVocabulary":"MedDRA 22.1","assessmentType":"SYSTEMATIC_ASSESSMENT","stats":[{"groupId":"EG000","numEvents":0,"numAffected":0,"numAtRisk":5523},{"groupId":"EG001","numEvents":1,"numAffected":1,"numAtRisk":5493}]},{"term":"Autonomic neuropathy","organSystem":"Nervous system disorders","sourceVocabulary":"MedDRA 22.1","assessmentType":"SYSTEMATIC_ASSESSMENT","stats":[{"groupId":"EG000","numEvents":0,"numAffected":0,"numAtRisk":5523},{"groupId":"EG001","numEvents":1,"numAffected":1,"numAtRisk":5493}]},{"term":"Balance disorder","organSystem":"Nervous system disorders","sourceVocabulary":"MedDRA 22.1","assessmentType":"SYSTEMATIC_ASSESSMENT","stats":[{"groupId":"EG000","numEvents":2,"numAffected":2,"numAtRisk":5523},{"groupId":"EG001","numEvents":0,"numAffected":0,"numAtRisk":5493}]},{"term":"Basal ganglia haemorrhage","organSystem":"Nervous system disorders","sourceVocabulary":"MedDRA 22.1","assessmentType":"SYSTEMATIC_ASSESSMENT","stats":[{"groupId":"EG000","numEvents":1,"numAffected":1,"numAtRisk":5523},{"groupId":"EG001","numEvents":0,"numAffected":0,"numAtRisk":5493}]},{"term":"Brain oedema","organSystem":"Nervous system disorders","sourceVocabulary":"MedDRA 22.1","assessmentType":"SYSTEMATIC_ASSESSMENT","stats":[{"groupId":"EG000","numEvents":3,"numAffected":3,"numAtRisk":5523},{"groupId":"EG001","numEvents":3,"numAffected":3,"numAtRisk":5493}]},{"term":"Brain stem stroke","organSystem":"Nervous system disorders","sourceVocabulary":"MedDRA 22.1","assessmentType":"SYSTEMATIC_ASSESSMENT","stats":[{"groupId":"EG000","numEvents":1,"numAffected":1,"numAtRisk":5523},{"groupId":"EG001","numEvents":0,"numAffected":0,"numAtRisk":5493}]},{"term":"Brain stem syndrome","organSystem":"Nervous system disorders","sourceVocabulary":"MedDRA 22.1","assessmentType":"SYSTEMATIC_ASSESSMENT","stats":[{"groupId":"EG000","numEvents":0,"numAffected":0,"numAtRisk":5523},{"groupId":"EG001","numEvents":1,"numAffected":1,"numAtRisk":5493}]},{"term":"Carotid arteriosclerosis","organSystem":"Nervous system disorders","sourceVocabulary":"MedDRA 22.1","assessmentType":"SYSTEMATIC_ASSESSMENT","stats":[{"groupId":"EG000","numEvents":0,"numAffected":0,"numAtRisk":5523},{"groupId":"EG001","numEvents":1,"numAffected":1,"numAtRisk":5493}]},{"term":"Carotid artery occlusion","organSystem":"Nervous system disorders","sourceVocabulary":"MedDRA 22.1","assessmentType":"SYSTEMATIC_ASSESSMENT","stats":[{"groupId":"EG000","numEvents":0,"numAffected":0,"numAtRisk":5523},{"groupId":"EG001","numEvents":2,"numAffected":2,"numAtRisk":5493}]},{"term":"Carotid artery stenosis","organSystem":"Nervous system disorders","sourceVocabulary":"MedDRA 22.1","assessmentType":"SYSTEMATIC_ASSESSMENT","stats":[{"groupId":"EG000","numEvents":8,"numAffected":8,"numAtRisk":5523},{"groupId":"EG001","numEvents":7,"numAffected":7,"numAtRisk":5493}]},{"term":"Carpal tunnel syndrome","organSystem":"Nervous system disorders","sourceVocabulary":"MedDRA 22.1","assessmentType":"SYSTEMATIC_ASSESSMENT","stats":[{"groupId":"EG000","numEvents":0,"numAffected":0,"numAtRisk":5523},{"groupId":"EG001","numEvents":1,"numAffected":1,"numAtRisk":5493}]},{"term":"Central pain syndrome","organSystem":"Nervous system disorders","sourceVocabulary":"MedDRA 22.1","assessmentType":"SYSTEMATIC_ASSESSMENT","stats":[{"groupId":"EG000","numEvents":0,"numAffected":0,"numAtRisk":5523},{"groupId":"EG001","numEvents":1,"numAffected":1,"numAtRisk":5493}]},{"term":"Cerebellar infarction","organSystem":"Nervous system disorders","sourceVocabulary":"MedDRA 22.1","assessmentType":"SYSTEMATIC_ASSESSMENT","stats":[{"groupId":"EG000","numEvents":1,"numAffected":1,"numAtRisk":5523},{"groupId":"EG001","numEvents":0,"numAffected":0,"numAtRisk":5493}]},{"term":"Cerebral artery stenosis","organSystem":"Nervous system disorders","sourceVocabulary":"MedDRA 22.1","assessmentType":"SYSTEMATIC_ASSESSMENT","stats":[{"groupId":"EG000","numEvents":2,"numAffected":2,"numAtRisk":5523},{"groupId":"EG001","numEvents":2,"numAffected":2,"numAtRisk":5493}]},{"term":"Cerebral haemorrhage","organSystem":"Nervous system disorders","sourceVocabulary":"MedDRA 22.1","assessmentType":"SYSTEMATIC_ASSESSMENT","stats":[{"groupId":"EG000","numEvents":4,"numAffected":4,"numAtRisk":5523},{"groupId":"EG001","numEvents":3,"numAffected":3,"numAtRisk":5493}]},{"term":"Cerebral infarction","organSystem":"Nervous system disorders","sourceVocabulary":"MedDRA 22.1","assessmentType":"SYSTEMATIC_ASSESSMENT","stats":[{"groupId":"EG000","numEvents":6,"numAffected":6,"numAtRisk":5523},{"groupId":"EG001","numEvents":8,"numAffected":8,"numAtRisk":5493}]},{"term":"Cerebral ischaemia","organSystem":"Nervous system disorders","sourceVocabulary":"MedDRA 22.1","assessmentType":"SYSTEMATIC_ASSESSMENT","stats":[{"groupId":"EG000","numEvents":2,"numAffected":2,"numAtRisk":5523},{"groupId":"EG001","numEvents":0,"numAffected":0,"numAtRisk":5493}]},{"term":"Cerebral venous sinus thrombosis","organSystem":"Nervous system disorders","sourceVocabulary":"MedDRA 22.1","assessmentType":"SYSTEMATIC_ASSESSMENT","stats":[{"groupId":"EG000","numEvents":0,"numAffected":0,"numAtRisk":5523},{"groupId":"EG001","numEvents":1,"numAffected":1,"numAtRisk":5493}]},{"term":"Cerebral venous thrombosis","organSystem":"Nervous system disorders","sourceVocabulary":"MedDRA 22.1","assessmentType":"SYSTEMATIC_ASSESSMENT","stats":[{"groupId":"EG000","numEvents":1,"numAffected":1,"numAtRisk":5523},{"groupId":"EG001","numEvents":0,"numAffected":0,"numAtRisk":5493}]},{"term":"Cerebrovascular accident","organSystem":"Nervous system disorders","sourceVocabulary":"MedDRA 22.1","assessmentType":"SYSTEMATIC_ASSESSMENT","stats":[{"groupId":"EG000","numEvents":6,"numAffected":6,"numAtRisk":5523},{"groupId":"EG001","numEvents":7,"numAffected":7,"numAtRisk":5493}]},{"term":"Cerebrovascular disorder","organSystem":"Nervous system disorders","sourceVocabulary":"MedDRA 22.1","assessmentType":"SYSTEMATIC_ASSESSMENT","stats":[{"groupId":"EG000","numEvents":0,"numAffected":0,"numAtRisk":5523},{"groupId":"EG001","numEvents":1,"numAffected":1,"numAtRisk":5493}]},{"term":"Cerebrovascular insufficiency","organSystem":"Nervous system disorders","sourceVocabulary":"MedDRA 22.1","assessmentType":"SYSTEMATIC_ASSESSMENT","stats":[{"groupId":"EG000","numEvents":1,"numAffected":1,"numAtRisk":5523},{"groupId":"EG001","numEvents":0,"numAffected":0,"numAtRisk":5493}]},{"term":"Chronic inflammatory demyelinating polyradiculoneuropathy","organSystem":"Nervous system disorders","sourceVocabulary":"MedDRA 22.1","assessmentType":"SYSTEMATIC_ASSESSMENT","stats":[{"groupId":"EG000","numEvents":0,"numAffected":0,"numAtRisk":5523},{"groupId":"EG001","numEvents":1,"numAffected":1,"numAtRisk":5493}]},{"term":"Dementia alzheimer's type","organSystem":"Nervous system disorders","sourceVocabulary":"MedDRA 22.1","assessmentType":"SYSTEMATIC_ASSESSMENT","stats":[{"groupId":"EG000","numEvents":0,"numAffected":0,"numAtRisk":5523},{"groupId":"EG001","numEvents":1,"numAffected":1,"numAtRisk":5493}]},{"term":"Dizziness","organSystem":"Nervous system disorders","sourceVocabulary":"MedDRA 22.1","assessmentType":"SYSTEMATIC_ASSESSMENT","stats":[{"groupId":"EG000","numEvents":2,"numAffected":2,"numAtRisk":5523},{"groupId":"EG001","numEvents":3,"numAffected":3,"numAtRisk":5493}]},{"term":"Dysgraphia","organSystem":"Nervous system disorders","sourceVocabulary":"MedDRA 22.1","assessmentType":"SYSTEMATIC_ASSESSMENT","stats":[{"groupId":"EG000","numEvents":0,"numAffected":0,"numAtRisk":5523},{"groupId":"EG001","numEvents":1,"numAffected":1,"numAtRisk":5493}]},{"term":"Dysmetria","organSystem":"Nervous system disorders","sourceVocabulary":"MedDRA 22.1","assessmentType":"SYSTEMATIC_ASSESSMENT","stats":[{"groupId":"EG000","numEvents":0,"numAffected":0,"numAtRisk":5523},{"groupId":"EG001","numEvents":1,"numAffected":1,"numAtRisk":5493}]},{"term":"Epilepsy","organSystem":"Nervous system disorders","sourceVocabulary":"MedDRA 22.1","assessmentType":"SYSTEMATIC_ASSESSMENT","stats":[{"groupId":"EG000","numEvents":5,"numAffected":5,"numAtRisk":5523},{"groupId":"EG001","numEvents":3,"numAffected":3,"numAtRisk":5493}]},{"term":"Guillain-barre syndrome","organSystem":"Nervous system disorders","sourceVocabulary":"MedDRA 22.1","assessmentType":"SYSTEMATIC_ASSESSMENT","stats":[{"groupId":"EG000","numEvents":1,"numAffected":1,"numAtRisk":5523},{"groupId":"EG001","numEvents":0,"numAffected":0,"numAtRisk":5493}]},{"term":"Haemorrhage intracranial","organSystem":"Nervous system disorders","sourceVocabulary":"MedDRA 22.1","assessmentType":"SYSTEMATIC_ASSESSMENT","stats":[{"groupId":"EG000","numEvents":2,"numAffected":2,"numAtRisk":5523},{"groupId":"EG001","numEvents":0,"numAffected":0,"numAtRisk":5493}]},{"term":"Haemorrhagic stroke","organSystem":"Nervous system disorders","sourceVocabulary":"MedDRA 22.1","assessmentType":"SYSTEMATIC_ASSESSMENT","stats":[{"groupId":"EG000","numEvents":7,"numAffected":7,"numAtRisk":5523},{"groupId":"EG001","numEvents":0,"numAffected":0,"numAtRisk":5493}]},{"term":"Haemorrhagic transformation stroke","organSystem":"Nervous system disorders","sourceVocabulary":"MedDRA 22.1","assessmentType":"SYSTEMATIC_ASSESSMENT","stats":[{"groupId":"EG000","numEvents":8,"numAffected":8,"numAtRisk":5523},{"groupId":"EG001","numEvents":6,"numAffected":6,"numAtRisk":5493}]},{"term":"Headache","organSystem":"Nervous system disorders","sourceVocabulary":"MedDRA 22.1","assessmentType":"SYSTEMATIC_ASSESSMENT","stats":[{"groupId":"EG000","numEvents":0,"numAffected":0,"numAtRisk":5523},{"groupId":"EG001","numEvents":1,"numAffected":1,"numAtRisk":5493}]},{"term":"Hemianaesthesia","organSystem":"Nervous system disorders","sourceVocabulary":"MedDRA 22.1","assessmentType":"SYSTEMATIC_ASSESSMENT","stats":[{"groupId":"EG000","numEvents":0,"numAffected":0,"numAtRisk":5523},{"groupId":"EG001","numEvents":1,"numAffected":1,"numAtRisk":5493}]},{"term":"Hemiparesis","organSystem":"Nervous system disorders","sourceVocabulary":"MedDRA 22.1","assessmentType":"SYSTEMATIC_ASSESSMENT","stats":[{"groupId":"EG000","numEvents":0,"numAffected":0,"numAtRisk":5523},{"groupId":"EG001","numEvents":1,"numAffected":1,"numAtRisk":5493}]},{"term":"Hepatic encephalopathy","organSystem":"Nervous system disorders","sourceVocabulary":"MedDRA 22.1","assessmentType":"SYSTEMATIC_ASSESSMENT","stats":[{"groupId":"EG000","numEvents":0,"numAffected":0,"numAtRisk":5523},{"groupId":"EG001","numEvents":1,"numAffected":1,"numAtRisk":5493}]},{"term":"Hydrocephalus","organSystem":"Nervous system disorders","sourceVocabulary":"MedDRA 22.1","assessmentType":"SYSTEMATIC_ASSESSMENT","stats":[{"groupId":"EG000","numEvents":1,"numAffected":1,"numAtRisk":5523},{"groupId":"EG001","numEvents":0,"numAffected":0,"numAtRisk":5493}]},{"term":"Hypoaesthesia","organSystem":"Nervous system disorders","sourceVocabulary":"MedDRA 22.1","assessmentType":"SYSTEMATIC_ASSESSMENT","stats":[{"groupId":"EG000","numEvents":1,"numAffected":1,"numAtRisk":5523},{"groupId":"EG001","numEvents":1,"numAffected":1,"numAtRisk":5493}]},{"term":"Hypoglycaemic seizure","organSystem":"Nervous system disorders","sourceVocabulary":"MedDRA 22.1","assessmentType":"SYSTEMATIC_ASSESSMENT","stats":[{"groupId":"EG000","numEvents":0,"numAffected":0,"numAtRisk":5523},{"groupId":"EG001","numEvents":1,"numAffected":1,"numAtRisk":5493}]},{"term":"Intracranial aneurysm","organSystem":"Nervous system disorders","sourceVocabulary":"MedDRA 22.1","assessmentType":"SYSTEMATIC_ASSESSMENT","stats":[{"groupId":"EG000","numEvents":1,"numAffected":1,"numAtRisk":5523},{"groupId":"EG001","numEvents":2,"numAffected":2,"numAtRisk":5493}]},{"term":"Ischaemic cerebral infarction","organSystem":"Nervous system disorders","sourceVocabulary":"MedDRA 22.1","assessmentType":"SYSTEMATIC_ASSESSMENT","stats":[{"groupId":"EG000","numEvents":4,"numAffected":4,"numAtRisk":5523},{"groupId":"EG001","numEvents":6,"numAffected":6,"numAtRisk":5493}]},{"term":"Ischaemic stroke","organSystem":"Nervous system disorders","sourceVocabulary":"MedDRA 22.1","assessmentType":"SYSTEMATIC_ASSESSMENT","stats":[{"groupId":"EG000","numEvents":258,"numAffected":254,"numAtRisk":5523},{"groupId":"EG001","numEvents":330,"numAffected":324,"numAtRisk":5493}]},{"term":"Lacunar infarction","organSystem":"Nervous system disorders","sourceVocabulary":"MedDRA 22.1","assessmentType":"SYSTEMATIC_ASSESSMENT","stats":[{"groupId":"EG000","numEvents":1,"numAffected":1,"numAtRisk":5523},{"groupId":"EG001","numEvents":0,"numAffected":0,"numAtRisk":5493}]},{"term":"Lacunar stroke","organSystem":"Nervous system disorders","sourceVocabulary":"MedDRA 22.1","assessmentType":"SYSTEMATIC_ASSESSMENT","stats":[{"groupId":"EG000","numEvents":0,"numAffected":0,"numAtRisk":5523},{"groupId":"EG001","numEvents":2,"numAffected":2,"numAtRisk":5493}]},{"term":"Loss of consciousness","organSystem":"Nervous system disorders","sourceVocabulary":"MedDRA 22.1","assessmentType":"SYSTEMATIC_ASSESSMENT","stats":[{"groupId":"EG000","numEvents":2,"numAffected":2,"numAtRisk":5523},{"groupId":"EG001","numEvents":0,"numAffected":0,"numAtRisk":5493}]},{"term":"Memory impairment","organSystem":"Nervous system disorders","sourceVocabulary":"MedDRA 22.1","assessmentType":"SYSTEMATIC_ASSESSMENT","stats":[{"groupId":"EG000","numEvents":0,"numAffected":0,"numAtRisk":5523},{"groupId":"EG001","numEvents":1,"numAffected":1,"numAtRisk":5493}]},{"term":"Migraine","organSystem":"Nervous system disorders","sourceVocabulary":"MedDRA 22.1","assessmentType":"SYSTEMATIC_ASSESSMENT","stats":[{"groupId":"EG000","numEvents":0,"numAffected":0,"numAtRisk":5523},{"groupId":"EG001","numEvents":1,"numAffected":1,"numAtRisk":5493}]},{"term":"Neurological symptom","organSystem":"Nervous system disorders","sourceVocabulary":"MedDRA 22.1","assessmentType":"SYSTEMATIC_ASSESSMENT","stats":[{"groupId":"EG000","numEvents":1,"numAffected":1,"numAtRisk":5523},{"groupId":"EG001","numEvents":0,"numAffected":0,"numAtRisk":5493}]},{"term":"Paraesthesia","organSystem":"Nervous system disorders","sourceVocabulary":"MedDRA 22.1","assessmentType":"SYSTEMATIC_ASSESSMENT","stats":[{"groupId":"EG000","numEvents":0,"numAffected":0,"numAtRisk":5523},{"groupId":"EG001","numEvents":1,"numAffected":1,"numAtRisk":5493}]},{"term":"Paresis","organSystem":"Nervous system disorders","sourceVocabulary":"MedDRA 22.1","assessmentType":"SYSTEMATIC_ASSESSMENT","stats":[{"groupId":"EG000","numEvents":0,"numAffected":0,"numAtRisk":5523},{"groupId":"EG001","numEvents":1,"numAffected":1,"numAtRisk":5493}]},{"term":"Parkinson's disease","organSystem":"Nervous system disorders","sourceVocabulary":"MedDRA 22.1","assessmentType":"SYSTEMATIC_ASSESSMENT","stats":[{"groupId":"EG000","numEvents":0,"numAffected":0,"numAtRisk":5523},{"groupId":"EG001","numEvents":1,"numAffected":1,"numAtRisk":5493}]},{"term":"Partial seizures","organSystem":"Nervous system disorders","sourceVocabulary":"MedDRA 22.1","assessmentType":"SYSTEMATIC_ASSESSMENT","stats":[{"groupId":"EG000","numEvents":2,"numAffected":2,"numAtRisk":5523},{"groupId":"EG001","numEvents":0,"numAffected":0,"numAtRisk":5493}]},{"term":"Post stroke seizure","organSystem":"Nervous system disorders","sourceVocabulary":"MedDRA 22.1","assessmentType":"SYSTEMATIC_ASSESSMENT","stats":[{"groupId":"EG000","numEvents":0,"numAffected":0,"numAtRisk":5523},{"groupId":"EG001","numEvents":1,"numAffected":1,"numAtRisk":5493}]},{"term":"Psychomotor hyperactivity","organSystem":"Nervous system disorders","sourceVocabulary":"MedDRA 22.1","assessmentType":"SYSTEMATIC_ASSESSMENT","stats":[{"groupId":"EG000","numEvents":1,"numAffected":1,"numAtRisk":5523},{"groupId":"EG001","numEvents":0,"numAffected":0,"numAtRisk":5493}]},{"term":"Seizure","organSystem":"Nervous system disorders","sourceVocabulary":"MedDRA 22.1","assessmentType":"SYSTEMATIC_ASSESSMENT","stats":[{"groupId":"EG000","numEvents":4,"numAffected":4,"numAtRisk":5523},{"groupId":"EG001","numEvents":3,"numAffected":3,"numAtRisk":5493}]},{"term":"Somnolence","organSystem":"Nervous system disorders","sourceVocabulary":"MedDRA 22.1","assessmentType":"SYSTEMATIC_ASSESSMENT","stats":[{"groupId":"EG000","numEvents":0,"numAffected":0,"numAtRisk":5523},{"groupId":"EG001","numEvents":1,"numAffected":1,"numAtRisk":5493}]},{"term":"Spondylitic myelopathy","organSystem":"Nervous system disorders","sourceVocabulary":"MedDRA 22.1","assessmentType":"SYSTEMATIC_ASSESSMENT","stats":[{"groupId":"EG000","numEvents":1,"numAffected":1,"numAtRisk":5523},{"groupId":"EG001","numEvents":0,"numAffected":0,"numAtRisk":5493}]},{"term":"Status epilepticus","organSystem":"Nervous system disorders","sourceVocabulary":"MedDRA 22.1","assessmentType":"SYSTEMATIC_ASSESSMENT","stats":[{"groupId":"EG000","numEvents":2,"numAffected":2,"numAtRisk":5523},{"groupId":"EG001","numEvents":0,"numAffected":0,"numAtRisk":5493}]},{"term":"Stroke in evolution","organSystem":"Nervous system disorders","sourceVocabulary":"MedDRA 22.1","assessmentType":"SYSTEMATIC_ASSESSMENT","stats":[{"groupId":"EG000","numEvents":1,"numAffected":1,"numAtRisk":5523},{"groupId":"EG001","numEvents":0,"numAffected":0,"numAtRisk":5493}]},{"term":"Subarachnoid haemorrhage","organSystem":"Nervous system disorders","sourceVocabulary":"MedDRA 22.1","assessmentType":"SYSTEMATIC_ASSESSMENT","stats":[{"groupId":"EG000","numEvents":2,"numAffected":2,"numAtRisk":5523},{"groupId":"EG001","numEvents":0,"numAffected":0,"numAtRisk":5493}]},{"term":"Syncope","organSystem":"Nervous system disorders","sourceVocabulary":"MedDRA 22.1","assessmentType":"SYSTEMATIC_ASSESSMENT","stats":[{"groupId":"EG000","numEvents":1,"numAffected":1,"numAtRisk":5523},{"groupId":"EG001","numEvents":0,"numAffected":0,"numAtRisk":5493}]},{"term":"Tension headache","organSystem":"Nervous system disorders","sourceVocabulary":"MedDRA 22.1","assessmentType":"SYSTEMATIC_ASSESSMENT","stats":[{"groupId":"EG000","numEvents":1,"numAffected":1,"numAtRisk":5523},{"groupId":"EG001","numEvents":0,"numAffected":0,"numAtRisk":5493}]},{"term":"Thalamic infarction","organSystem":"Nervous system disorders","sourceVocabulary":"MedDRA 22.1","assessmentType":"SYSTEMATIC_ASSESSMENT","stats":[{"groupId":"EG000","numEvents":1,"numAffected":1,"numAtRisk":5523},{"groupId":"EG001","numEvents":0,"numAffected":0,"numAtRisk":5493}]},{"term":"Transient ischaemic attack","organSystem":"Nervous system disorders","sourceVocabulary":"MedDRA 22.1","assessmentType":"SYSTEMATIC_ASSESSMENT","stats":[{"groupId":"EG000","numEvents":12,"numAffected":12,"numAtRisk":5523},{"groupId":"EG001","numEvents":31,"numAffected":30,"numAtRisk":5493}]},{"term":"Vascular dementia","organSystem":"Nervous system disorders","sourceVocabulary":"MedDRA 22.1","assessmentType":"SYSTEMATIC_ASSESSMENT","stats":[{"groupId":"EG000","numEvents":1,"numAffected":1,"numAtRisk":5523},{"groupId":"EG001","numEvents":0,"numAffected":0,"numAtRisk":5493}]},{"term":"Vertebral artery stenosis","organSystem":"Nervous system disorders","sourceVocabulary":"MedDRA 22.1","assessmentType":"SYSTEMATIC_ASSESSMENT","stats":[{"groupId":"EG000","numEvents":2,"numAffected":2,"numAtRisk":5523},{"groupId":"EG001","numEvents":0,"numAffected":0,"numAtRisk":5493}]},{"term":"Device dislocation","organSystem":"Product Issues","sourceVocabulary":"MedDRA 22.1","assessmentType":"SYSTEMATIC_ASSESSMENT","stats":[{"groupId":"EG000","numEvents":0,"numAffected":0,"numAtRisk":5523},{"groupId":"EG001","numEvents":1,"numAffected":1,"numAtRisk":5493}]},{"term":"Anxiety","organSystem":"Psychiatric disorders","sourceVocabulary":"MedDRA 22.1","assessmentType":"SYSTEMATIC_ASSESSMENT","stats":[{"groupId":"EG000","numEvents":1,"numAffected":1,"numAtRisk":5523},{"groupId":"EG001","numEvents":1,"numAffected":1,"numAtRisk":5493}]},{"term":"Anxiety disorder","organSystem":"Psychiatric disorders","sourceVocabulary":"MedDRA 22.1","assessmentType":"SYSTEMATIC_ASSESSMENT","stats":[{"groupId":"EG000","numEvents":0,"numAffected":0,"numAtRisk":5523},{"groupId":"EG001","numEvents":2,"numAffected":2,"numAtRisk":5493}]},{"term":"Completed suicide","organSystem":"Psychiatric disorders","sourceVocabulary":"MedDRA 22.1","assessmentType":"SYSTEMATIC_ASSESSMENT","stats":[{"groupId":"EG000","numEvents":1,"numAffected":1,"numAtRisk":5523},{"groupId":"EG001","numEvents":0,"numAffected":0,"numAtRisk":5493}]},{"term":"Confusional state","organSystem":"Psychiatric disorders","sourceVocabulary":"MedDRA 22.1","assessmentType":"SYSTEMATIC_ASSESSMENT","stats":[{"groupId":"EG000","numEvents":2,"numAffected":2,"numAtRisk":5523},{"groupId":"EG001","numEvents":0,"numAffected":0,"numAtRisk":5493}]},{"term":"Conversion disorder","organSystem":"Psychiatric disorders","sourceVocabulary":"MedDRA 22.1","assessmentType":"SYSTEMATIC_ASSESSMENT","stats":[{"groupId":"EG000","numEvents":0,"numAffected":0,"numAtRisk":5523},{"groupId":"EG001","numEvents":1,"numAffected":1,"numAtRisk":5493}]},{"term":"Delirium","organSystem":"Psychiatric disorders","sourceVocabulary":"MedDRA 22.1","assessmentType":"SYSTEMATIC_ASSESSMENT","stats":[{"groupId":"EG000","numEvents":1,"numAffected":1,"numAtRisk":5523},{"groupId":"EG001","numEvents":3,"numAffected":3,"numAtRisk":5493}]},{"term":"Hallucination, visual","organSystem":"Psychiatric disorders","sourceVocabulary":"MedDRA 22.1","assessmentType":"SYSTEMATIC_ASSESSMENT","stats":[{"groupId":"EG000","numEvents":1,"numAffected":1,"numAtRisk":5523},{"groupId":"EG001","numEvents":0,"numAffected":0,"numAtRisk":5493}]},{"term":"Neuropsychiatric symptoms","organSystem":"Psychiatric disorders","sourceVocabulary":"MedDRA 22.1","assessmentType":"SYSTEMATIC_ASSESSMENT","stats":[{"groupId":"EG000","numEvents":1,"numAffected":1,"numAtRisk":5523},{"groupId":"EG001","numEvents":0,"numAffected":0,"numAtRisk":5493}]},{"term":"Organic brain syndrome","organSystem":"Psychiatric disorders","sourceVocabulary":"MedDRA 22.1","assessmentType":"SYSTEMATIC_ASSESSMENT","stats":[{"groupId":"EG000","numEvents":0,"numAffected":0,"numAtRisk":5523},{"groupId":"EG001","numEvents":2,"numAffected":2,"numAtRisk":5493}]},{"term":"Panic disorder","organSystem":"Psychiatric disorders","sourceVocabulary":"MedDRA 22.1","assessmentType":"SYSTEMATIC_ASSESSMENT","stats":[{"groupId":"EG000","numEvents":1,"numAffected":1,"numAtRisk":5523},{"groupId":"EG001","numEvents":0,"numAffected":0,"numAtRisk":5493}]},{"term":"Psychotic disorder","organSystem":"Psychiatric disorders","sourceVocabulary":"MedDRA 22.1","assessmentType":"SYSTEMATIC_ASSESSMENT","stats":[{"groupId":"EG000","numEvents":2,"numAffected":2,"numAtRisk":5523},{"groupId":"EG001","numEvents":0,"numAffected":0,"numAtRisk":5493}]},{"term":"Sleep disorder","organSystem":"Psychiatric disorders","sourceVocabulary":"MedDRA 22.1","assessmentType":"SYSTEMATIC_ASSESSMENT","stats":[{"groupId":"EG000","numEvents":1,"numAffected":1,"numAtRisk":5523},{"groupId":"EG001","numEvents":0,"numAffected":0,"numAtRisk":5493}]},{"term":"Somatic symptom disorder","organSystem":"Psychiatric disorders","sourceVocabulary":"MedDRA 22.1","assessmentType":"SYSTEMATIC_ASSESSMENT","stats":[{"groupId":"EG000","numEvents":1,"numAffected":1,"numAtRisk":5523},{"groupId":"EG001","numEvents":0,"numAffected":0,"numAtRisk":5493}]},{"term":"Acute kidney injury","organSystem":"Renal and urinary disorders","sourceVocabulary":"MedDRA 22.1","assessmentType":"SYSTEMATIC_ASSESSMENT","stats":[{"groupId":"EG000","numEvents":4,"numAffected":4,"numAtRisk":5523},{"groupId":"EG001","numEvents":2,"numAffected":2,"numAtRisk":5493}]},{"term":"Chronic kidney disease","organSystem":"Renal and urinary disorders","sourceVocabulary":"MedDRA 22.1","assessmentType":"SYSTEMATIC_ASSESSMENT","stats":[{"groupId":"EG000","numEvents":2,"numAffected":2,"numAtRisk":5523},{"groupId":"EG001","numEvents":1,"numAffected":1,"numAtRisk":5493}]},{"term":"Cystitis haemorrhagic","organSystem":"Renal and urinary disorders","sourceVocabulary":"MedDRA 22.1","assessmentType":"SYSTEMATIC_ASSESSMENT","stats":[{"groupId":"EG000","numEvents":1,"numAffected":1,"numAtRisk":5523},{"groupId":"EG001","numEvents":0,"numAffected":0,"numAtRisk":5493}]},{"term":"Dysuria","organSystem":"Renal and urinary disorders","sourceVocabulary":"MedDRA 22.1","assessmentType":"SYSTEMATIC_ASSESSMENT","stats":[{"groupId":"EG000","numEvents":0,"numAffected":0,"numAtRisk":5523},{"groupId":"EG001","numEvents":1,"numAffected":1,"numAtRisk":5493}]},{"term":"End stage renal disease","organSystem":"Renal and urinary disorders","sourceVocabulary":"MedDRA 22.1","assessmentType":"SYSTEMATIC_ASSESSMENT","stats":[{"groupId":"EG000","numEvents":1,"numAffected":1,"numAtRisk":5523},{"groupId":"EG001","numEvents":0,"numAffected":0,"numAtRisk":5493}]},{"term":"Haematuria","organSystem":"Renal and urinary disorders","sourceVocabulary":"MedDRA 22.1","assessmentType":"SYSTEMATIC_ASSESSMENT","stats":[{"groupId":"EG000","numEvents":8,"numAffected":8,"numAtRisk":5523},{"groupId":"EG001","numEvents":1,"numAffected":1,"numAtRisk":5493}]},{"term":"Nephrolithiasis","organSystem":"Renal and urinary disorders","sourceVocabulary":"MedDRA 22.1","assessmentType":"SYSTEMATIC_ASSESSMENT","stats":[{"groupId":"EG000","numEvents":1,"numAffected":1,"numAtRisk":5523},{"groupId":"EG001","numEvents":0,"numAffected":0,"numAtRisk":5493}]},{"term":"Nephropathy toxic","organSystem":"Renal and urinary disorders","sourceVocabulary":"MedDRA 22.1","assessmentType":"SYSTEMATIC_ASSESSMENT","stats":[{"groupId":"EG000","numEvents":1,"numAffected":1,"numAtRisk":5523},{"groupId":"EG001","numEvents":1,"numAffected":1,"numAtRisk":5493}]},{"term":"Prerenal failure","organSystem":"Renal and urinary disorders","sourceVocabulary":"MedDRA 22.1","assessmentType":"SYSTEMATIC_ASSESSMENT","stats":[{"groupId":"EG000","numEvents":0,"numAffected":0,"numAtRisk":5523},{"groupId":"EG001","numEvents":1,"numAffected":1,"numAtRisk":5493}]},{"term":"Renal colic","organSystem":"Renal and urinary disorders","sourceVocabulary":"MedDRA 22.1","assessmentType":"SYSTEMATIC_ASSESSMENT","stats":[{"groupId":"EG000","numEvents":1,"numAffected":1,"numAtRisk":5523},{"groupId":"EG001","numEvents":1,"numAffected":1,"numAtRisk":5493}]},{"term":"Renal failure","organSystem":"Renal and urinary disorders","sourceVocabulary":"MedDRA 22.1","assessmentType":"SYSTEMATIC_ASSESSMENT","stats":[{"groupId":"EG000","numEvents":1,"numAffected":1,"numAtRisk":5523},{"groupId":"EG001","numEvents":3,"numAffected":3,"numAtRisk":5493}]},{"term":"Renal injury","organSystem":"Renal and urinary disorders","sourceVocabulary":"MedDRA 22.1","assessmentType":"SYSTEMATIC_ASSESSMENT","stats":[{"groupId":"EG000","numEvents":1,"numAffected":1,"numAtRisk":5523},{"groupId":"EG001","numEvents":0,"numAffected":0,"numAtRisk":5493}]},{"term":"Urethral stenosis","organSystem":"Renal and urinary disorders","sourceVocabulary":"MedDRA 22.1","assessmentType":"SYSTEMATIC_ASSESSMENT","stats":[{"groupId":"EG000","numEvents":0,"numAffected":0,"numAtRisk":5523},{"groupId":"EG001","numEvents":1,"numAffected":1,"numAtRisk":5493}]},{"term":"Urinary bladder polyp","organSystem":"Renal and urinary disorders","sourceVocabulary":"MedDRA 22.1","assessmentType":"SYSTEMATIC_ASSESSMENT","stats":[{"groupId":"EG000","numEvents":1,"numAffected":1,"numAtRisk":5523},{"groupId":"EG001","numEvents":0,"numAffected":0,"numAtRisk":5493}]},{"term":"Urinary retention","organSystem":"Renal and urinary disorders","sourceVocabulary":"MedDRA 22.1","assessmentType":"SYSTEMATIC_ASSESSMENT","stats":[{"groupId":"EG000","numEvents":1,"numAffected":1,"numAtRisk":5523},{"groupId":"EG001","numEvents":1,"numAffected":1,"numAtRisk":5493}]},{"term":"Endometrial hyperplasia","organSystem":"Reproductive system and breast disorders","sourceVocabulary":"MedDRA 22.1","assessmentType":"SYSTEMATIC_ASSESSMENT","stats":[{"groupId":"EG000","numEvents":1,"numAffected":1,"numAtRisk":5523},{"groupId":"EG001","numEvents":0,"numAffected":0,"numAtRisk":5493}]},{"term":"Menorrhagia","organSystem":"Reproductive system and breast disorders","sourceVocabulary":"MedDRA 22.1","assessmentType":"SYSTEMATIC_ASSESSMENT","stats":[{"groupId":"EG000","numEvents":0,"numAffected":0,"numAtRisk":5523},{"groupId":"EG001","numEvents":1,"numAffected":1,"numAtRisk":5493}]},{"term":"Uterine haemorrhage","organSystem":"Reproductive system and breast disorders","sourceVocabulary":"MedDRA 22.1","assessmentType":"SYSTEMATIC_ASSESSMENT","stats":[{"groupId":"EG000","numEvents":0,"numAffected":0,"numAtRisk":5523},{"groupId":"EG001","numEvents":1,"numAffected":1,"numAtRisk":5493}]},{"term":"Acute pulmonary oedema","organSystem":"Respiratory, thoracic and mediastinal disorders","sourceVocabulary":"MedDRA 22.1","assessmentType":"SYSTEMATIC_ASSESSMENT","stats":[{"groupId":"EG000","numEvents":1,"numAffected":1,"numAtRisk":5523},{"groupId":"EG001","numEvents":0,"numAffected":0,"numAtRisk":5493}]},{"term":"Acute respiratory failure","organSystem":"Respiratory, thoracic and mediastinal disorders","sourceVocabulary":"MedDRA 22.1","assessmentType":"SYSTEMATIC_ASSESSMENT","stats":[{"groupId":"EG000","numEvents":1,"numAffected":1,"numAtRisk":5523},{"groupId":"EG001","numEvents":1,"numAffected":1,"numAtRisk":5493}]},{"term":"Bronchitis chronic","organSystem":"Respiratory, thoracic and mediastinal disorders","sourceVocabulary":"MedDRA 22.1","assessmentType":"SYSTEMATIC_ASSESSMENT","stats":[{"groupId":"EG000","numEvents":2,"numAffected":2,"numAtRisk":5523},{"groupId":"EG001","numEvents":0,"numAffected":0,"numAtRisk":5493}]},{"term":"Chronic obstructive pulmonary disease","organSystem":"Respiratory, thoracic and mediastinal disorders","sourceVocabulary":"MedDRA 22.1","assessmentType":"SYSTEMATIC_ASSESSMENT","stats":[{"groupId":"EG000","numEvents":0,"numAffected":0,"numAtRisk":5523},{"groupId":"EG001","numEvents":1,"numAffected":1,"numAtRisk":5493}]},{"term":"Dyspnoea","organSystem":"Respiratory, thoracic and mediastinal disorders","sourceVocabulary":"MedDRA 22.1","assessmentType":"SYSTEMATIC_ASSESSMENT","stats":[{"groupId":"EG000","numEvents":3,"numAffected":3,"numAtRisk":5523},{"groupId":"EG001","numEvents":2,"numAffected":2,"numAtRisk":5493}]},{"term":"Epistaxis","organSystem":"Respiratory, thoracic and mediastinal disorders","sourceVocabulary":"MedDRA 22.1","assessmentType":"SYSTEMATIC_ASSESSMENT","stats":[{"groupId":"EG000","numEvents":6,"numAffected":6,"numAtRisk":5523},{"groupId":"EG001","numEvents":0,"numAffected":0,"numAtRisk":5493}]},{"term":"Haemoptysis","organSystem":"Respiratory, thoracic and mediastinal disorders","sourceVocabulary":"MedDRA 22.1","assessmentType":"SYSTEMATIC_ASSESSMENT","stats":[{"groupId":"EG000","numEvents":1,"numAffected":1,"numAtRisk":5523},{"groupId":"EG001","numEvents":1,"numAffected":1,"numAtRisk":5493}]},{"term":"Pleural effusion","organSystem":"Respiratory, thoracic and mediastinal disorders","sourceVocabulary":"MedDRA 22.1","assessmentType":"SYSTEMATIC_ASSESSMENT","stats":[{"groupId":"EG000","numEvents":1,"numAffected":1,"numAtRisk":5523},{"groupId":"EG001","numEvents":0,"numAffected":0,"numAtRisk":5493}]},{"term":"Pneumonia aspiration","organSystem":"Respiratory, thoracic and mediastinal disorders","sourceVocabulary":"MedDRA 22.1","assessmentType":"SYSTEMATIC_ASSESSMENT","stats":[{"groupId":"EG000","numEvents":0,"numAffected":0,"numAtRisk":5523},{"groupId":"EG001","numEvents":2,"numAffected":2,"numAtRisk":5493}]},{"term":"Pneumonitis","organSystem":"Respiratory, thoracic and mediastinal disorders","sourceVocabulary":"MedDRA 22.1","assessmentType":"SYSTEMATIC_ASSESSMENT","stats":[{"groupId":"EG000","numEvents":1,"numAffected":1,"numAtRisk":5523},{"groupId":"EG001","numEvents":0,"numAffected":0,"numAtRisk":5493}]},{"term":"Pulmonary embolism","organSystem":"Respiratory, thoracic and mediastinal disorders","sourceVocabulary":"MedDRA 22.1","assessmentType":"SYSTEMATIC_ASSESSMENT","stats":[{"groupId":"EG000","numEvents":9,"numAffected":9,"numAtRisk":5523},{"groupId":"EG001","numEvents":5,"numAffected":5,"numAtRisk":5493}]},{"term":"Pulmonary granuloma","organSystem":"Respiratory, thoracic and mediastinal disorders","sourceVocabulary":"MedDRA 22.1","assessmentType":"SYSTEMATIC_ASSESSMENT","stats":[{"groupId":"EG000","numEvents":0,"numAffected":0,"numAtRisk":5523},{"groupId":"EG001","numEvents":1,"numAffected":1,"numAtRisk":5493}]},{"term":"Respiratory failure","organSystem":"Respiratory, thoracic and mediastinal disorders","sourceVocabulary":"MedDRA 22.1","assessmentType":"SYSTEMATIC_ASSESSMENT","stats":[{"groupId":"EG000","numEvents":1,"numAffected":1,"numAtRisk":5523},{"groupId":"EG001","numEvents":0,"numAffected":0,"numAtRisk":5493}]},{"term":"Respiratory tract haemorrhage","organSystem":"Respiratory, thoracic and mediastinal disorders","sourceVocabulary":"MedDRA 22.1","assessmentType":"SYSTEMATIC_ASSESSMENT","stats":[{"groupId":"EG000","numEvents":1,"numAffected":1,"numAtRisk":5523},{"groupId":"EG001","numEvents":0,"numAffected":0,"numAtRisk":5493}]},{"term":"Angioedema","organSystem":"Skin and subcutaneous tissue disorders","sourceVocabulary":"MedDRA 22.1","assessmentType":"SYSTEMATIC_ASSESSMENT","stats":[{"groupId":"EG000","numEvents":0,"numAffected":0,"numAtRisk":5523},{"groupId":"EG001","numEvents":1,"numAffected":1,"numAtRisk":5493}]},{"term":"Ecchymosis","organSystem":"Skin and subcutaneous tissue disorders","sourceVocabulary":"MedDRA 22.1","assessmentType":"SYSTEMATIC_ASSESSMENT","stats":[{"groupId":"EG000","numEvents":1,"numAffected":1,"numAtRisk":5523},{"groupId":"EG001","numEvents":0,"numAffected":0,"numAtRisk":5493}]},{"term":"Rash","organSystem":"Skin and subcutaneous tissue disorders","sourceVocabulary":"MedDRA 22.1","assessmentType":"SYSTEMATIC_ASSESSMENT","stats":[{"groupId":"EG000","numEvents":1,"numAffected":1,"numAtRisk":5523},{"groupId":"EG001","numEvents":0,"numAffected":0,"numAtRisk":5493}]},{"term":"Urticaria","organSystem":"Skin and subcutaneous tissue disorders","sourceVocabulary":"MedDRA 22.1","assessmentType":"SYSTEMATIC_ASSESSMENT","stats":[{"groupId":"EG000","numEvents":0,"numAffected":0,"numAtRisk":5523},{"groupId":"EG001","numEvents":1,"numAffected":1,"numAtRisk":5493}]},{"term":"Aortic dissection","organSystem":"Vascular disorders","sourceVocabulary":"MedDRA 22.1","assessmentType":"SYSTEMATIC_ASSESSMENT","stats":[{"groupId":"EG000","numEvents":1,"numAffected":1,"numAtRisk":5523},{"groupId":"EG001","numEvents":0,"numAffected":0,"numAtRisk":5493}]},{"term":"Aortic intramural haematoma","organSystem":"Vascular disorders","sourceVocabulary":"MedDRA 22.1","assessmentType":"SYSTEMATIC_ASSESSMENT","stats":[{"groupId":"EG000","numEvents":1,"numAffected":1,"numAtRisk":5523},{"groupId":"EG001","numEvents":0,"numAffected":0,"numAtRisk":5493}]},{"term":"Aortic stenosis","organSystem":"Vascular disorders","sourceVocabulary":"MedDRA 22.1","assessmentType":"SYSTEMATIC_ASSESSMENT","stats":[{"groupId":"EG000","numEvents":0,"numAffected":0,"numAtRisk":5523},{"groupId":"EG001","numEvents":1,"numAffected":1,"numAtRisk":5493}]},{"term":"Arterial stenosis","organSystem":"Vascular disorders","sourceVocabulary":"MedDRA 22.1","assessmentType":"SYSTEMATIC_ASSESSMENT","stats":[{"groupId":"EG000","numEvents":1,"numAffected":1,"numAtRisk":5523},{"groupId":"EG001","numEvents":0,"numAffected":0,"numAtRisk":5493}]},{"term":"Arteritis","organSystem":"Vascular disorders","sourceVocabulary":"MedDRA 22.1","assessmentType":"SYSTEMATIC_ASSESSMENT","stats":[{"groupId":"EG000","numEvents":0,"numAffected":0,"numAtRisk":5523},{"groupId":"EG001","numEvents":1,"numAffected":1,"numAtRisk":5493}]},{"term":"Circulatory collapse","organSystem":"Vascular disorders","sourceVocabulary":"MedDRA 22.1","assessmentType":"SYSTEMATIC_ASSESSMENT","stats":[{"groupId":"EG000","numEvents":1,"numAffected":1,"numAtRisk":5523},{"groupId":"EG001","numEvents":0,"numAffected":0,"numAtRisk":5493}]},{"term":"Deep vein thrombosis","organSystem":"Vascular disorders","sourceVocabulary":"MedDRA 22.1","assessmentType":"SYSTEMATIC_ASSESSMENT","stats":[{"groupId":"EG000","numEvents":0,"numAffected":0,"numAtRisk":5523},{"groupId":"EG001","numEvents":2,"numAffected":2,"numAtRisk":5493}]},{"term":"Haematoma","organSystem":"Vascular disorders","sourceVocabulary":"MedDRA 22.1","assessmentType":"SYSTEMATIC_ASSESSMENT","stats":[{"groupId":"EG000","numEvents":0,"numAffected":0,"numAtRisk":5523},{"groupId":"EG001","numEvents":1,"numAffected":1,"numAtRisk":5493}]},{"term":"Hypertension","organSystem":"Vascular disorders","sourceVocabulary":"MedDRA 22.1","assessmentType":"SYSTEMATIC_ASSESSMENT","stats":[{"groupId":"EG000","numEvents":5,"numAffected":5,"numAtRisk":5523},{"groupId":"EG001","numEvents":6,"numAffected":5,"numAtRisk":5493}]},{"term":"Hypertensive crisis","organSystem":"Vascular disorders","sourceVocabulary":"MedDRA 22.1","assessmentType":"SYSTEMATIC_ASSESSMENT","stats":[{"groupId":"EG000","numEvents":3,"numAffected":3,"numAtRisk":5523},{"groupId":"EG001","numEvents":4,"numAffected":4,"numAtRisk":5493}]},{"term":"Hypertensive urgency","organSystem":"Vascular disorders","sourceVocabulary":"MedDRA 22.1","assessmentType":"SYSTEMATIC_ASSESSMENT","stats":[{"groupId":"EG000","numEvents":1,"numAffected":1,"numAtRisk":5523},{"groupId":"EG001","numEvents":1,"numAffected":1,"numAtRisk":5493}]},{"term":"Hypotension","organSystem":"Vascular disorders","sourceVocabulary":"MedDRA 22.1","assessmentType":"SYSTEMATIC_ASSESSMENT","stats":[{"groupId":"EG000","numEvents":0,"numAffected":0,"numAtRisk":5523},{"groupId":"EG001","numEvents":1,"numAffected":1,"numAtRisk":5493}]},{"term":"Penetrating aortic ulcer","organSystem":"Vascular disorders","sourceVocabulary":"MedDRA 22.1","assessmentType":"SYSTEMATIC_ASSESSMENT","stats":[{"groupId":"EG000","numEvents":0,"numAffected":0,"numAtRisk":5523},{"groupId":"EG001","numEvents":1,"numAffected":1,"numAtRisk":5493}]},{"term":"Peripheral arterial occlusive disease","organSystem":"Vascular disorders","sourceVocabulary":"MedDRA 22.1","assessmentType":"SYSTEMATIC_ASSESSMENT","stats":[{"groupId":"EG000","numEvents":1,"numAffected":1,"numAtRisk":5523},{"groupId":"EG001","numEvents":2,"numAffected":2,"numAtRisk":5493}]},{"term":"Peripheral ischaemia","organSystem":"Vascular disorders","sourceVocabulary":"MedDRA 22.1","assessmentType":"SYSTEMATIC_ASSESSMENT","stats":[{"groupId":"EG000","numEvents":1,"numAffected":1,"numAtRisk":5523},{"groupId":"EG001","numEvents":0,"numAffected":0,"numAtRisk":5493}]},{"term":"Subclavian artery stenosis","organSystem":"Vascular disorders","sourceVocabulary":"MedDRA 22.1","assessmentType":"SYSTEMATIC_ASSESSMENT","stats":[{"groupId":"EG000","numEvents":0,"numAffected":0,"numAtRisk":5523},{"groupId":"EG001","numEvents":1,"numAffected":1,"numAtRisk":5493}]},{"term":"Vasculitis","organSystem":"Vascular disorders","sourceVocabulary":"MedDRA 22.1","assessmentType":"SYSTEMATIC_ASSESSMENT","stats":[{"groupId":"EG000","numEvents":1,"numAffected":1,"numAtRisk":5523},{"groupId":"EG001","numEvents":0,"numAffected":0,"numAtRisk":5493}]},{"term":"Vena cava thrombosis","organSystem":"Vascular disorders","sourceVocabulary":"MedDRA 22.1","assessmentType":"SYSTEMATIC_ASSESSMENT","stats":[{"groupId":"EG000","numEvents":1,"numAffected":1,"numAtRisk":5523},{"groupId":"EG001","numEvents":0,"numAffected":0,"numAtRisk":5493}]}]},"moreInfoModule":{"certainAgreement":{"piSponsorEmployee":false,"restrictionType":"GT60","restrictiveAgreement":true},"pointOfContact":{"title":"Global Clinical Lead","organization":"Study Information Center","email":"information.center@astrazeneca.com","phone":"+1-877-240-9479"}}},"documentSection":{"largeDocumentModule":{"largeDocs":[{"typeAbbrev":"SAP","hasProtocol":false,"hasSap":true,"hasIcf":false,"label":"Statistical Analysis Plan","date":"2019-12-09","uploadDate":"2020-11-18T04:35","filename":"SAP_000.pdf","size":616805},{"typeAbbrev":"Prot","hasProtocol":true,"hasSap":false,"hasIcf":false,"label":"Study Protocol","date":"2019-05-08","uploadDate":"2020-11-18T04:35","filename":"Prot_001.pdf","size":3838437}]}},"derivedSection":{"miscInfoModule":{"versionHolder":"2024-02-14"},"conditionBrowseModule":{"meshes":[{"id":"D000020521","term":"Stroke"},{"id":"D000083242","term":"Ischemic Stroke"},{"id":"D000002546","term":"Ischemic Attack, Transient"},{"id":"D000007511","term":"Ischemia"}],"ancestors":[{"id":"D000002561","term":"Cerebrovascular Disorders"},{"id":"D000001927","term":"Brain Diseases"},{"id":"D000002493","term":"Central Nervous System Diseases"},{"id":"D000009422","term":"Nervous System Diseases"},{"id":"D000014652","term":"Vascular Diseases"},{"id":"D000002318","term":"Cardiovascular Diseases"},{"id":"D000010335","term":"Pathologic Processes"},{"id":"D000002545","term":"Brain Ischemia"}],"browseLeaves":[{"id":"M21996","name":"Stroke","asFound":"Stroke","relevance":"HIGH"},{"id":"M6535","name":"Death","relevance":"LOW"},{"id":"M10233","name":"Ischemia","asFound":"Ischemic","relevance":"HIGH"},{"id":"M2401","name":"Ischemic Stroke","asFound":"Ischemic Stroke","relevance":"HIGH"},{"id":"M5485","name":"Ischemic Attack, Transient","asFound":"Transient Ischemic Attack","relevance":"HIGH"},{"id":"M5500","name":"Cerebrovascular Disorders","relevance":"LOW"},{"id":"M4894","name":"Brain Diseases","relevance":"LOW"},{"id":"M5432","name":"Central Nervous System Diseases","relevance":"LOW"},{"id":"M17090","name":"Vascular Diseases","relevance":"LOW"},{"id":"M5484","name":"Brain Ischemia","relevance":"LOW"},{"id":"T170","name":"Acute Graft Versus Host Disease","relevance":"LOW"}],"browseBranches":[{"abbrev":"BC10","name":"Nervous System Diseases"},{"abbrev":"BC14","name":"Heart and Blood Diseases"},{"abbrev":"All","name":"All Conditions"},{"abbrev":"BC23","name":"Symptoms and General Pathology"},{"abbrev":"Rare","name":"Rare Diseases"}]},"interventionBrowseModule":{"meshes":[{"id":"D000077486","term":"Ticagrelor"}],"ancestors":[{"id":"D000010975","term":"Platelet Aggregation Inhibitors"},{"id":"D000058921","term":"Purinergic P2Y Receptor Antagonists"},{"id":"D000058919","term":"Purinergic P2 Receptor Antagonists"},{"id":"D000058914","term":"Purinergic Antagonists"},{"id":"D000058905","term":"Purinergic Agents"},{"id":"D000018377","term":"Neurotransmitter Agents"},{"id":"D000045504","term":"Molecular Mechanisms of Pharmacological Action"},{"id":"D000045505","term":"Physiological Effects of Drugs"}],"browseLeaves":[{"id":"M1812","name":"Ticagrelor","asFound":"DNA","relevance":"HIGH"},{"id":"M13555","name":"Platelet Aggregation Inhibitors","relevance":"LOW"},{"id":"M28984","name":"Purinergic P2Y Receptor Antagonists","relevance":"LOW"},{"id":"M20194","name":"Neurotransmitter Agents","relevance":"LOW"}],"browseBranches":[{"abbrev":"PlAggInh","name":"Platelet Aggregation Inhibitors"},{"abbrev":"All","name":"All Drugs and Chemicals"}]}},"hasResults":true}