{"protocolSection":{"identificationModule":{"nctId":"NCT00147602","orgStudyIdInfo":{"id":"0981-342"},"secondaryIdInfos":[{"id":"A2581138"}],"organization":{"fullName":"Pfizer","class":"INDUSTRY"},"briefTitle":"Lipitor In The Prevention Of Stroke, For Patients Who Have Had A Previous Stroke","officialTitle":"A Double-Blind, Randomized, Placebo- Controlled Study Of Atorvastatin As Prevention Of Cerebrovascular Events In Patients With A Previous Transient Ischemic Attack (TIA) Or Stroke","acronym":"SPARCL"},"statusModule":{"statusVerifiedDate":"2015-04","overallStatus":"COMPLETED","startDateStruct":{"date":"1998-11"},"completionDateStruct":{"date":"2005-11"},"studyFirstSubmitDate":"2005-09-06","studyFirstSubmitQcDate":"2005-09-06","studyFirstPostDateStruct":{"date":"2005-09-07","type":"ESTIMATED"},"lastUpdateSubmitDate":"2015-04-21","lastUpdatePostDateStruct":{"date":"2015-04-22","type":"ESTIMATED"}},"sponsorCollaboratorsModule":{"leadSponsor":{"name":"Pfizer","class":"INDUSTRY"}},"descriptionModule":{"briefSummary":"To determine whether Lipitor reduces stroke, compared to placebo in patients who have had a previous stroke or transient ischemic attack."},"conditionsModule":{"conditions":["Cardiovascular Disease"]},"designModule":{"studyType":"INTERVENTIONAL","phases":["PHASE4"],"designInfo":{"allocation":"RANDOMIZED","interventionModel":"PARALLEL","primaryPurpose":"TREATMENT","maskingInfo":{"masking":"DOUBLE"}},"enrollmentInfo":{"count":4732}},"armsInterventionsModule":{"interventions":[{"type":"DRUG","name":"atorvastatin"}]},"outcomesModule":{"primaryOutcomes":[{"measure":"Time to occurrence of fatal or non-fatal stroke"}],"secondaryOutcomes":[{"measure":"Time to occurrence of an acute coronary event, consisting of cardiac death, nonfatal myocardial infarction, resuscitated cardiac arrest or unstable angina."},{"measure":"Time to occurrence of a cerebrovascular event, defined as fatal or nonfatal stroke or TIA."}]},"eligibilityModule":{"eligibilityCriteria":"Inclusion Criteria:\n\n* Previous stroke or TIA\n\nExclusion Criteria:\n\n* coronary heart disease","healthyVolunteers":false,"sex":"ALL","minimumAge":"18 Years","stdAges":["ADULT","OLDER_ADULT"]},"contactsLocationsModule":{"overallOfficials":[{"name":"Pfizer CT.gov Call Center","affiliation":"Pfizer","role":"STUDY_DIRECTOR"}],"locations":[{"facility":"Pfizer Investigational Site","city":"East Gosford","state":"New South Wales","zip":"2250","country":"Australia","geoPoint":{"lat":-33.43874,"lon":151.35338}},{"facility":"Pfizer Investigational Site","city":"Randwick, Sydney","state":"New South Wales","zip":"2031","country":"Australia"},{"facility":"Pfizer Investigational Site","city":"Footscray","state":"Victoria","zip":"3011","country":"Australia","geoPoint":{"lat":-37.8,"lon":144.9}},{"facility":"Pfizer Investigational Site","city":"Heidelberg Heights","state":"Victoria","zip":"3081","country":"Australia","geoPoint":{"lat":-37.74313,"lon":145.05695}},{"facility":"Pfizer Investigational Site","city":"Parkville","state":"Victoria","zip":"3050","country":"Australia","geoPoint":{"lat":-37.78333,"lon":144.95}},{"facility":"Pfizer Investigational Site","city":"Prahran","state":"Victoria","zip":"3181","country":"Australia","geoPoint":{"lat":-37.85114,"lon":144.99318}},{"facility":"Pfizer Investigational Site","city":"Perth","state":"Western Australia","zip":"6000","country":"Australia","geoPoint":{"lat":-31.95224,"lon":115.8614}},{"facility":"Pfizer Investigational Site","city":"Graz","zip":"A-8036","country":"Austria","geoPoint":{"lat":47.06667,"lon":15.45}},{"facility":"Pfizer Investigational Site","city":"Innsbruck","zip":"A-6020","country":"Austria","geoPoint":{"lat":47.26266,"lon":11.39454}},{"facility":"Pfizer Investigational Site","city":"Villach","zip":"A-9504","country":"Austria","geoPoint":{"lat":46.61028,"lon":13.85583}},{"facility":"Pfizer Investigational Site","city":"Wien","zip":"1160","country":"Austria","geoPoint":{"lat":48.20849,"lon":16.37208}},{"facility":"Pfizer Investigational Site","city":"Gent","zip":"9000","country":"Belgium","geoPoint":{"lat":51.05,"lon":3.71667}},{"facility":"Pfizer Investigational Site","city":"Leuven","zip":"3000","country":"Belgium","geoPoint":{"lat":50.87959,"lon":4.70093}},{"facility":"Pfizer Investigational Site","city":"Tielt","zip":"8700","country":"Belgium","geoPoint":{"lat":50.99931,"lon":3.32707}},{"facility":"Pfizer Investigational Site","city":"Waregem","zip":"8790","country":"Belgium","geoPoint":{"lat":50.88898,"lon":3.42756}},{"facility":"Pfizer Investigational Site","city":"Porto Alegre","state":"RS","zip":"90610-000","country":"Brazil","geoPoint":{"lat":-30.03306,"lon":-51.23}},{"facility":"Pfizer Investigational Site","city":"Sao Paulo","state":"SP","zip":"05403-000","country":"Brazil","geoPoint":{"lat":-23.5475,"lon":-46.63611}},{"facility":"Pfizer Investigational Site","city":"Vina Del Mar","country":"Chile","geoPoint":{"lat":-33.02457,"lon":-71.55183}},{"facility":"Pfizer Investigational Site","city":"Brno","zip":"65691","country":"Czech Republic","geoPoint":{"lat":49.19522,"lon":16.60796}},{"facility":"Pfizer Investigational Site","city":"Ostrava-Poruba","zip":"70852","country":"Czech Republic","geoPoint":{"lat":49.83465,"lon":18.28204}},{"facility":"Pfizer Investigational Site","city":"Ostrava","zip":"70384","country":"Czech Republic","geoPoint":{"lat":49.83465,"lon":18.28204}},{"facility":"Pfizer Investigational Site","city":"Pilsen","zip":"30599","country":"Czech Republic","geoPoint":{"lat":49.74747,"lon":13.37759}},{"facility":"Pfizer Investigational Site","city":"Prague 4","zip":"14021","country":"Czech Republic","geoPoint":{"lat":50.08804,"lon":14.42076}},{"facility":"Pfizer Investigational Site","city":"Zlin","zip":"76275","country":"Czech Republic","geoPoint":{"lat":49.22645,"lon":17.67065}},{"facility":"Pfizer Investigational Site","city":"Copenhagen Nv","zip":"2400","country":"Denmark","geoPoint":{"lat":55.67594,"lon":12.56553}},{"facility":"Pfizer Investigational Site","city":"Glostrup","zip":"2600","country":"Denmark","geoPoint":{"lat":55.6666,"lon":12.40377}},{"facility":"Pfizer Investigational Site","city":"Hellerup","zip":"2900","country":"Denmark","geoPoint":{"lat":55.73204,"lon":12.57093}},{"facility":"Pfizer Investigational Site","city":"Hus, Helsinki","zip":"00029","country":"Finland"},{"facility":"Pfizer Investigational Site","city":"Kotka","zip":"48210","country":"Finland","geoPoint":{"lat":60.4664,"lon":26.94577}},{"facility":"Pfizer Investigational Site","city":"Kuopio","zip":"70210","country":"Finland","geoPoint":{"lat":62.89238,"lon":27.67703}},{"facility":"Pfizer Investigational Site","city":"Lahti","zip":"15850","country":"Finland","geoPoint":{"lat":60.98267,"lon":25.66151}},{"facility":"Pfizer Investigational Site","city":"Lappeenranta","zip":"53130","country":"Finland","geoPoint":{"lat":61.05871,"lon":28.18871}},{"facility":"Pfizer Investigational Site","city":"Oulu","zip":"90220","country":"Finland","geoPoint":{"lat":65.01236,"lon":25.46816}},{"facility":"Pfizer Investigational Site","city":"Saint Denis","state":"Cedex 1","zip":"93205","country":"France","geoPoint":{"lat":48.93326,"lon":2.36666}},{"facility":"Pfizer Investigational Site","city":"Paris","state":"Cedex 20","zip":"75970","country":"France","geoPoint":{"lat":48.85341,"lon":2.3488}},{"facility":"Pfizer Investigational Site","city":"Toulouse","state":"Cedex 3","zip":"31059","country":"France","geoPoint":{"lat":43.60426,"lon":1.44367}},{"facility":"Pfizer Investigational Site","city":"Bourg En Bresse","state":"Cedex","zip":"01012","country":"France","geoPoint":{"lat":46.20574,"lon":5.2258}},{"facility":"Pfizer Investigational Site","city":"Besancon","zip":"25030","country":"France","geoPoint":{"lat":47.24878,"lon":6.01815}},{"facility":"Pfizer Investigational Site","city":"Marseille","zip":"13385","country":"France","geoPoint":{"lat":43.29551,"lon":5.38958}},{"facility":"Pfizer Investigational Site","city":"Nice","zip":"06000","country":"France","geoPoint":{"lat":43.70313,"lon":7.26608}},{"facility":"Pfizer Investigational Site","city":"Paris","zip":"75018","country":"France","geoPoint":{"lat":48.85341,"lon":2.3488}},{"facility":"Pfizer Investigational Site","city":"Bad Rodach","zip":"96476","country":"Germany"},{"facility":"Pfizer Investigational Site","city":"Berlin","zip":"10117","country":"Germany","geoPoint":{"lat":52.52437,"lon":13.41053}},{"facility":"Pfizer Investigational Site","city":"Essen","zip":"45122","country":"Germany","geoPoint":{"lat":51.45657,"lon":7.01228}},{"facility":"Pfizer Investigational Site","city":"Heidelberg","country":"Germany","geoPoint":{"lat":49.40768,"lon":8.69079}},{"facility":"Pfizer Investigational Site","city":"Leipzig","zip":"04103","country":"Germany","geoPoint":{"lat":51.33962,"lon":12.37129}},{"facility":"Pfizer Investigational Site","city":"Mannheim","zip":"69135","country":"Germany","geoPoint":{"lat":49.4891,"lon":8.46694}},{"facility":"Pfizer Investigational Site","city":"Minden","zip":"32427","country":"Germany","geoPoint":{"lat":52.28953,"lon":8.91455}},{"facility":"Pfizer Investigational Site","city":"Muenchen","zip":"81377","country":"Germany","geoPoint":{"lat":51.60698,"lon":13.31243}},{"facility":"Pfizer Investigational Site","city":"Muenchen","zip":"81545","country":"Germany","geoPoint":{"lat":51.60698,"lon":13.31243}},{"facility":"Pfizer Investigational Site","city":"Muenchen","zip":"81675","country":"Germany","geoPoint":{"lat":51.60698,"lon":13.31243}},{"facility":"Pfizer Investigational Site","city":"Muenster","zip":"48149","country":"Germany","geoPoint":{"lat":51.96236,"lon":7.62571}},{"facility":"Pfizer Investigational Site","city":"Regensburg","zip":"93053","country":"Germany","geoPoint":{"lat":49.01513,"lon":12.10161}},{"facility":"Pfizer Investigational Site","city":"Athens","state":"Melissia","zip":"15127","country":"Greece","geoPoint":{"lat":37.97945,"lon":23.71622}},{"facility":"Pfizer Investigational Site","city":"Athens","zip":"11527","country":"Greece","geoPoint":{"lat":37.97945,"lon":23.71622}},{"facility":"Pfizer Investigational Site","city":"Athens","zip":"15127","country":"Greece","geoPoint":{"lat":37.97945,"lon":23.71622}},{"facility":"Pfizer Investigational Site","city":"Thessaloniki","zip":"54636","country":"Greece","geoPoint":{"lat":40.64361,"lon":22.93086}},{"facility":"Pfizer Investigational Site","city":"Thessaloniki","zip":"57010","country":"Greece","geoPoint":{"lat":40.64361,"lon":22.93086}},{"facility":"Pfizer Investigational Site","city":"Haifa","zip":"34362","country":"Israel","geoPoint":{"lat":32.81841,"lon":34.9885}},{"facility":"Pfizer Investigational Site","city":"Holon","zip":"58100","country":"Israel","geoPoint":{"lat":32.01034,"lon":34.77918}},{"facility":"Pfizer Investigational Site","city":"Petach-tikva","zip":"49372","country":"Israel","geoPoint":{"lat":32.08707,"lon":34.88747}},{"facility":"Pfizer Investigational Site","city":"Tel Aviv","country":"Israel","geoPoint":{"lat":32.08088,"lon":34.78057}},{"facility":"Pfizer Investigational Site","city":"Via Brunamonti 15","state":"Perugia","zip":"06122","country":"Italy"},{"facility":"Pfizer Investigational Site","city":"Bari","zip":"70124","country":"Italy","geoPoint":{"lat":41.11148,"lon":16.8554}},{"facility":"Pfizer Investigational Site","city":"Bergamo","zip":"24128","country":"Italy","geoPoint":{"lat":45.69601,"lon":9.66721}},{"facility":"Pfizer Investigational Site","city":"Genova","zip":"16132","country":"Italy","geoPoint":{"lat":44.40478,"lon":8.94438}},{"facility":"Pfizer Investigational Site","city":"Milano","zip":"20132","country":"Italy","geoPoint":{"lat":45.46427,"lon":9.18951}},{"facility":"Pfizer Investigational Site","city":"Monza","zip":"20052","country":"Italy","geoPoint":{"lat":45.58005,"lon":9.27246}},{"facility":"Pfizer Investigational Site","city":"Monterrey","state":"Nuevo Leon","zip":"64460","country":"Mexico","geoPoint":{"lat":25.67507,"lon":-100.31847}},{"facility":"Pfizer Investigational Site","city":"Rotterdam","state":"GD","zip":"3015","country":"Netherlands","geoPoint":{"lat":51.9225,"lon":4.47917}},{"facility":"Pfizer Investigational Site","city":"Almelo","zip":"7609 PP","country":"Netherlands","geoPoint":{"lat":52.35667,"lon":6.6625}},{"facility":"Pfizer Investigational Site","city":"Delft","zip":"2625 AD","country":"Netherlands","geoPoint":{"lat":52.00667,"lon":4.35556}},{"facility":"Pfizer Investigational Site","city":"Goes","zip":"4462 RA","country":"Netherlands","geoPoint":{"lat":51.50417,"lon":3.88889}},{"facility":"Pfizer Investigational Site","city":"RB Groningen","zip":"9700","country":"Netherlands"},{"facility":"Pfizer Investigational Site","city":"Tilburg","zip":"5022 GC","country":"Netherlands","geoPoint":{"lat":51.55551,"lon":5.0913}},{"facility":"Pfizer Investigational Site","city":"Takapuna","state":"Auckland","country":"New Zealand","geoPoint":{"lat":-36.79167,"lon":174.77583}},{"facility":"Pfizer Investigational Site","city":"Auckland","country":"New Zealand","geoPoint":{"lat":-36.84853,"lon":174.76349}},{"facility":"Pfizer Investigational Site","city":"Christchurch","country":"New Zealand","geoPoint":{"lat":-43.53333,"lon":172.63333}},{"facility":"Pfizer Investigational Site","city":"Bialystok","zip":"15-276","country":"Poland","geoPoint":{"lat":53.13333,"lon":23.16433}},{"facility":"Pfizer Investigational Site","city":"Krakow","zip":"31-503","country":"Poland","geoPoint":{"lat":50.06143,"lon":19.93658}},{"facility":"Pfizer Investigational Site","city":"Lublin","zip":"20-954","country":"Poland","geoPoint":{"lat":51.25,"lon":22.56667}},{"facility":"Pfizer Investigational Site","city":"Poznan","zip":"30-355","country":"Poland","geoPoint":{"lat":52.40692,"lon":16.92993}},{"facility":"Pfizer Investigational Site","city":"Sosnowiec","zip":"41-200","country":"Poland","geoPoint":{"lat":50.28682,"lon":19.10385}},{"facility":"Pfizer Investigational Site","city":"Warszawa","zip":"01-211","country":"Poland","geoPoint":{"lat":52.22977,"lon":21.01178}},{"facility":"Pfizer Investigational Site","city":"Warszawa","zip":"02 - 957","country":"Poland","geoPoint":{"lat":52.22977,"lon":21.01178}},{"facility":"Pfizer Investigational Site","city":"Wroclaw","zip":"50-420","country":"Poland","geoPoint":{"lat":51.1,"lon":17.03333}},{"facility":"Pfizer Investigational Site","city":"Coimbra Codex","zip":"3049","country":"Portugal"},{"facility":"Pfizer Investigational Site","city":"Lisboa","zip":"1600","country":"Portugal","geoPoint":{"lat":38.71667,"lon":-9.13333}},{"facility":"Pfizer Investigational Site","city":"Porto","zip":"4000","country":"Portugal","geoPoint":{"lat":41.14961,"lon":-8.61099}},{"facility":"Pfizer Investigational Site","city":"Bratislava","zip":"81369","country":"Slovakia","geoPoint":{"lat":48.14816,"lon":17.10674}},{"facility":"Pfizer Investigational Site","city":"Bratislava","zip":"83301","country":"Slovakia","geoPoint":{"lat":48.14816,"lon":17.10674}},{"facility":"Pfizer Investigational Site","city":"Bloemfontein","zip":"9301","country":"South Africa","geoPoint":{"lat":-29.12107,"lon":26.214}},{"facility":"Pfizer Investigational Site","city":"Cape Town","zip":"7800","country":"South Africa","geoPoint":{"lat":-33.92584,"lon":18.42322}},{"facility":"Pfizer Investigational Site","city":"Parow","zip":"7505","country":"South Africa","geoPoint":{"lat":-33.89723,"lon":18.59992}},{"facility":"Pfizer Investigational Site","city":"L'Hospitalet (BCN)","state":"Barcelona","zip":"08907","country":"Spain"},{"facility":"Pfizer Investigational Site","city":"MÃ¡laga","state":"Malaga","zip":"29010","country":"Spain"},{"facility":"Pfizer Investigational Site","city":"Alicante","zip":"03010","country":"Spain","geoPoint":{"lat":38.34517,"lon":-0.48149}},{"facility":"Pfizer Investigational Site","city":"Barcelona","zip":"08035","country":"Spain","geoPoint":{"lat":41.38879,"lon":2.15899}},{"facility":"Pfizer Investigational Site","city":"Barcelona","zip":"08036","country":"Spain","geoPoint":{"lat":41.38879,"lon":2.15899}},{"facility":"Pfizer Investigational Site","city":"Burgos","zip":"09005","country":"Spain","geoPoint":{"lat":42.34106,"lon":-3.70184}},{"facility":"Pfizer Investigational Site","city":"Girona","zip":"17007","country":"Spain","geoPoint":{"lat":41.98311,"lon":2.82493}},{"facility":"Pfizer Investigational Site","city":"Madrid","zip":"28006","country":"Spain","geoPoint":{"lat":40.4165,"lon":-3.70256}},{"facility":"Pfizer Investigational Site","city":"Madrid","zip":"28040","country":"Spain","geoPoint":{"lat":40.4165,"lon":-3.70256}},{"facility":"Pfizer Investigational Site","city":"Madrid","zip":"28046","country":"Spain","geoPoint":{"lat":40.4165,"lon":-3.70256}},{"facility":"Pfizer Investigational Site","city":"Palma de Mallorca","zip":"07014","country":"Spain","geoPoint":{"lat":39.56939,"lon":2.65024}},{"facility":"Pfizer Investigational Site","city":"Sevilla","zip":"41009","country":"Spain","geoPoint":{"lat":37.38283,"lon":-5.97317}},{"facility":"Pfizer Investigational Site","city":"Sevilla","zip":"41013","country":"Spain","geoPoint":{"lat":37.38283,"lon":-5.97317}},{"facility":"Pfizer Investigational Site","city":"Sevilla","zip":"41014","country":"Spain","geoPoint":{"lat":37.38283,"lon":-5.97317}},{"facility":"Pfizer Investigational Site","city":"Valencia","zip":"46009","country":"Spain","geoPoint":{"lat":39.46975,"lon":-0.37739}},{"facility":"Pfizer Investigational Site","city":"Zaragoza","zip":"50009","country":"Spain","geoPoint":{"lat":41.65606,"lon":-0.87734}},{"facility":"Pfizer Investigational Site","city":"Danderyd","zip":"18288","country":"Sweden","geoPoint":{"lat":59.3987,"lon":18.02942}},{"facility":"Pfizer Investigational Site","city":"Stockholm","zip":"11281","country":"Sweden","geoPoint":{"lat":59.33258,"lon":18.0649}},{"facility":"Pfizer Investigational Site","city":"Stockholm","zip":"17176","country":"Sweden","geoPoint":{"lat":59.33258,"lon":18.0649}},{"facility":"Pfizer Investigational Site","city":"Umea","zip":"90185","country":"Sweden","geoPoint":{"lat":63.82842,"lon":20.25972}},{"facility":"Pfizer Investigational Site","city":"Uppsala","zip":"75185","country":"Sweden","geoPoint":{"lat":59.85882,"lon":17.63889}},{"facility":"Pfizer Investigational Site","city":"Vaestervik","zip":"59381","country":"Sweden"},{"facility":"Pfizer Investigational Site","city":"Aarau","zip":"5001","country":"Switzerland","geoPoint":{"lat":47.39254,"lon":8.04422}},{"facility":"Pfizer Investigational Site","city":"Basel","zip":"4031","country":"Switzerland","geoPoint":{"lat":47.55839,"lon":7.57327}},{"facility":"Pfizer Investigational Site","city":"Bern","zip":"3010","country":"Switzerland","geoPoint":{"lat":46.94809,"lon":7.44744}},{"facility":"Pfizer Investigational Site","city":"Lausanne","zip":"1011","country":"Switzerland","geoPoint":{"lat":46.516,"lon":6.63282}},{"facility":"Pfizer Investigational Site","city":"Zurich","zip":"8091","country":"Switzerland","geoPoint":{"lat":47.36667,"lon":8.54999}},{"facility":"Pfizer Investigational Site","city":"Dundee","state":"Scotland","zip":"DD1 9SY","country":"United Kingdom","geoPoint":{"lat":56.46913,"lon":-2.97489}},{"facility":"Pfizer Investigational Site","city":"Newport","state":"South Wales","zip":"NP20 4SZ","country":"United Kingdom","geoPoint":{"lat":51.58774,"lon":-2.99835}},{"facility":"Pfizer Investigational Site","city":"Aberdeen","zip":"AB25 2ZN","country":"United Kingdom","geoPoint":{"lat":57.14369,"lon":-2.09814}},{"facility":"Pfizer Investigational Site","city":"Cardiff","zip":"CF4 4XW","country":"United Kingdom","geoPoint":{"lat":51.48,"lon":-3.18}},{"facility":"Pfizer Investigational Site","city":"Glasgow","zip":"G11 6NT","country":"United Kingdom","geoPoint":{"lat":55.86515,"lon":-4.25763}},{"facility":"Pfizer Investigational Site","city":"Liverpool","zip":"L9 7AL","country":"United Kingdom","geoPoint":{"lat":53.41058,"lon":-2.97794}},{"facility":"Pfizer Investigational Site","city":"Nottingham","zip":"NG5 1PB","country":"United Kingdom","geoPoint":{"lat":52.9536,"lon":-1.15047}},{"facility":"Pfizer Investigational Site","city":"Woolwich","zip":"SE18 4HQ","country":"United Kingdom","geoPoint":{"lat":51.491,"lon":0.0648}},{"facility":"Pfizer Investigational Site","city":"Caracas","zip":"1041","country":"Venezuela","geoPoint":{"lat":10.48801,"lon":-66.87919}}]},"referencesModule":{"references":[{"pmid":"16899775","type":"RESULT","citation":"Amarenco P, Bogousslavsky J, Callahan A 3rd, Goldstein LB, Hennerici M, Rudolph AE, Sillesen H, Simunovic L, Szarek M, Welch KM, Zivin JA; Stroke Prevention by Aggressive Reduction in Cholesterol Levels (SPARCL) Investigators. High-dose atorvastatin after stroke or transient ischemic attack. N Engl J Med. 2006 Aug 10;355(6):549-59. doi: 10.1056/NEJMoa061894. Erratum In: N Engl J Med. 2018 Jun 13;:null."},{"pmid":"32194196","type":"DERIVED","citation":"Szarek M, Amarenco P, Callahan A, DeMicco D, Fayyad R, Goldstein LB, Laskey R, Sillesen H, Welch KM; SPARCL Committees and Investigators. Atorvastatin Reduces First and Subsequent Vascular Events Across Vascular Territories: The SPARCL Trial. J Am Coll Cardiol. 2020 May 5;75(17):2110-2118. doi: 10.1016/j.jacc.2020.03.015. Epub 2020 Mar 16."},{"pmid":"31020900","type":"DERIVED","citation":"Vogt L, Bangalore S, Fayyad R, Melamed S, Hovingh GK, DeMicco DA, Waters DD. Atorvastatin Has a Dose-Dependent Beneficial Effect on Kidney Function and Associated Cardiovascular Outcomes: Post Hoc Analysis of 6 Double-Blind Randomized Controlled Trials. J Am Heart Assoc. 2019 May 7;8(9):e010827. doi: 10.1161/JAHA.118.010827."},{"pmid":"29114094","type":"DERIVED","citation":"Ganz P, Amarenco P, Goldstein LB, Sillesen H, Bao W, Preston GM, Welch KMA; SPARCL Steering Committee. Association of Osteopontin, Neopterin, and Myeloperoxidase With Stroke Risk in Patients With Prior Stroke or Transient Ischemic Attacks: Results of an Analysis of 13 Biomarkers From the Stroke Prevention by Aggressive Reduction in Cholesterol Levels Trial. Stroke. 2017 Dec;48(12):3223-3231. doi: 10.1161/STROKEAHA.117.017965. Epub 2017 Nov 7."},{"pmid":"28081824","type":"DERIVED","citation":"Byun YS, Yang X, Bao W, DeMicco D, Laskey R, Witztum JL, Tsimikas S; SPARCL Trial Investigators. Oxidized Phospholipids on Apolipoprotein B-100 and Recurrent Ischemic Events Following Stroke or Transient Ischemic Attack. J Am Coll Cardiol. 2017 Jan 17;69(2):147-158. doi: 10.1016/j.jacc.2016.10.057."},{"pmid":"25147328","type":"DERIVED","citation":"Amarenco P, Callahan A 3rd, Campese VM, Goldstein LB, Hennerici MG, Messig M, Sillesen H, Welch KM, Wilson DJ, Zivin JA. Effect of high-dose atorvastatin on renal function in subjects with stroke or transient ischemic attack in the SPARCL trial. Stroke. 2014 Oct;45(10):2974-82. doi: 10.1161/STROKEAHA.114.005832. Epub 2014 Aug 21."},{"pmid":"24582273","type":"DERIVED","citation":"Ovbiagele B, Goldstein LB, Amarenco P, Messig M, Sillesen H, Callahan A 3rd, Hennerici MG, Zivin J, Welch KM; SPARCL Investigators. Prediction of major vascular events after stroke: the stroke prevention by aggressive reduction in cholesterol levels trial. J Stroke Cerebrovasc Dis. 2014 Apr;23(4):778-84. doi: 10.1016/j.jstrokecerebrovasdis.2013.12.001. Epub 2014 Feb 24."},{"pmid":"21670382","type":"DERIVED","citation":"Callahan A, Amarenco P, Goldstein LB, Sillesen H, Messig M, Samsa GP, Altafullah I, Ledbetter LY, MacLeod MJ, Scott R, Hennerici M, Zivin JA, Welch KM; SPARCL Investigators. Risk of stroke and cardiovascular events after ischemic stroke or transient ischemic attack in patients with type 2 diabetes or metabolic syndrome: secondary analysis of the Stroke Prevention by Aggressive Reduction in Cholesterol Levels (SPARCL) trial. Arch Neurol. 2011 Oct;68(10):1245-51. doi: 10.1001/archneurol.2011.146. Epub 2011 Jun 13."},{"pmid":"21570534","type":"DERIVED","citation":"Schwartz GG, Chaitman BR, Goldberger JJ, Messig M. High-dose atorvastatin and risk of atrial fibrillation in patients with prior stroke or transient ischemic attack: analysis of the Stroke Prevention by Aggressive Reduction in Cholesterol Levels (SPARCL) trial. Am Heart J. 2011 May;161(5):993-9. doi: 10.1016/j.ahj.2011.02.002."},{"pmid":"20110538","type":"DERIVED","citation":"Amarenco P, Goldstein LB, Sillesen H, Benavente O, Zweifler RM, Callahan A 3rd, Hennerici MG, Zivin JA, Welch KM; Stroke Prevention by Aggressive Reduction in Cholesterol Levels Investigators. Coronary heart disease risk in patients with stroke or transient ischemic attack and no known coronary heart disease: findings from the Stroke Prevention by Aggressive Reduction in Cholesterol Levels (SPARCL) trial. Stroke. 2010 Mar;41(3):426-30. doi: 10.1161/STROKEAHA.109.564781. Epub 2010 Jan 28."},{"pmid":"18962621","type":"DERIVED","citation":"Amarenco P, Goldstein LB, Callahan A 3rd, Sillesen H, Hennerici MG, O'Neill BJ, Rudolph AE, Simunovic L, Zivin JA, Welch KM; SPARCL Investigators. Baseline blood pressure, low- and high-density lipoproteins, and triglycerides and the risk of vascular events in the Stroke Prevention by Aggressive Reduction in Cholesterol Levels (SPARCL) trial. Atherosclerosis. 2009 Jun;204(2):515-20. doi: 10.1016/j.atherosclerosis.2008.09.008. Epub 2008 Sep 18."}]}},"derivedSection":{"miscInfoModule":{"versionHolder":"2024-02-14"},"conditionBrowseModule":{"meshes":[{"id":"D000002318","term":"Cardiovascular Diseases"}],"browseLeaves":[{"id":"M21996","name":"Stroke","relevance":"LOW"},{"id":"M10233","name":"Ischemia","relevance":"LOW"},{"id":"M5485","name":"Ischemic Attack, Transient","relevance":"LOW"}],"browseBranches":[{"abbrev":"BC10","name":"Nervous System Diseases"},{"abbrev":"BC14","name":"Heart and Blood Diseases"},{"abbrev":"All","name":"All Conditions"},{"abbrev":"BC23","name":"Symptoms and General Pathology"}]},"interventionBrowseModule":{"meshes":[{"id":"D000069059","term":"Atorvastatin"}],"ancestors":[{"id":"D000000924","term":"Anticholesteremic Agents"},{"id":"D000000960","term":"Hypolipidemic Agents"},{"id":"D000000963","term":"Antimetabolites"},{"id":"D000045504","term":"Molecular Mechanisms of Pharmacological Action"},{"id":"D000057847","term":"Lipid Regulating Agents"},{"id":"D000019161","term":"Hydroxymethylglutaryl-CoA Reductase Inhibitors"},{"id":"D000004791","term":"Enzyme Inhibitors"}],"browseLeaves":[{"id":"M351","name":"Atorvastatin","asFound":"Functional","relevance":"HIGH"},{"id":"M3933","name":"Anticholesteremic Agents","relevance":"LOW"},{"id":"M3968","name":"Hypolipidemic Agents","relevance":"LOW"},{"id":"M3971","name":"Antimetabolites","relevance":"LOW"},{"id":"M28573","name":"Lipid Regulating Agents","relevance":"LOW"},{"id":"M20845","name":"Hydroxymethylglutaryl-CoA Reductase Inhibitors","relevance":"LOW"},{"id":"M7641","name":"Enzyme Inhibitors","relevance":"LOW"}],"browseBranches":[{"abbrev":"Lipd","name":"Lipid Regulating Agents"},{"abbrev":"All","name":"All Drugs and Chemicals"}]}},"hasResults":false}