{"protocolSection":{"identificationModule":{"nctId":"NCT02964208","orgStudyIdInfo":{"id":"SJM-CIP-10122"},"organization":{"fullName":"Abbott Medical Devices","class":"INDUSTRY"},"briefTitle":"AMPLATZER™ LAA Occluder Post Approval Study (PAS)","officialTitle":"AMPLATZER™ LAA Occluder Post Approval Study (PAS)"},"statusModule":{"statusVerifiedDate":"2023-06","overallStatus":"ACTIVE_NOT_RECRUITING","expandedAccessInfo":{"hasExpandedAccess":false},"startDateStruct":{"date":"2016-12-09","type":"ACTUAL"},"primaryCompletionDateStruct":{"date":"2020-06-30","type":"ACTUAL"},"completionDateStruct":{"date":"2023-06-30","type":"ESTIMATED"},"studyFirstSubmitDate":"2016-10-06","studyFirstSubmitQcDate":"2016-11-10","studyFirstPostDateStruct":{"date":"2016-11-16","type":"ESTIMATED"},"lastUpdateSubmitDate":"2023-06-23","lastUpdatePostDateStruct":{"date":"2023-06-26","type":"ACTUAL"}},"sponsorCollaboratorsModule":{"responsibleParty":{"type":"SPONSOR"},"leadSponsor":{"name":"Abbott Medical Devices","class":"INDUSTRY"}},"oversightModule":{"oversightHasDmc":false},"descriptionModule":{"briefSummary":"The AMPLATZER LAA Occluder is a transcatheter, self-expanding nitinol device intended for use in preventing thrombus embolization from the LAA. The purpose of this study is to compile real world outcome data on the use of AMPLATZER LAA Occluder in subjects with non-valvular atrial fibrillation (NVAF)","detailedDescription":"The AMPLATZER LAA Occluder device will be clinically evaluated through this post approval study. This is a non-randomized multicenter study on patients who have undergone a procedure to implant an AMPLATZER LAA Occluder or will undergo an implant of an AMPLATZER LAA Occluder."},"conditionsModule":{"conditions":["Atrial Fibrillation","Thromboembolism","Stroke"],"keywords":["Atrial Fibrillation","Thromboembolism","Stroke","ACP","Left Atrial Appendage","Cardiac Plug","Amulet","Amplatzer"]},"designModule":{"studyType":"OBSERVATIONAL","patientRegistry":false,"designInfo":{"observationalModel":"COHORT","timePerspective":"PROSPECTIVE"},"enrollmentInfo":{"count":1000,"type":"ESTIMATED"}},"armsInterventionsModule":{"interventions":[{"type":"DEVICE","name":"AMPLATZER™ LAA Occluder","description":"The AMPLATZER™ LAA Occluder is intended to prevent thrombus embolization from the left atrial appendage (LAA) in patients who have nonvalvular Atrial Fibrillation (AF). It may be considered for use in patients who have a high risk of stroke and bleeding and are deemed by their physician to have an appropriate rationale to seek a non-pharmacologic alternative to long term anticoagulants.","otherNames":["AMPLATZER™ Cardiac Plug™","AMPLATZER™ Amulet™"]}]},"outcomesModule":{"primaryOutcomes":[{"measure":"The occurrence of one or more adverse events listed in description below","description":"The occurrence of one or more the composite of stroke (including ischemic or hemorrhagic), systemic embolism, or cardiovascular or unexplained death at 24 months from the time of enrollment","timeFrame":"Implant through 24 months"},{"measure":"The occurrence of ischemic stroke or systemic embolism as listed in description below.","description":"The occurrence of ischemic stroke or systemic embolism at 24 months from the time of enrollment","timeFrame":"Implant through 24 months"},{"measure":"The occurrence of a major adverse event within 7 days","description":"The occurrence of one of the following events between the time of implant and within 7 days of the procedure or by hospital discharge, whichever is later: all-cause death, ischemic stroke, systemic embolism, or device or procedure-related events requiring open cardiac surgery or major endovascular repair","timeFrame":"Implant through 7 days"}],"secondaryOutcomes":[{"measure":"Comparison of the observed rate of ischemic stroke at 24months with the CHA2DS2-VASc predicted rate","timeFrame":"Implant through 24 months"}]},"eligibilityModule":{"eligibilityCriteria":"Inclusion Criteria:\n\n* 18 years of age or older\n* Documented history of nonvalvular atrial fibrillation\n* Subjects in whom an AMPLATZER LAA Occluder device is intended to be implanted or Subjects who underwent an AMPLATZER LAA Occluder implant attempt after the device was approved in the applicable geography\n\nExclusion Criteria:\n\n* Women of childbearing potential who are, or plan to become, pregnant during the time of the study","healthyVolunteers":false,"sex":"ALL","minimumAge":"18 Years","stdAges":["ADULT","OLDER_ADULT"],"studyPopulation":"The subject population will include participants that are \\> 18 years old and diagnosed with NVAF.","samplingMethod":"NON_PROBABILITY_SAMPLE"},"contactsLocationsModule":{"overallOfficials":[{"name":"Ryan Palmer","affiliation":"Abbott","role":"STUDY_DIRECTOR"}],"locations":[{"facility":"Instituto Cardiovascular de Rosario","city":"Rosario","state":"Santa Fe","zip":"2000","country":"Argentina","geoPoint":{"lat":-32.94682,"lon":-60.63932}},{"facility":"Hôpital Civil Marie Curie","city":"Lodelinsart","state":"Hainaut","zip":"6042","country":"Belgium","geoPoint":{"lat":50.43138,"lon":4.44886}},{"facility":"Royal Columbian","city":"New Westminster","state":"British Columbia","zip":"V3L 3W5","country":"Canada","geoPoint":{"lat":49.20678,"lon":-122.91092}},{"facility":"Vancouver General Hospital","city":"Vancouver","state":"British Columbia","zip":"V5Z 1M9","country":"Canada","geoPoint":{"lat":49.24966,"lon":-123.11934}},{"facility":"St. Paul's Hospital","city":"Vancouver","state":"British Columbia","zip":"V6Z 2E8","country":"Canada","geoPoint":{"lat":49.24966,"lon":-123.11934}},{"facility":"Ottawa Heart Institute","city":"Ottawa","state":"Ontario","zip":"K1Y 4W7","country":"Canada","geoPoint":{"lat":45.41117,"lon":-75.69812}},{"facility":"St. Michael's Hospital","city":"Toronto","state":"Ontario","zip":"M5B 1W8","country":"Canada","geoPoint":{"lat":43.70011,"lon":-79.4163}},{"facility":"Montreal Heart Institute","city":"Montreal","state":"Quebec","zip":"H2L 4M1","country":"Canada","geoPoint":{"lat":45.50884,"lon":-73.58781}},{"facility":"CHUM","city":"Montreal","state":"Quebec","zip":"H2X 3E4","country":"Canada","geoPoint":{"lat":45.50884,"lon":-73.58781}},{"facility":"The Royal Victoria Hospital","city":"Montréal","state":"Quebec","zip":"H4A 3J1","country":"Canada","geoPoint":{"lat":45.50884,"lon":-73.58781}},{"facility":"Instituto Nacional del Torax","city":"Providencia","state":"Santiago","country":"Chile","geoPoint":{"lat":-33.43107,"lon":-70.60454}},{"facility":"Hospital Clinico San Borja Arriarán","city":"Santiago","zip":"8320000","country":"Chile","geoPoint":{"lat":-33.45694,"lon":-70.64827}},{"facility":"Cardioangiologisches Centrum am Bethanien Krankenhaus","city":"Frankfurt","state":"Hesse","zip":"60389","country":"Germany","geoPoint":{"lat":50.11552,"lon":8.68417}},{"facility":"St. Marien-Hospital-Bonn","city":"Bonn","state":"North Rhine-Westphalia","zip":"53115","country":"Germany","geoPoint":{"lat":50.73438,"lon":7.09549}},{"facility":"Segeberger Kliniken GmbH","city":"Bad Segeberg","state":"Schleswig-Holstein","zip":"23795","country":"Germany","geoPoint":{"lat":53.94313,"lon":10.30215}},{"facility":"Zentralklinik Bad Berka GmbH","city":"Bad Berka","state":"Thuringia","zip":"99438","country":"Germany","geoPoint":{"lat":50.89982,"lon":11.28245}},{"facility":"Azienda Ospedaliera Monaldi","city":"Napoli","state":"Campania","zip":"80131","country":"Italy","geoPoint":{"lat":40.85216,"lon":14.26811}},{"facility":"Ospedale San Giovanni Bosco","city":"Torino","state":"Piedmonte","zip":"10154","country":"Italy","geoPoint":{"lat":45.07049,"lon":7.68682}},{"facility":"Università degli Studi di Padova","city":"Padova","state":"Veneto","zip":"35128","country":"Italy","geoPoint":{"lat":45.40797,"lon":11.88586}},{"facility":"Hospital Universitario de Salamanca","city":"Salamanca","state":"Castile And Leon","zip":"37007","country":"Spain","geoPoint":{"lat":40.96882,"lon":-5.66388}},{"facility":"Hospital Clinic I Provincial de Barcelona","city":"Barcelona","state":"Catalonia","zip":"8028","country":"Spain","geoPoint":{"lat":41.38879,"lon":2.15899}},{"facility":"Hospital Universitario Puerta de Hierro","city":"Majadahonda","state":"Madrid","zip":"28222","country":"Spain","geoPoint":{"lat":40.47353,"lon":-3.87182}}]},"ipdSharingStatementModule":{"ipdSharing":"NO"}},"derivedSection":{"miscInfoModule":{"versionHolder":"2024-02-14","submissionTracking":{"estimatedResultsFirstSubmitDate":"2023-08-18","submissionInfos":[{"releaseDate":"2023-08-18"}]}},"conditionBrowseModule":{"meshes":[{"id":"D000001281","term":"Atrial Fibrillation"},{"id":"D000013923","term":"Thromboembolism"}],"ancestors":[{"id":"D000014652","term":"Vascular Diseases"},{"id":"D000002318","term":"Cardiovascular Diseases"},{"id":"D000001145","term":"Arrhythmias, Cardiac"},{"id":"D000006331","term":"Heart Diseases"},{"id":"D000010335","term":"Pathologic Processes"},{"id":"D000016769","term":"Embolism and Thrombosis"}],"browseLeaves":[{"id":"M21996","name":"Stroke","relevance":"LOW"},{"id":"M16372","name":"Thromboembolism","asFound":"Thromboembolism","relevance":"HIGH"},{"id":"M4276","name":"Atrial Fibrillation","asFound":"Atrial Fibrillation","relevance":"HIGH"},{"id":"M17090","name":"Vascular Diseases","relevance":"LOW"},{"id":"M4143","name":"Arrhythmias, Cardiac","relevance":"LOW"},{"id":"M9109","name":"Heart Diseases","relevance":"LOW"},{"id":"M16376","name":"Thrombosis","relevance":"LOW"},{"id":"M7474","name":"Embolism","relevance":"LOW"},{"id":"M18818","name":"Embolism and Thrombosis","relevance":"LOW"}],"browseBranches":[{"abbrev":"BC10","name":"Nervous System Diseases"},{"abbrev":"BC14","name":"Heart and Blood Diseases"},{"abbrev":"All","name":"All Conditions"},{"abbrev":"BC23","name":"Symptoms and General Pathology"}]},"interventionBrowseModule":{"browseLeaves":[{"id":"M3934","name":"Anticoagulants","relevance":"LOW"}],"browseBranches":[{"abbrev":"AnCoag","name":"Anticoagulants"},{"abbrev":"All","name":"All Drugs and Chemicals"}]}},"hasResults":false}