{"protocolSection":{"identificationModule":{"nctId":"NCT00099216","orgStudyIdInfo":{"id":"CENA713BIA05"},"organization":{"fullName":"Novartis","class":"INDUSTRY"},"briefTitle":"Efficacy and Safety of Rivastigmine Capsules in Patients With Probable Vascular Dementia","officialTitle":"Efficacy and Safety of Rivastigmine Capsules in Patients With Probable Vascular Dementia"},"statusModule":{"statusVerifiedDate":"2011-11","overallStatus":"COMPLETED","expandedAccessInfo":{"hasExpandedAccess":false},"startDateStruct":{"date":"2001-08"},"primaryCompletionDateStruct":{"date":"2005-11","type":"ACTUAL"},"completionDateStruct":{"date":"2005-11","type":"ACTUAL"},"studyFirstSubmitDate":"2004-12-10","studyFirstSubmitQcDate":"2004-12-09","studyFirstPostDateStruct":{"date":"2004-12-10","type":"ESTIMATED"},"lastUpdateSubmitDate":"2011-11-16","lastUpdatePostDateStruct":{"date":"2011-11-17","type":"ESTIMATED"}},"sponsorCollaboratorsModule":{"responsibleParty":{"type":"SPONSOR"},"leadSponsor":{"name":"Novartis Pharmaceuticals","class":"INDUSTRY"}},"descriptionModule":{"briefSummary":"The goal of this research study is to evaluate the effectiveness, tolerability and safety of rivastigmine capsules in males and females between the ages of 50 and 85 years old with probable vascular dementia."},"conditionsModule":{"conditions":["Vascular Dementia"],"keywords":["Dementia,vascular,rivastigmine,stroke,memory loss"]},"designModule":{"studyType":"INTERVENTIONAL","phases":["PHASE3"],"designInfo":{"allocation":"RANDOMIZED","interventionModel":"PARALLEL","primaryPurpose":"TREATMENT","maskingInfo":{"masking":"DOUBLE"}},"enrollmentInfo":{"count":708,"type":"ACTUAL"}},"armsInterventionsModule":{"interventions":[{"type":"DRUG","name":"Rivastigmine"}]},"outcomesModule":{"primaryOutcomes":[{"measure":"Change in cognition from baseline at week 24"},{"measure":"Global clinical impression of change from baseline at week 24"}],"secondaryOutcomes":[{"measure":"Change in activities of daily living from baseline at week 24"},{"measure":"Change in behavioral symptoms from baseline at week 24"},{"measure":"Change in clinical staging from baseline at week 24"}]},"eligibilityModule":{"eligibilityCriteria":"Inclusion Criteria:\n\n* Between the ages of 50 and 85 years old\n* Have contact with a responsible caregiver 3 or more days per week\n* Be male or a female who is surgically sterilized or one year post menopausal\n\nExclusion Criteria:\n\n* Current diagnosis of severe or unstable cardiovascular or other diseases\n* Current diagnosis of active, uncontrolled seizure disorder, Parkinson's disease or Alzheimer's disease","healthyVolunteers":false,"sex":"ALL","minimumAge":"50 Years","maximumAge":"85 Years","stdAges":["ADULT","OLDER_ADULT"]},"contactsLocationsModule":{"overallOfficials":[{"name":"Novartis Pharmaceuticals","affiliation":"Novartis Pharmaceuticals","role":"STUDY_DIRECTOR"}],"locations":[{"city":"Irvine","state":"California","zip":"92618","country":"United States","geoPoint":{"lat":33.66946,"lon":-117.82311}},{"city":"San Francisco","state":"California","zip":"94109","country":"United States","geoPoint":{"lat":37.77493,"lon":-122.41942}},{"city":"Boynton Beach","state":"Florida","zip":"33426","country":"United States","geoPoint":{"lat":26.52535,"lon":-80.06643}},{"city":"Miami Beach","state":"Florida","zip":"33140","country":"United States","geoPoint":{"lat":25.79065,"lon":-80.13005}},{"city":"Port Charlotte","state":"Florida","country":"United States","geoPoint":{"lat":26.97617,"lon":-82.09064}},{"city":"Indianapolis","state":"Indiana","zip":"46202","country":"United States","geoPoint":{"lat":39.76838,"lon":-86.15804}},{"city":"Des Moines","state":"Iowa","zip":"50314","country":"United States","geoPoint":{"lat":41.60054,"lon":-93.60911}},{"city":"St. Louis","state":"Missouri","country":"United States","geoPoint":{"lat":38.62727,"lon":-90.19789}},{"city":"Albuquerque","state":"New Mexico","country":"United States","geoPoint":{"lat":35.08449,"lon":-106.65114}},{"city":"New York","state":"New York","zip":"10003","country":"United States","geoPoint":{"lat":40.71427,"lon":-74.00597}},{"city":"Portland","state":"Oregon","zip":"97223","country":"United States","geoPoint":{"lat":45.52345,"lon":-122.67621}},{"city":"Allentown","state":"Pennsylvania","zip":"18103","country":"United States","geoPoint":{"lat":40.60843,"lon":-75.49018}},{"city":"Greensburg","state":"Pennsylvania","zip":"15601","country":"United States","geoPoint":{"lat":40.30146,"lon":-79.53893}},{"city":"Charleston","state":"South Carolina","zip":"29406","country":"United States","geoPoint":{"lat":32.77657,"lon":-79.93092}},{"city":"Austin","state":"Texas","zip":"78756","country":"United States","geoPoint":{"lat":30.26715,"lon":-97.74306}},{"city":"Houston","state":"Texas","zip":"77030","country":"United States","geoPoint":{"lat":29.76328,"lon":-95.36327}},{"city":"Bennington","state":"Vermont","zip":"05201","country":"United States","geoPoint":{"lat":42.87813,"lon":-73.19677}},{"city":"Graz","country":"Austria","geoPoint":{"lat":47.06667,"lon":15.45}},{"city":"Linz","country":"Austria","geoPoint":{"lat":48.30639,"lon":14.28611}},{"city":"Wien","country":"Austria","geoPoint":{"lat":48.20849,"lon":16.37208}},{"city":"Edmonton","state":"Alberta","country":"Canada","geoPoint":{"lat":53.55014,"lon":-113.46871}},{"city":"Ottawa","state":"Ontario","country":"Canada","geoPoint":{"lat":45.41117,"lon":-75.69812}},{"city":"Toronto","state":"Ontario","country":"Canada","geoPoint":{"lat":43.70011,"lon":-79.4163}},{"city":"Montreal","state":"Quebec","country":"Canada","geoPoint":{"lat":45.50884,"lon":-73.58781}},{"city":"Amiens","country":"France","geoPoint":{"lat":49.9,"lon":2.3}},{"city":"Bordeaux","country":"France","geoPoint":{"lat":44.84044,"lon":-0.5805}},{"city":"Lille Cedex","country":"France","geoPoint":{"lat":50.63297,"lon":3.05858}},{"city":"Marseille","country":"France","geoPoint":{"lat":43.29551,"lon":5.38958}},{"city":"Montpellier Cedex","country":"France","geoPoint":{"lat":43.61092,"lon":3.87723}},{"city":"Toulouse","country":"France","geoPoint":{"lat":43.60426,"lon":1.44367}},{"city":"Tours Cedex","country":"France","geoPoint":{"lat":47.38333,"lon":0.68333}},{"city":"Bautzen","country":"Germany","geoPoint":{"lat":51.18035,"lon":14.43494}},{"city":"Berlin","country":"Germany","geoPoint":{"lat":52.52437,"lon":13.41053}},{"city":"Bochum","country":"Germany","geoPoint":{"lat":51.48165,"lon":7.21648}},{"city":"Chemnitz","country":"Germany","geoPoint":{"lat":50.8357,"lon":12.92922}},{"city":"Eisenhuttenstadt","country":"Germany","geoPoint":{"lat":52.15,"lon":14.65}},{"city":"Erlangen","country":"Germany","geoPoint":{"lat":49.59099,"lon":11.00783}},{"city":"Freiburg","country":"Germany","geoPoint":{"lat":47.9959,"lon":7.85222}},{"city":"Luedenscheid","country":"Germany","geoPoint":{"lat":51.21977,"lon":7.6273}},{"city":"Osnabrueck","country":"Germany"},{"city":"Ancona","country":"Italy","geoPoint":{"lat":43.5942,"lon":13.50337}},{"city":"Brescia","country":"Italy","geoPoint":{"lat":45.53558,"lon":10.21472}},{"city":"Firenze","country":"Italy","geoPoint":{"lat":43.77925,"lon":11.24626}},{"city":"Perugia","country":"Italy","geoPoint":{"lat":43.1122,"lon":12.38878}},{"city":"Reggio Emilia","country":"Italy","geoPoint":{"lat":44.69825,"lon":10.63125}},{"city":"Roma","country":"Italy","geoPoint":{"lat":41.89193,"lon":12.51133}},{"city":"Vicenza","country":"Italy","geoPoint":{"lat":45.54672,"lon":11.5475}},{"city":"Moscow","country":"Russian Federation","geoPoint":{"lat":55.75222,"lon":37.61556}},{"city":"Saint-Petersburg","country":"Russian Federation","geoPoint":{"lat":59.93863,"lon":30.31413}},{"city":"Barakaldo","country":"Spain","geoPoint":{"lat":43.29639,"lon":-2.98813}},{"city":"Barcelona","country":"Spain","geoPoint":{"lat":41.38879,"lon":2.15899}},{"city":"Madrid","country":"Spain","geoPoint":{"lat":40.4165,"lon":-3.70256}},{"city":"Pamplona","country":"Spain","geoPoint":{"lat":42.81687,"lon":-1.64323}},{"city":"Saint Cugat del Valles","country":"Spain"},{"city":"Basel","country":"Switzerland","geoPoint":{"lat":47.55839,"lon":7.57327}},{"city":"Lausanne","country":"Switzerland","geoPoint":{"lat":46.516,"lon":6.63282}},{"city":"Newcastle Upon Tyne","state":"Newcastle","country":"United Kingdom","geoPoint":{"lat":54.97328,"lon":-1.61396}},{"city":"Swindon","state":"Wiltshire","country":"United Kingdom","geoPoint":{"lat":51.55797,"lon":-1.78116}},{"city":"Bristol","country":"United Kingdom","geoPoint":{"lat":51.45523,"lon":-2.59665}},{"city":"Clydebank","country":"United Kingdom","geoPoint":{"lat":55.90137,"lon":-4.4057}},{"city":"East Sussex","country":"United Kingdom"},{"city":"Southampton","country":"United Kingdom","geoPoint":{"lat":50.90395,"lon":-1.40428}},{"city":"St Annes","country":"United Kingdom","geoPoint":{"lat":53.7426,"lon":-2.997}}]},"referencesModule":{"references":[{"pmid":"18674411","type":"DERIVED","citation":"Ballard C, Sauter M, Scheltens P, He Y, Barkhof F, van Straaten EC, van der Flier WM, Hsu C, Wu S, Lane R. Efficacy, safety and tolerability of rivastigmine capsules in patients with probable vascular dementia: the VantagE study. Curr Med Res Opin. 2008 Sep;24(9):2561-74. doi: 10.1185/03007990802328142. Epub 2008 Jul 31."}],"seeAlsoLinks":[{"label":"Click here for further information and to find an investigational site near you","url":"http://www.novartisclinicaltrials.com/etrials/searchTrial.do?trialID=331&diseaseID=31zip=07430"}]}},"derivedSection":{"miscInfoModule":{"versionHolder":"2024-02-14"},"conditionBrowseModule":{"meshes":[{"id":"D000003704","term":"Dementia"},{"id":"D000015140","term":"Dementia, Vascular"}],"ancestors":[{"id":"D000001927","term":"Brain Diseases"},{"id":"D000002493","term":"Central Nervous System Diseases"},{"id":"D000009422","term":"Nervous System Diseases"},{"id":"D000019965","term":"Neurocognitive Disorders"},{"id":"D000001523","term":"Mental Disorders"},{"id":"D000002561","term":"Cerebrovascular Disorders"},{"id":"D000002537","term":"Intracranial Arteriosclerosis"},{"id":"D000020765","term":"Intracranial Arterial Diseases"},{"id":"D000056784","term":"Leukoencephalopathies"},{"id":"D000001161","term":"Arteriosclerosis"},{"id":"D000001157","term":"Arterial Occlusive Diseases"},{"id":"D000014652","term":"Vascular Diseases"},{"id":"D000002318","term":"Cardiovascular Diseases"}],"browseLeaves":[{"id":"M21996","name":"Stroke","relevance":"LOW"},{"id":"M6594","name":"Dementia","asFound":"Dementia","relevance":"HIGH"},{"id":"M17551","name":"Dementia, Vascular","asFound":"Vascular Dementia","relevance":"HIGH"},{"id":"M3675","name":"Amnesia","relevance":"LOW"},{"id":"M4894","name":"Brain Diseases","relevance":"LOW"},{"id":"M5432","name":"Central Nervous System Diseases","relevance":"LOW"},{"id":"M21526","name":"Neurocognitive Disorders","relevance":"LOW"},{"id":"M4505","name":"Mental Disorders","relevance":"LOW"},{"id":"M14163","name":"Psychotic Disorders","relevance":"LOW"},{"id":"M5500","name":"Cerebrovascular Disorders","relevance":"LOW"},{"id":"M5476","name":"Intracranial Arteriosclerosis","relevance":"LOW"},{"id":"M4159","name":"Arteriosclerosis","relevance":"LOW"},{"id":"M22211","name":"Intracranial Arterial Diseases","relevance":"LOW"},{"id":"M28281","name":"Leukoencephalopathies","relevance":"LOW"},{"id":"M4155","name":"Arterial Occlusive Diseases","relevance":"LOW"},{"id":"M17090","name":"Vascular Diseases","relevance":"LOW"}],"browseBranches":[{"abbrev":"BC10","name":"Nervous System Diseases"},{"abbrev":"BC14","name":"Heart and Blood Diseases"},{"abbrev":"All","name":"All Conditions"},{"abbrev":"BXM","name":"Behaviors and Mental Disorders"},{"abbrev":"BC23","name":"Symptoms and General Pathology"}]},"interventionBrowseModule":{"meshes":[{"id":"D000068836","term":"Rivastigmine"}],"ancestors":[{"id":"D000002800","term":"Cholinesterase Inhibitors"},{"id":"D000004791","term":"Enzyme Inhibitors"},{"id":"D000045504","term":"Molecular Mechanisms of Pharmacological Action"},{"id":"D000018678","term":"Cholinergic Agents"},{"id":"D000018377","term":"Neurotransmitter Agents"},{"id":"D000045505","term":"Physiological Effects of Drugs"},{"id":"D000018696","term":"Neuroprotective Agents"},{"id":"D000020011","term":"Protective Agents"}],"browseLeaves":[{"id":"M317","name":"Rivastigmine","asFound":"Nasopharyngeal Carcinoma","relevance":"HIGH"},{"id":"M5730","name":"Cholinesterase Inhibitors","relevance":"LOW"},{"id":"M7641","name":"Enzyme Inhibitors","relevance":"LOW"},{"id":"M20448","name":"Cholinergic Agents","relevance":"LOW"},{"id":"M20194","name":"Neurotransmitter Agents","relevance":"LOW"},{"id":"M20463","name":"Neuroprotective Agents","relevance":"LOW"},{"id":"M21559","name":"Protective Agents","relevance":"LOW"}],"browseBranches":[{"abbrev":"NeuroAg","name":"Neuroprotective Agents"},{"abbrev":"All","name":"All Drugs and Chemicals"}]}},"hasResults":false}