{"protocolSection":{"identificationModule":{"nctId":"NCT05284747","orgStudyIdInfo":{"id":"20190184"},"secondaryIdInfos":[{"id":"2021-005272-19","type":"EUDRACT_NUMBER"}],"organization":{"fullName":"Amgen","class":"INDUSTRY"},"briefTitle":"EVOLVE-MI: EVOLocumab Very Early After Myocardial Infarction","officialTitle":"EVOLVE-MI: A Pragmatic Randomized Multicenter Trial of EVOLocumab Administered Very Early to Reduce the Risk of Cardiovascular Events in Patients Hospitalized With Acute Myocardial Infarction","acronym":"EVOLVE-MI"},"statusModule":{"statusVerifiedDate":"2024-02","overallStatus":"RECRUITING","expandedAccessInfo":{"hasExpandedAccess":false},"startDateStruct":{"date":"2022-10-26","type":"ACTUAL"},"primaryCompletionDateStruct":{"date":"2027-05-31","type":"ESTIMATED"},"completionDateStruct":{"date":"2027-05-31","type":"ESTIMATED"},"studyFirstSubmitDate":"2022-03-09","studyFirstSubmitQcDate":"2022-03-09","studyFirstPostDateStruct":{"date":"2022-03-17","type":"ACTUAL"},"lastUpdateSubmitDate":"2024-02-07","lastUpdatePostDateStruct":{"date":"2024-02-08","type":"ACTUAL"}},"sponsorCollaboratorsModule":{"responsibleParty":{"type":"SPONSOR"},"leadSponsor":{"name":"Amgen","class":"INDUSTRY"},"collaborators":[{"name":"Colorado Prevention Center","class":"OTHER"}]},"oversightModule":{"oversightHasDmc":true,"isFdaRegulatedDrug":true,"isFdaRegulatedDevice":false},"descriptionModule":{"briefSummary":"The primary objective of this study is to evaluate the effectiveness of early treatment with evolocumab plus routine lipid management vs routine lipid management alone when administered in the acute setting to reduce myocardial infarction, ischemic stroke, arterial revascularization, and all-cause death in subjects hospitalized for an acute myocardial infarction (non-ST-segment elevation myocardial infarction \\[NSTEMI\\] and ST-segment elevation myocardial infarction \\[STEMI\\])."},"conditionsModule":{"conditions":["Cardiovascular Disease","Myocardial Infarction","Stroke","Coronary Revascularization"],"keywords":["Acute Myocardial Infarction","Cardiovascular Disease","Stroke","Coronary revascularization","Evolocumab","STEMI","NSTEMI","Heart Attack","Pragmatic"]},"designModule":{"studyType":"INTERVENTIONAL","phases":["PHASE4"],"designInfo":{"allocation":"RANDOMIZED","interventionModel":"PARALLEL","primaryPurpose":"TREATMENT","maskingInfo":{"masking":"NONE"}},"enrollmentInfo":{"count":6000,"type":"ESTIMATED"}},"armsInterventionsModule":{"armGroups":[{"label":"Evolocumab + Routine Lipid Management","type":"EXPERIMENTAL","description":"Participants will receive open-label evolocumab every 2 weeks (Q2W) plus routine lipid management.","interventionNames":["Drug: Evolocumab","Drug: Routine Lipid Management"]},{"label":"Routine Lipid Management","type":"ACTIVE_COMPARATOR","description":"Participants will receive routine lipid management per standard of care (SoC).","interventionNames":["Drug: Routine Lipid Management"]}],"interventions":[{"type":"DRUG","name":"Evolocumab","description":"Evolocumab will be provided as a single-dose, prefilled autoinjector pen (AI/pen) for fixed dose subcutaneous (SC) injection.","armGroupLabels":["Evolocumab + Routine Lipid Management"],"otherNames":["Repatha","AMG 145"]},{"type":"DRUG","name":"Routine Lipid Management","description":"Routine lipid management therapies will be administered at the discretion of the investigator per SoC.","armGroupLabels":["Evolocumab + Routine Lipid Management","Routine Lipid Management"]}]},"outcomesModule":{"primaryOutcomes":[{"measure":"Total (first and subsequent) composite of myocardial infarction, ischemic stroke, any arterial revascularization procedure, and all-cause death","timeFrame":"From Baseline to End of Study (Approximately 3.5 Years)"}],"secondaryOutcomes":[{"measure":"Percentage Change From Baseline in LDL-C","description":"Percent LDL-C change from baseline to 12 weeks in a subset of approximately 300 randomly selected participants.","timeFrame":"From Baseline to Week 12"},{"measure":"Percentage Change From Baseline in LDL-C","description":"Percent LDL-C change from baseline to 52 weeks in a subset of approximately 300 randomly selected participants.","timeFrame":"From Baseline to Week 52"},{"measure":"Total (first and subsequent) composite of myocardial infarction, ischemic stroke, any arterial revascularization procedure, and cardiovascular death","timeFrame":"From Baseline to End of Study (Approximately 3.5 Years)"},{"measure":"Time to the First Occurrence of the Composite of Myocardial Infarction, Ischemic Stroke, any Arterial Revascularization Procedure, and All-Cause Death","timeFrame":"From Baseline to End of Study (Approximately 3.5 Years)"},{"measure":"Total Myocardial Infarctions Events","timeFrame":"From Baseline to End of Study (Approximately 3.5 Years)"},{"measure":"Total Arterial Revascularization Procedures","timeFrame":"From Baseline to End of Study (Approximately 3.5 Years)"},{"measure":"Total Ischemia-driven Coronary Revascularization Procedures","timeFrame":"From Baseline to End of Study (Approximately 3.5 Years)"},{"measure":"Total Ischemic Strokes","timeFrame":"From Baseline to End of Study (Approximately 3.5 Years)"},{"measure":"Time to Cardiovascular Death","timeFrame":"From Baseline to End of Study (Approximately 3.5 Years)"},{"measure":"Time to All-Cause Death","timeFrame":"From Baseline to End of Study (Approximately 3.5 Years)"}]},"eligibilityModule":{"eligibilityCriteria":"Inclusion Criteria:\n\n* Age greater than or equal to 18 years\n* Hospitalized for primary reason of NSTEMI or STEMI due to presumed atherosclerotic disease\n\nExclusion Criteria:\n\n* Participants requiring invasive hemodynamic and/or vasopressor/inotropic support at the time of screening\n* Participants with elevated biomarkers of myocardial injury due to secondary/nonatherosclerotic etiology (eg, sepsis, atrial fibrillation, vasospasm, decompensated heart failure, uncontrolled hypertension, stress induced cardiomyopathy)","healthyVolunteers":false,"sex":"ALL","minimumAge":"18 Years","maximumAge":"99 Years","stdAges":["ADULT","OLDER_ADULT"]},"contactsLocationsModule":{"centralContacts":[{"name":"Amgen Call Center","role":"CONTACT","phone":"866-572-6436","email":"medinfo@amgen.com"}],"overallOfficials":[{"name":"MD","affiliation":"Amgen","role":"STUDY_DIRECTOR"}],"locations":[{"facility":"Uab Heart and Vascular Clinic","status":"RECRUITING","city":"Birmingham","state":"Alabama","zip":"35294","country":"United States","geoPoint":{"lat":33.52066,"lon":-86.80249}},{"facility":"Eastern Shore Research Institute","status":"RECRUITING","city":"Fairhope","state":"Alabama","zip":"36532","country":"United States","geoPoint":{"lat":30.52297,"lon":-87.90333}},{"facility":"Heart Center Research LLC","status":"RECRUITING","city":"Huntsville","state":"Alabama","zip":"35801-4317","country":"United States","geoPoint":{"lat":34.7304,"lon":-86.58594}},{"facility":"Northern Arizona Healthcare Corporation Cardiovascular Institute","status":"RECRUITING","city":"Flagstaff","state":"Arizona","zip":"86001","country":"United States","geoPoint":{"lat":35.19807,"lon":-111.65127}},{"facility":"Scottsdale Healthcare at Shea - HonorHealth","status":"RECRUITING","city":"Scottsdale","state":"Arizona","zip":"85258","country":"United States","geoPoint":{"lat":33.50921,"lon":-111.89903}},{"facility":"Pima Heart and Vascular Clinical Research","status":"RECRUITING","city":"Tucson","state":"Arizona","zip":"85719","country":"United States","geoPoint":{"lat":32.22174,"lon":-110.92648}},{"facility":"John Muir Health and Cardiovascular Institute","status":"RECRUITING","city":"Concord","state":"California","zip":"94520","country":"United States","geoPoint":{"lat":37.97798,"lon":-122.03107}},{"facility":"VA Greater Los Angeles Healthcare System","status":"RECRUITING","city":"Los Angeles","state":"California","zip":"90073","country":"United States","geoPoint":{"lat":34.05223,"lon":-118.24368}},{"facility":"University of California Los Angeles","status":"RECRUITING","city":"Los Angeles","state":"California","zip":"90095","country":"United States","geoPoint":{"lat":34.05223,"lon":-118.24368}},{"facility":"University of California-Irvine","status":"RECRUITING","city":"Orange","state":"California","zip":"92868","country":"United States","geoPoint":{"lat":33.78779,"lon":-117.85311}},{"facility":"University of Colorado Hospital","status":"RECRUITING","city":"Aurora","state":"Colorado","zip":"80045","country":"United States","geoPoint":{"lat":39.72943,"lon":-104.83192}},{"facility":"Bridgeport Hospital","status":"RECRUITING","city":"Bridgeport","state":"Connecticut","zip":"06610","country":"United States","geoPoint":{"lat":41.16704,"lon":-73.20483}},{"facility":"Hartford Hospital","status":"RECRUITING","city":"Hartford","state":"Connecticut","zip":"06106","country":"United States","geoPoint":{"lat":41.76371,"lon":-72.68509}},{"facility":"Cardiology Associates of Fairfield County PC","status":"RECRUITING","city":"Stamford","state":"Connecticut","zip":"06905","country":"United States","geoPoint":{"lat":41.05343,"lon":-73.53873}},{"facility":"Excel Medical Clinical Trials","status":"RECRUITING","city":"Boca Raton","state":"Florida","zip":"33434","country":"United States","geoPoint":{"lat":26.3669,"lon":-80.13033}},{"facility":"Clearwater Cardiovascular Consultants","status":"RECRUITING","city":"Clearwater","state":"Florida","zip":"33756","country":"United States","geoPoint":{"lat":27.96585,"lon":-82.8001}},{"facility":"University of Florida at Gainesville","status":"RECRUITING","city":"Gainesville","state":"Florida","zip":"32610","country":"United States","geoPoint":{"lat":29.65163,"lon":-82.32483}},{"facility":"University of Florida at UF Health Jacksonville","status":"RECRUITING","city":"Jacksonville","state":"Florida","zip":"32209","country":"United States","geoPoint":{"lat":30.33218,"lon":-81.65565}},{"facility":"AdventHealth Orlando","status":"RECRUITING","city":"Orlando","state":"Florida","zip":"32803","country":"United States","geoPoint":{"lat":28.53834,"lon":-81.37924}},{"facility":"Cardiology Partners Clinical Research Institute","status":"RECRUITING","city":"Palm Beach Gardens","state":"Florida","zip":"33410","country":"United States","geoPoint":{"lat":26.82339,"lon":-80.13865}},{"facility":"Baptist Health Care","status":"RECRUITING","city":"Pensacola","state":"Florida","zip":"32501","country":"United States","geoPoint":{"lat":30.42131,"lon":-87.21691}},{"facility":"Ascension Sacred Heart","status":"RECRUITING","city":"Pensacola","state":"Florida","zip":"32504","country":"United States","geoPoint":{"lat":30.42131,"lon":-87.21691}},{"facility":"Clearwater Cardiovascular Consultants","status":"RECRUITING","city":"Safety Harbor","state":"Florida","zip":"34695","country":"United States","geoPoint":{"lat":27.99085,"lon":-82.69316}},{"facility":"Tampa Cardiovascular Interventions and Research","status":"RECRUITING","city":"Tampa","state":"Florida","zip":"33614","country":"United States","geoPoint":{"lat":27.94752,"lon":-82.45843}},{"facility":"Clinical Site Partners Orlando dba Flourish Research","status":"RECRUITING","city":"Winter Park","state":"Florida","zip":"32789","country":"United States","geoPoint":{"lat":28.6,"lon":-81.33924}},{"facility":"Saint Lukes Boise Medical Center","status":"RECRUITING","city":"Boise","state":"Idaho","zip":"83712","country":"United States","geoPoint":{"lat":43.6135,"lon":-116.20345}},{"facility":"Jesse Brown Veterans Affairs Medical Center","status":"RECRUITING","city":"Chicago","state":"Illinois","zip":"60612","country":"United States","geoPoint":{"lat":41.85003,"lon":-87.65005}},{"facility":"Great Lakes Clinical Trials - Ravenswood","status":"RECRUITING","city":"Chicago","state":"Illinois","zip":"60640","country":"United States","geoPoint":{"lat":41.85003,"lon":-87.65005}},{"facility":"Advocate Lutheran General Hospital","status":"RECRUITING","city":"Park Ridge","state":"Illinois","zip":"60068","country":"United States","geoPoint":{"lat":42.01114,"lon":-87.84062}},{"facility":"Ascension Saint Vincent Heart Center","status":"RECRUITING","city":"Indianapolis","state":"Indiana","zip":"46290","country":"United States","geoPoint":{"lat":39.76838,"lon":-86.15804}},{"facility":"Reid Physician Associates","status":"RECRUITING","city":"Richmond","state":"Indiana","zip":"47374","country":"United States","geoPoint":{"lat":39.82894,"lon":-84.89024}},{"facility":"University of Kansas Hospital","status":"RECRUITING","city":"Kansas City","state":"Kansas","zip":"66160","country":"United States","geoPoint":{"lat":39.11417,"lon":-94.62746}},{"facility":"Midwest Heart and Vascular Specialists","status":"RECRUITING","city":"Overland Park","state":"Kansas","zip":"66211","country":"United States","geoPoint":{"lat":38.98223,"lon":-94.67079}},{"facility":"University of Louisville Health - Jewish Hospital","status":"RECRUITING","city":"Louisville","state":"Kentucky","zip":"40202","country":"United States","geoPoint":{"lat":38.25424,"lon":-85.75941}},{"facility":"Massachusetts General Hospital","status":"RECRUITING","city":"Boston","state":"Massachusetts","zip":"02114","country":"United States","geoPoint":{"lat":42.35843,"lon":-71.05977}},{"facility":"Henry Ford Hospital","status":"RECRUITING","city":"Detroit","state":"Michigan","zip":"48202","country":"United States","geoPoint":{"lat":42.33143,"lon":-83.04575}},{"facility":"Healthy Heart Cardiology","status":"RECRUITING","city":"Grand Rapids","state":"Michigan","zip":"49546","country":"United States","geoPoint":{"lat":42.96336,"lon":-85.66809}},{"facility":"Sparrow Clinical Research Institute","status":"COMPLETED","city":"Lansing","state":"Michigan","zip":"48912","country":"United States","geoPoint":{"lat":42.73253,"lon":-84.55553}},{"facility":"McLaren Macomb Research Services","status":"RECRUITING","city":"Mount Clemens","state":"Michigan","zip":"48043","country":"United States","geoPoint":{"lat":42.59726,"lon":-82.87798}},{"facility":"McLaren Northern Michigan Hospital","status":"RECRUITING","city":"Petoskey","state":"Michigan","zip":"49770","country":"United States","geoPoint":{"lat":45.37334,"lon":-84.95533}},{"facility":"Advanced Cardiology Associates","status":"RECRUITING","city":"Rochester Hills","state":"Michigan","zip":"48307","country":"United States","geoPoint":{"lat":42.65837,"lon":-83.14993}},{"facility":"Essentia Health Saint Marys Medical Center","status":"RECRUITING","city":"Duluth","state":"Minnesota","zip":"55805","country":"United States","geoPoint":{"lat":46.78327,"lon":-92.10658}},{"facility":"Jackson Heart","status":"RECRUITING","city":"Jackson","state":"Mississippi","zip":"39216","country":"United States","geoPoint":{"lat":32.29876,"lon":-90.18481}},{"facility":"Cardiology Associates of North Mississippi","status":"RECRUITING","city":"Tupelo","state":"Mississippi","zip":"38801","country":"United States","geoPoint":{"lat":34.25807,"lon":-88.70464}},{"facility":"Saint Lukes Hospital of Kansas City","status":"RECRUITING","city":"Kansas City","state":"Missouri","zip":"64111","country":"United States","geoPoint":{"lat":39.09973,"lon":-94.57857}},{"facility":"North Kansas City Hospital","status":"RECRUITING","city":"North Kansas City","state":"Missouri","zip":"64116","country":"United States","geoPoint":{"lat":39.13,"lon":-94.56218}},{"facility":"Advanced Heart Care LLC","status":"COMPLETED","city":"Bridgewater","state":"New Jersey","zip":"08807","country":"United States","geoPoint":{"lat":40.60079,"lon":-74.64815}},{"facility":"Hackensack University Medical Center","status":"RECRUITING","city":"Hackensack","state":"New Jersey","zip":"07601","country":"United States","geoPoint":{"lat":40.88593,"lon":-74.04347}},{"facility":"Saint Michaels Medical Center","status":"RECRUITING","city":"Newark","state":"New Jersey","zip":"07102","country":"United States","geoPoint":{"lat":40.73566,"lon":-74.17237}},{"facility":"South Shore University Hospital Northwell Health","status":"RECRUITING","city":"Bay Shore","state":"New York","zip":"11706","country":"United States","geoPoint":{"lat":40.7251,"lon":-73.24539}},{"facility":"New York Presbyterian-Weill Cornell Medical Center","status":"RECRUITING","city":"New York","state":"New York","zip":"10065","country":"United States","geoPoint":{"lat":40.71427,"lon":-74.00597}},{"facility":"Hudson Valley Cardiovascular Practice PC","status":"RECRUITING","city":"Poughkeepsie","state":"New York","zip":"12601","country":"United States","geoPoint":{"lat":41.70037,"lon":-73.92097}},{"facility":"University of Rochester Medical Center","status":"RECRUITING","city":"Rochester","state":"New York","zip":"14642","country":"United States","geoPoint":{"lat":43.15478,"lon":-77.61556}},{"facility":"Richmond University Medical Center","status":"RECRUITING","city":"Staten Island","state":"New York","zip":"10310","country":"United States","geoPoint":{"lat":40.56233,"lon":-74.13986}},{"facility":"Stony Brook Medicine","status":"RECRUITING","city":"Stony Brook","state":"New York","zip":"11794","country":"United States","geoPoint":{"lat":40.92565,"lon":-73.14094}},{"facility":"University of North Carolina Cardiology","status":"RECRUITING","city":"Chapel Hill","state":"North Carolina","zip":"27599","country":"United States","geoPoint":{"lat":35.9132,"lon":-79.05584}},{"facility":"Novant Health Heart and Vascular Institute Presbyterian Medical Center","status":"RECRUITING","city":"Charlotte","state":"North Carolina","zip":"28204","country":"United States","geoPoint":{"lat":35.22709,"lon":-80.84313}},{"facility":"Moses H Cone Memorial Hospital","status":"RECRUITING","city":"Greensboro","state":"North Carolina","zip":"27401","country":"United States","geoPoint":{"lat":36.07264,"lon":-79.79198}},{"facility":"Aultman Hospital","status":"RECRUITING","city":"Canton","state":"Ohio","zip":"44710","country":"United States","geoPoint":{"lat":40.79895,"lon":-81.37845}},{"facility":"The Ohio State University Wexner Medical Center","status":"RECRUITING","city":"Columbus","state":"Ohio","zip":"43210","country":"United States","geoPoint":{"lat":39.96118,"lon":-82.99879}},{"facility":"Genesis Heart and Vascular Institute","status":"RECRUITING","city":"Zanesville","state":"Ohio","zip":"43701","country":"United States","geoPoint":{"lat":39.94035,"lon":-82.01319}},{"facility":"Ascension Saint John Bartlesville","status":"RECRUITING","city":"Tulsa","state":"Oklahoma","zip":"74104","country":"United States","geoPoint":{"lat":36.15398,"lon":-95.99277}},{"facility":"Ascension Saint John Tulsa","status":"RECRUITING","city":"Tulsa","state":"Oklahoma","zip":"74104","country":"United States","geoPoint":{"lat":36.15398,"lon":-95.99277}},{"facility":"Wellspan Chambersburg Hospital","status":"RECRUITING","city":"Chambersburg","state":"Pennsylvania","zip":"17201","country":"United States","geoPoint":{"lat":39.93759,"lon":-77.6611}},{"facility":"Lancaster General Hospital/The Heart Group of Lancaster","status":"RECRUITING","city":"Lancaster","state":"Pennsylvania","zip":"17603","country":"United States","geoPoint":{"lat":40.03788,"lon":-76.30551}},{"facility":"Reading Hospital Tower Health","status":"RECRUITING","city":"West Reading","state":"Pennsylvania","zip":"19611","country":"United States","geoPoint":{"lat":40.3337,"lon":-75.94743}},{"facility":"Rhode Island Hospital","status":"RECRUITING","city":"Providence","state":"Rhode Island","zip":"02903","country":"United States","geoPoint":{"lat":41.82399,"lon":-71.41283}},{"facility":"Kent Hospital","status":"RECRUITING","city":"Warwick","state":"Rhode Island","zip":"02886","country":"United States","geoPoint":{"lat":41.7001,"lon":-71.41617}},{"facility":"Prisma Upstate and Midlands Greenville Hospital System","status":"RECRUITING","city":"Columbia","state":"South Carolina","zip":"29203","country":"United States","geoPoint":{"lat":34.00071,"lon":-81.03481}},{"facility":"Upstate Cardiology","status":"RECRUITING","city":"Greenville","state":"South Carolina","zip":"29607","country":"United States","geoPoint":{"lat":34.85262,"lon":-82.39401}},{"facility":"Turkey Creek Medical Center","status":"RECRUITING","city":"Knoxville","state":"Tennessee","zip":"37934","country":"United States","geoPoint":{"lat":35.96064,"lon":-83.92074}},{"facility":"Ascension Saint Thomas Nashville","status":"RECRUITING","city":"Nashville","state":"Tennessee","zip":"37205","country":"United States","geoPoint":{"lat":36.16589,"lon":-86.78444}},{"facility":"Vanderbilt University Medical Center","status":"RECRUITING","city":"Nashville","state":"Tennessee","zip":"37232-8802","country":"United States","geoPoint":{"lat":36.16589,"lon":-86.78444}},{"facility":"Parkway Cardiology Associates","status":"RECRUITING","city":"Oak Ridge","state":"Tennessee","zip":"37830","country":"United States","geoPoint":{"lat":36.01036,"lon":-84.26964}},{"facility":"Cardiovascular Research of Knoxville North Knoxville Medical Center","status":"RECRUITING","city":"Powell","state":"Tennessee","zip":"37849","country":"United States","geoPoint":{"lat":36.03175,"lon":-84.02797}},{"facility":"Ascension Texas Cardiovascular","status":"RECRUITING","city":"Austin","state":"Texas","zip":"78705","country":"United States","geoPoint":{"lat":30.26715,"lon":-97.74306}},{"facility":"Ascension Texas Cardiovascular Kyle","status":"RECRUITING","city":"Kyle","state":"Texas","zip":"78640","country":"United States","geoPoint":{"lat":29.98911,"lon":-97.87723}},{"facility":"Bon Secours St Marys Hospital Richmond","status":"RECRUITING","city":"Midlothian","state":"Virginia","zip":"23114","country":"United States","geoPoint":{"lat":37.50598,"lon":-77.64916}},{"facility":"Chippenham Hospital","status":"RECRUITING","city":"Richmond","state":"Virginia","zip":"23225","country":"United States","geoPoint":{"lat":37.55376,"lon":-77.46026}},{"facility":"Aurora Saint Lukes Medical Center","status":"RECRUITING","city":"Milwaukee","state":"Wisconsin","zip":"53215","country":"United States","geoPoint":{"lat":43.0389,"lon":-87.90647}},{"facility":"Clínica Silvestre Sante","status":"RECRUITING","city":"Rio Branco","state":"Acre","zip":"69900785","country":"Brazil","geoPoint":{"lat":-9.97472,"lon":-67.81}},{"facility":"Instituto Cardiovascular de Linhares","status":"RECRUITING","city":"Linhares","state":"Espírito Santo","zip":"29900010","country":"Brazil","geoPoint":{"lat":-19.39111,"lon":-40.07222}},{"facility":"Hospital Ruy Azeredo","status":"RECRUITING","city":"Ipiranga Goiânia","state":"Goiás","zip":"74453-200","country":"Brazil"},{"facility":"Hospital Madre Teresa","status":"RECRUITING","city":"Belo Horizonte","state":"Minas Gerais","zip":"30140-073","country":"Brazil","geoPoint":{"lat":-19.92083,"lon":-43.93778}},{"facility":"Hospital Universitário Ciências Médicas de Belo Horizonte","status":"RECRUITING","city":"Belo Horizonte","state":"Minas Gerais","zip":"30140-073","country":"Brazil","geoPoint":{"lat":-19.92083,"lon":-43.93778}},{"facility":"Hospital do Coracao de Pocos de Caldas CEC servicos medicos","status":"RECRUITING","city":"Pocos de Caldas","state":"Minas Gerais","zip":"37706-106","country":"Brazil","geoPoint":{"lat":-21.78778,"lon":-46.56139}},{"facility":"Pronto Socorro Cardiologico de Pernambuco PROCAPE","status":"RECRUITING","city":"Casa Forte","state":"Pernambuco","zip":"52061-540","country":"Brazil","geoPoint":{"lat":-8.03365,"lon":-34.91897}},{"facility":"Instituto Atena de Pesquisa Clínica","status":"RECRUITING","city":"Natal","state":"Rio Grande Do Norte","zip":"59020-500","country":"Brazil","geoPoint":{"lat":-5.795,"lon":-35.20944}},{"facility":"Centro de Pesquisa Clínica Associação Hospitalar Moinhos de Vento","status":"RECRUITING","city":"Porto Alegre","state":"Rio Grande Do Sul","zip":"90035-001","country":"Brazil","geoPoint":{"lat":-30.03306,"lon":-51.23}},{"facility":"Hospital de Clínicas de Porto Alegre","status":"RECRUITING","city":"Porto Alegre","state":"Rio Grande Do Sul","zip":"90035-903","country":"Brazil","geoPoint":{"lat":-30.03306,"lon":-51.23}},{"facility":"Instituto de Cardiologia do Rio Grande do Sul","status":"RECRUITING","city":"Porto Alegre","state":"Rio Grande Do Sul","zip":"90620-001","country":"Brazil","geoPoint":{"lat":-30.03306,"lon":-51.23}},{"facility":"Santa Casa de Porto Alegre","status":"RECRUITING","city":"Porto Alegre","state":"Rio Grande Do Sul","zip":"90620-001","country":"Brazil","geoPoint":{"lat":-30.03306,"lon":-51.23}},{"facility":"Hospital Mãe de Deus","status":"RECRUITING","city":"Porto Alegre","state":"Rio Grande Do Sul","zip":"90840-440","country":"Brazil","geoPoint":{"lat":-30.03306,"lon":-51.23}},{"facility":"Hospital Beneficência Portuguesa","status":"RECRUITING","city":"São Paulo","state":"Rio Grande Do Sul","zip":"01323-900","country":"Brazil","geoPoint":{"lat":-23.5475,"lon":-46.63611}},{"facility":"C-MEP Centro Multidisciplinar de Ensino e Pesquisa","status":"RECRUITING","city":"Joinville","state":"Santa Catarina","zip":"89204-250","country":"Brazil","geoPoint":{"lat":-26.30444,"lon":-48.84556}},{"facility":"Instituto de Cardiologia de Santa Catarina","status":"RECRUITING","city":"Praia Comprida, Sao Jose","state":"Santa Catarina","zip":"88103-450","country":"Brazil"},{"facility":"Centro de Pesquisa Clinica do Coracao","status":"RECRUITING","city":"Aracaju","state":"Sergipe","zip":"49055-530","country":"Brazil","geoPoint":{"lat":-10.91111,"lon":-37.07167}},{"facility":"Hospital Universitario Sao Francisco na Providencia de Deus","status":"RECRUITING","city":"Braganca Paulista","state":"São Paulo","zip":"12916542","country":"Brazil","geoPoint":{"lat":-22.9527,"lon":-46.54418}},{"facility":"Instituto de Pesquisa Clínica de Campinas","status":"RECRUITING","city":"Campinas","state":"São Paulo","zip":"13060-080","country":"Brazil","geoPoint":{"lat":-22.90556,"lon":-47.06083}},{"facility":"Irmandade da Santa Casa de Misericordia de Marilia","status":"RECRUITING","city":"Marilia","state":"São Paulo","zip":"90840-440","country":"Brazil","geoPoint":{"lat":-22.21389,"lon":-49.94583}},{"facility":"Hospital Regional de Presidente Prudente","status":"RECRUITING","city":"Presidente Prudente","state":"São Paulo","zip":"19050-680","country":"Brazil","geoPoint":{"lat":-22.12556,"lon":-51.38889}},{"facility":"Instituto Dante Pazanesse","status":"RECRUITING","city":"Sao Paulo","state":"São Paulo","zip":"04012-909","country":"Brazil","geoPoint":{"lat":-23.5475,"lon":-46.63611}},{"facility":"Instituto do coracao da Faculdade de Medicina da Universidade de Sao Paulo - InCor","status":"RECRUITING","city":"Sao Paulo","state":"São Paulo","zip":"05403-900","country":"Brazil","geoPoint":{"lat":-23.5475,"lon":-46.63611}},{"facility":"Hospital Israelita Albert Einstein","status":"RECRUITING","city":"São Paulo","zip":"05652-900","country":"Brazil","geoPoint":{"lat":-23.5475,"lon":-46.63611}},{"facility":"Alingsas Lasarett","status":"RECRUITING","city":"Alingsas","zip":"441 33","country":"Sweden","geoPoint":{"lat":57.93033,"lon":12.53345}},{"facility":"Gavle Sjukhus","status":"RECRUITING","city":"Gavle","zip":"801 88","country":"Sweden","geoPoint":{"lat":60.67452,"lon":17.14174}},{"facility":"Lanssjukhuset Ryhov","status":"RECRUITING","city":"Jonkoping","zip":"553 05","country":"Sweden","geoPoint":{"lat":57.78145,"lon":14.15618}},{"facility":"Blekingesjukhuset Karlskrona","status":"RECRUITING","city":"Karlskrona","zip":"371 85","country":"Sweden","geoPoint":{"lat":56.16156,"lon":15.58661}},{"facility":"Linkoping University Hospital","status":"RECRUITING","city":"Linkoping","zip":"581 85","country":"Sweden","geoPoint":{"lat":58.41086,"lon":15.62157}},{"facility":"Sunderby Sjukhus","status":"RECRUITING","city":"Lulea","zip":"971 80","country":"Sweden","geoPoint":{"lat":65.58415,"lon":22.15465}},{"facility":"Skane Universitetssjukhus i Lund","status":"RECRUITING","city":"Lund","zip":"221 85","country":"Sweden","geoPoint":{"lat":55.70584,"lon":13.19321}},{"facility":"Molndals Sjukhus","status":"RECRUITING","city":"Molndahl","zip":"431 80","country":"Sweden"},{"facility":"Vrinnevisjukhuset, Norrkoeping","status":"RECRUITING","city":"Norrkoeping","zip":"601 82","country":"Sweden"},{"facility":"Ostersunds sjukhus","status":"RECRUITING","city":"Ostersund","zip":"831 83","country":"Sweden","geoPoint":{"lat":63.1792,"lon":14.63566}},{"facility":"Sodersjukhuset","status":"RECRUITING","city":"Stockholm","zip":"118 83","country":"Sweden","geoPoint":{"lat":59.33258,"lon":18.0649}},{"facility":"Sundsvalls Sjukhus","status":"RECRUITING","city":"Sundsvall","zip":"851 86","country":"Sweden","geoPoint":{"lat":62.39129,"lon":17.3063}},{"facility":"Akademiska Sjukhuset i Uppsala","status":"RECRUITING","city":"Uppsala","zip":"751 85","country":"Sweden","geoPoint":{"lat":59.85882,"lon":17.63889}},{"facility":"Vastmanlands Sjukhus Vasteras","status":"RECRUITING","city":"Vasteras","zip":"721 89","country":"Sweden","geoPoint":{"lat":59.61617,"lon":16.55276}},{"facility":"Centrallasarettet Vaxjo","status":"RECRUITING","city":"Vaxjo","zip":"351 85","country":"Sweden","geoPoint":{"lat":56.87767,"lon":14.80906}}]},"referencesModule":{"seeAlsoLinks":[{"label":"AmgenTrials clinical trials website","url":"http://www.amgentrials.com"}]},"ipdSharingStatementModule":{"ipdSharing":"YES","description":"De-identified individual patient data for variables necessary to address the specific research question in an approved data sharing request.","infoTypes":["STUDY_PROTOCOL","SAP","ICF","CSR"],"timeFrame":"Data sharing requests relating to this study will be considered beginning 18 months after the study has ended and either 1) the product and indication have been granted marketing authorization in both the US and Europe or 2) clinical development for the product and/or indication discontinues and the data will not be submitted to regulatory authorities. There is no end date for eligibility to submit a data sharing request for this study.","accessCriteria":"Qualified researchers may submit a request containing the research objectives, the Amgen product(s) and Amgen study/studies in scope, endpoints/outcomes of interest, statistical analysis plan, data requirements, publication plan, and qualifications of the researcher(s). In general, Amgen does not grant external requests for individual patient data for the purpose of re-evaluating safety and efficacy issues already addressed in the product labelling. Requests are reviewed by a committee of internal advisors. If not approved, a Data Sharing Independent Review Panel will arbitrate and make the final decision. Upon approval, information necessary to address the research question will be provided under the terms of a data sharing agreement. This may include anonymized individual patient data and/or available supporting documents, containing fragments of analysis code where provided in analysis specifications. Further details are available at the URL below.","url":"http://www.amgen.com/datasharing"}},"derivedSection":{"miscInfoModule":{"versionHolder":"2024-02-14"},"conditionBrowseModule":{"meshes":[{"id":"D000002318","term":"Cardiovascular Diseases"},{"id":"D000009203","term":"Myocardial Infarction"},{"id":"D000007238","term":"Infarction"}],"ancestors":[{"id":"D000014652","term":"Vascular Diseases"},{"id":"D000007511","term":"Ischemia"},{"id":"D000010335","term":"Pathologic Processes"},{"id":"D000009336","term":"Necrosis"},{"id":"D000017202","term":"Myocardial Ischemia"},{"id":"D000006331","term":"Heart Diseases"}],"browseLeaves":[{"id":"M21996","name":"Stroke","relevance":"LOW"},{"id":"M11845","name":"Myocardial Infarction","asFound":"Myocardial Infarction","relevance":"HIGH"},{"id":"M9972","name":"Infarction","asFound":"Infarction","relevance":"HIGH"},{"id":"M1072","name":"ST Elevation Myocardial Infarction","relevance":"LOW"},{"id":"M1073","name":"Non-ST Elevated Myocardial Infarction","relevance":"LOW"},{"id":"M17090","name":"Vascular Diseases","relevance":"LOW"},{"id":"M10233","name":"Ischemia","relevance":"LOW"},{"id":"M11974","name":"Necrosis","relevance":"LOW"},{"id":"M6236","name":"Coronary Artery Disease","relevance":"LOW"},{"id":"M19196","name":"Myocardial Ischemia","relevance":"LOW"},{"id":"M9109","name":"Heart Diseases","relevance":"LOW"},{"id":"T170","name":"Acute Graft Versus Host Disease","relevance":"LOW"}],"browseBranches":[{"abbrev":"BC10","name":"Nervous System Diseases"},{"abbrev":"BC14","name":"Heart and Blood Diseases"},{"abbrev":"All","name":"All Conditions"},{"abbrev":"BC23","name":"Symptoms and General Pathology"},{"abbrev":"Rare","name":"Rare Diseases"}]},"interventionBrowseModule":{"meshes":[{"id":"C000577155","term":"Evolocumab"}],"ancestors":[{"id":"D000091362","term":"PCSK9 Inhibitors"},{"id":"D000000924","term":"Anticholesteremic Agents"},{"id":"D000000960","term":"Hypolipidemic Agents"},{"id":"D000000963","term":"Antimetabolites"},{"id":"D000045504","term":"Molecular Mechanisms of Pharmacological Action"},{"id":"D000015842","term":"Serine Proteinase Inhibitors"},{"id":"D000011480","term":"Protease Inhibitors"},{"id":"D000004791","term":"Enzyme Inhibitors"},{"id":"D000057847","term":"Lipid Regulating Agents"}],"browseLeaves":[{"id":"M348089","name":"Evolocumab","asFound":"Parental","relevance":"HIGH"},{"id":"M2850","name":"PCSK9 Inhibitors","relevance":"LOW"},{"id":"M3933","name":"Anticholesteremic Agents","relevance":"LOW"},{"id":"M3968","name":"Hypolipidemic Agents","relevance":"LOW"},{"id":"M3971","name":"Antimetabolites","relevance":"LOW"},{"id":"M14033","name":"Protease Inhibitors","relevance":"LOW"},{"id":"M18081","name":"Serine Proteinase Inhibitors","relevance":"LOW"},{"id":"M19299","name":"HIV Protease Inhibitors","relevance":"LOW"},{"id":"M7641","name":"Enzyme Inhibitors","relevance":"LOW"},{"id":"M28573","name":"Lipid Regulating Agents","relevance":"LOW"},{"id":"T18","name":"Serine","relevance":"LOW"}],"browseBranches":[{"abbrev":"Lipd","name":"Lipid Regulating Agents"},{"abbrev":"All","name":"All Drugs and Chemicals"},{"abbrev":"Infe","name":"Anti-Infective Agents"},{"abbrev":"AA","name":"Amino Acids"}]}},"hasResults":false}