{"protocolSection":{"identificationModule":{"nctId":"NCT00327691","orgStudyIdInfo":{"id":"0981-117"},"secondaryIdInfos":[{"id":"A2581136"}],"organization":{"fullName":"Pfizer","class":"INDUSTRY"},"briefTitle":"A Study to Determine the Degree of Additional Reduction in CV Risk in Lowering LDL Below Minimum Target Levels","officialTitle":"The Effect Of LDL-Cholesterol, Lowering Beyond Currently Recommended Minimum Targets On Coronary Heart Disesse (CHD) Recurrence In Patients With Pre-Existing CHD","acronym":"TNT"},"statusModule":{"statusVerifiedDate":"2007-05","overallStatus":"COMPLETED","startDateStruct":{"date":"1998-04"},"completionDateStruct":{"date":"2004-08"},"studyFirstSubmitDate":"2006-05-16","studyFirstSubmitQcDate":"2006-05-16","studyFirstPostDateStruct":{"date":"2006-05-18","type":"ESTIMATED"},"lastUpdateSubmitDate":"2007-05-01","lastUpdatePostDateStruct":{"date":"2007-05-03","type":"ESTIMATED"}},"sponsorCollaboratorsModule":{"leadSponsor":{"name":"Pfizer","class":"INDUSTRY"}},"descriptionModule":{"briefSummary":"The primary objective of this study is to determine the degree of additional reduction in cardiovascular risk that was accrued to patients by lowering their LDL-C beyond the currently accepted minimum target level for patients with pre-existing CHD. Secondary objectives include the safety profile of this treatment strategy, its cost-effectiveness, effect on other atherosclerotic-related events and procedures, and total mortality."},"conditionsModule":{"conditions":["Cardiovascular Disease","Cerebrovascular Accident","Coronary Heart Disease"],"keywords":["Major cardiovascular event","Major Coronary event","Revascularization"]},"designModule":{"studyType":"INTERVENTIONAL","phases":["PHASE4"],"designInfo":{"allocation":"RANDOMIZED","interventionModel":"PARALLEL","primaryPurpose":"PREVENTION","maskingInfo":{"masking":"DOUBLE"}},"enrollmentInfo":{"count":8600}},"armsInterventionsModule":{"interventions":[{"type":"DRUG","name":"Atorvastatin"}]},"outcomesModule":{"primaryOutcomes":[{"measure":"The primary outcome is the time to occurrence of a major"},{"measure":"cardiovascular event, defined as the composite outcome of the"},{"measure":"following clinical endpoints"},{"measure":"CHD death"},{"measure":"Non-fatal/Non-procedure related MI"},{"measure":"Resuscitated cardiac arrest or fatal/non-fatal stroke"}],"secondaryOutcomes":[{"measure":"The occurrence of the following clinical events"},{"measure":"Major coronary event (CHD death, non fatal myocardial infarction or resuscitated cardiac arrest)"},{"measure":"any coronary event (major coronary event or CABG"},{"measure":"PTCA, other revascularization procedure, procedure-related myocardial infarction, or documented angina)"},{"measure":"cerebrovascular event (fatal or non fatal stroke, TIA)"},{"measure":"peripheral vascular disease; hospitalization with primary diagnosis' of CHF"},{"measure":"any cardiovascular event (any of the above); and all-cause mortality."}]},"eligibilityModule":{"eligibilityCriteria":"Inclusion Criteria:\n\nMen and women age 35-75 who have evident CHD\n\nExclusion Criteria:\n\nKnown hypersensitivity to HMG CO-A reductase therapy, liver disease, evidence of secondary hyperlipidemia","healthyVolunteers":false,"sex":"ALL","minimumAge":"35 Years","maximumAge":"75 Years","stdAges":["ADULT","OLDER_ADULT"]},"contactsLocationsModule":{"overallOfficials":[{"name":"Pfizer CT.gov Call Center","affiliation":"Pfizer","role":"STUDY_DIRECTOR"}],"locations":[{"facility":"Pfizer Investigational Site","city":"Alabaster","state":"Alabama","zip":"35007","country":"United States","geoPoint":{"lat":33.24428,"lon":-86.81638}},{"facility":"Pfizer Investigational Site","city":"Birmingham","state":"Alabama","zip":"35205-4785","country":"United States","geoPoint":{"lat":33.52066,"lon":-86.80249}},{"facility":"Pfizer Investigational Site","city":"Birmingham","state":"Alabama","zip":"35213","country":"United States","geoPoint":{"lat":33.52066,"lon":-86.80249}},{"facility":"Pfizer Investigational Site","city":"Birmingham","state":"Alabama","zip":"35294-2041","country":"United States","geoPoint":{"lat":33.52066,"lon":-86.80249}},{"facility":"Pfizer Investigational Site","city":"Hoover","state":"Alabama","zip":"35216","country":"United States","geoPoint":{"lat":33.40539,"lon":-86.81138}},{"facility":"Pfizer Investigational Site","city":"Montgomery","state":"Alabama","zip":"36117","country":"United States","geoPoint":{"lat":32.36681,"lon":-86.29997}},{"facility":"Pfizer Investigational Site","city":"Mesa","state":"Arizona","zip":"85202","country":"United States","geoPoint":{"lat":33.42227,"lon":-111.82264}},{"facility":"Pfizer Investigational Site","city":"Mesa","state":"Arizona","zip":"85206","country":"United States","geoPoint":{"lat":33.42227,"lon":-111.82264}},{"facility":"Pfizer Investigational Site","city":"Burbank","state":"California","zip":"91505","country":"United States","geoPoint":{"lat":34.18084,"lon":-118.30897}},{"facility":"Pfizer Investigational Site","city":"Camp Pendleton","state":"California","zip":"92055","country":"United States","geoPoint":{"lat":33.31465,"lon":-117.31603}},{"facility":"Pfizer Investigational Site","city":"Fresno","state":"California","zip":"93703","country":"United States","geoPoint":{"lat":36.74773,"lon":-119.77237}},{"facility":"Pfizer Investigational Site","city":"La Jolla","state":"California","zip":"92037","country":"United States","geoPoint":{"lat":32.84727,"lon":-117.2742}},{"facility":"Pfizer Investigational Site","city":"Loma Linda","state":"California","zip":"92354","country":"United States","geoPoint":{"lat":34.04835,"lon":-117.26115}},{"facility":"Pfizer Investigational Site","city":"Los Angeles","state":"California","zip":"90017-2395","country":"United States","geoPoint":{"lat":34.05223,"lon":-118.24368}},{"facility":"Pfizer Investigational Site","city":"Los Angeles","state":"California","zip":"90048","country":"United States","geoPoint":{"lat":34.05223,"lon":-118.24368}},{"facility":"Pfizer Investigational Site","city":"Modesto","state":"California","zip":"95350","country":"United States","geoPoint":{"lat":37.6391,"lon":-120.99688}},{"facility":"Pfizer Investigational Site","city":"Pasadena","state":"California","zip":"91105","country":"United States","geoPoint":{"lat":34.14778,"lon":-118.14452}},{"facility":"Pfizer Investigational Site","city":"Rancho Mirage","state":"California","zip":"92270","country":"United States","geoPoint":{"lat":33.73974,"lon":-116.41279}},{"facility":"Pfizer Investigational Site","city":"San Diego","state":"California","zip":"92134-3303","country":"United States","geoPoint":{"lat":32.71533,"lon":-117.15726}},{"facility":"Pfizer Investigational Site","city":"San Francisco","state":"California","zip":"94143-0130","country":"United States","geoPoint":{"lat":37.77493,"lon":-122.41942}},{"facility":"Pfizer Investigational Site","city":"San Francisco","state":"California","zip":"94143-0326","country":"United States","geoPoint":{"lat":37.77493,"lon":-122.41942}},{"facility":"Pfizer Investigational Site","city":"Santa Rosa","state":"California","zip":"95403","country":"United States","geoPoint":{"lat":38.44047,"lon":-122.71443}},{"facility":"Pfizer Investigational Site","city":"Stanford","state":"California","country":"United States","geoPoint":{"lat":37.42411,"lon":-122.16608}},{"facility":"Pfizer Investigational Site","city":"Aurora","state":"Colorado","zip":"80012","country":"United States","geoPoint":{"lat":39.72943,"lon":-104.83192}},{"facility":"Pfizer Investigational Site","city":"Denver","state":"Colorado","zip":"80203","country":"United States","geoPoint":{"lat":39.73915,"lon":-104.9847}},{"facility":"Pfizer Investigational Site","city":"Denver","state":"Colorado","zip":"80218","country":"United States","geoPoint":{"lat":39.73915,"lon":-104.9847}},{"facility":"Pfizer Investigational Site","city":"Denver","state":"Colorado","zip":"80220","country":"United States","geoPoint":{"lat":39.73915,"lon":-104.9847}},{"facility":"Pfizer Investigational Site","city":"Bridgeport","state":"Connecticut","zip":"06610","country":"United States","geoPoint":{"lat":41.16704,"lon":-73.20483}},{"facility":"Pfizer Investigational Site","city":"Hartford","state":"Connecticut","zip":"06102","country":"United States","geoPoint":{"lat":41.76371,"lon":-72.68509}},{"facility":"Pfizer Investigational Site","city":"New Britain","state":"Connecticut","zip":"06053","country":"United States","geoPoint":{"lat":41.66121,"lon":-72.77954}},{"facility":"Pfizer Investigational Site","city":"Newark","state":"Delaware","zip":"19718","country":"United States","geoPoint":{"lat":39.68372,"lon":-75.74966}},{"facility":"Pfizer Investigational Site","city":"Washington","state":"District of Columbia","zip":"20037","country":"United States","geoPoint":{"lat":38.89511,"lon":-77.03637}},{"facility":"Pfizer Investigational Site","city":"Clearwater","state":"Florida","zip":"33756","country":"United States","geoPoint":{"lat":27.96585,"lon":-82.8001}},{"facility":"Pfizer Investigational Site","city":"Gainsville","state":"Florida","zip":"32608","country":"United States","geoPoint":{"lat":29.65163,"lon":-82.32483}},{"facility":"Pfizer Investigational Site","city":"Gainsville","state":"Florida","zip":"32610","country":"United States","geoPoint":{"lat":29.65163,"lon":-82.32483}},{"facility":"Pfizer Investigational Site","city":"Hollywood","state":"Florida","zip":"33021","country":"United States","geoPoint":{"lat":26.0112,"lon":-80.14949}},{"facility":"Pfizer Investigational Site","city":"Inverness","state":"Florida","zip":"34452","country":"United States","geoPoint":{"lat":28.83582,"lon":-82.33037}},{"facility":"Pfizer Investigational Site","city":"Lakeland","state":"Florida","zip":"33805","country":"United States","geoPoint":{"lat":28.03947,"lon":-81.9498}},{"facility":"Pfizer Investigational Site","city":"Miami","state":"Florida","zip":"33173","country":"United States","geoPoint":{"lat":25.77427,"lon":-80.19366}},{"facility":"Pfizer Investigational Site","city":"Miami","state":"Florida","zip":"33176","country":"United States","geoPoint":{"lat":25.77427,"lon":-80.19366}},{"facility":"Pfizer Investigational Site","city":"Ocala","state":"Florida","zip":"34474","country":"United States","geoPoint":{"lat":29.1872,"lon":-82.14009}},{"facility":"Pfizer Investigational Site","city":"Orlando","state":"Florida","zip":"32803","country":"United States","geoPoint":{"lat":28.53834,"lon":-81.37924}},{"facility":"Pfizer Investigational Site","city":"Port Charlotte","state":"Florida","zip":"33952","country":"United States","geoPoint":{"lat":26.97617,"lon":-82.09064}},{"facility":"Pfizer Investigational Site","city":"Sarasota","state":"Florida","zip":"34239","country":"United States","geoPoint":{"lat":27.33643,"lon":-82.53065}},{"facility":"Pfizer Investigational Site","city":"Stuart","state":"Florida","zip":"34996","country":"United States","geoPoint":{"lat":27.19755,"lon":-80.25283}},{"facility":"Pfizer Investigational Site","city":"Tamarac","state":"Florida","zip":"33321","country":"United States","geoPoint":{"lat":26.21286,"lon":-80.24977}},{"facility":"Pfizer Investigational Site","city":"The Villages","state":"Florida","zip":"32159","country":"United States","geoPoint":{"lat":28.93408,"lon":-81.95994}},{"facility":"Pfizer Investigational Site","city":"Atlanta","state":"Georgia","zip":"30309","country":"United States","geoPoint":{"lat":33.749,"lon":-84.38798}},{"facility":"Pfizer Investigational Site","city":"Canton","state":"Georgia","zip":"30114","country":"United States","geoPoint":{"lat":34.23676,"lon":-84.49076}},{"facility":"Pfizer Investigational Site","city":"Berwyn","state":"Illinois","zip":"60402","country":"United States","geoPoint":{"lat":41.85059,"lon":-87.79367}},{"facility":"Pfizer Investigational Site","city":"Blue Island","state":"Illinois","zip":"60406","country":"United States","geoPoint":{"lat":41.65726,"lon":-87.68005}},{"facility":"Pfizer Investigational Site","city":"Chicago","state":"Illinois","zip":"60610","country":"United States","geoPoint":{"lat":41.85003,"lon":-87.65005}},{"facility":"Pfizer Investigational Site","city":"Chicago","state":"Illinois","zip":"60611","country":"United States","geoPoint":{"lat":41.85003,"lon":-87.65005}},{"facility":"Pfizer Investigational Site","city":"DuQuoin","state":"Illinois","zip":"62832","country":"United States","geoPoint":{"lat":38.01144,"lon":-89.23619}},{"facility":"Pfizer Investigational Site","city":"Evanston","state":"Illinois","zip":"60201","country":"United States","geoPoint":{"lat":42.04114,"lon":-87.69006}},{"facility":"Pfizer Investigational Site","city":"Lake Forest","state":"Illinois","zip":"60045","country":"United States","geoPoint":{"lat":42.25863,"lon":-87.84063}},{"facility":"Pfizer Investigational Site","city":"Marion","state":"Illinois","zip":"62959","country":"United States","geoPoint":{"lat":37.73061,"lon":-88.93313}},{"facility":"Pfizer Investigational Site","city":"Pekin","state":"Illinois","zip":"61554","country":"United States","geoPoint":{"lat":40.56754,"lon":-89.64066}},{"facility":"Pfizer Investigational Site","city":"Peoria","state":"Illinois","zip":"61603","country":"United States","geoPoint":{"lat":40.69365,"lon":-89.58899}},{"facility":"Pfizer Investigational Site","city":"Peoria","state":"Illinois","zip":"61614","country":"United States","geoPoint":{"lat":40.69365,"lon":-89.58899}},{"facility":"Pfizer Investigational Site","city":"Beech Grove","state":"Indiana","zip":"46107","country":"United States","geoPoint":{"lat":39.72199,"lon":-86.08998}},{"facility":"Pfizer Investigational Site","city":"Evansville","state":"Indiana","zip":"47710","country":"United States","geoPoint":{"lat":37.97476,"lon":-87.55585}},{"facility":"Pfizer Investigational Site","city":"Fort Wayne","state":"Indiana","zip":"46805","country":"United States","geoPoint":{"lat":41.1306,"lon":-85.12886}},{"facility":"Pfizer Investigational Site","city":"Fort Wayne","state":"Indiana","zip":"46825","country":"United States","geoPoint":{"lat":41.1306,"lon":-85.12886}},{"facility":"Pfizer Investigational Site","city":"Jeffersonville","state":"Indiana","zip":"47130","country":"United States","geoPoint":{"lat":38.27757,"lon":-85.73718}},{"facility":"Pfizer Investigational Site","city":"Scottsburg","state":"Indiana","zip":"47170","country":"United States","geoPoint":{"lat":38.68561,"lon":-85.77025}},{"facility":"Pfizer Investigational Site","city":"Des Moines","state":"Iowa","zip":"50314","country":"United States","geoPoint":{"lat":41.60054,"lon":-93.60911}},{"facility":"Pfizer Investigational Site","city":"Iowa City","state":"Iowa","zip":"52242","country":"United States","geoPoint":{"lat":41.66113,"lon":-91.53017}},{"facility":"Pfizer Investigational Site","city":"Kansas City","state":"Kansas","zip":"66160-7200","country":"United States","geoPoint":{"lat":39.11417,"lon":-94.62746}},{"facility":"Pfizer Investigational Site","city":"Lathe","state":"Kansas","zip":"66061","country":"United States","geoPoint":{"lat":37.53613,"lon":-96.64197}},{"facility":"Pfizer Investigational Site","city":"Overland Park","state":"Kansas","zip":"66213","country":"United States","geoPoint":{"lat":38.98223,"lon":-94.67079}},{"facility":"Pfizer Investigational Site","city":"Wichita","state":"Kansas","zip":"67220","country":"United States","geoPoint":{"lat":37.69224,"lon":-97.33754}},{"facility":"Pfizer Investigational Site","city":"Edgewood","state":"Kentucky","zip":"41017","country":"United States","geoPoint":{"lat":39.01867,"lon":-84.58189}},{"facility":"Pfizer Investigational Site","city":"Erlanger","state":"Kentucky","zip":"41018","country":"United States","geoPoint":{"lat":39.01673,"lon":-84.60078}},{"facility":"Pfizer Investigational Site","city":"Louisville","state":"Kentucky","zip":"40202","country":"United States","geoPoint":{"lat":38.25424,"lon":-85.75941}},{"facility":"Pfizer Investigational Site","city":"Marrero","state":"Louisiana","zip":"70072","country":"United States","geoPoint":{"lat":29.89937,"lon":-90.10035}},{"facility":"Pfizer Investigational Site","city":"New Orleans","state":"Louisiana","zip":"70112","country":"United States","geoPoint":{"lat":29.95465,"lon":-90.07507}},{"facility":"Pfizer Investigational Site","city":"New Orleans","state":"Louisiana","zip":"70121","country":"United States","geoPoint":{"lat":29.95465,"lon":-90.07507}},{"facility":"Pfizer Investigational Site","city":"Portland","state":"Maine","zip":"04102","country":"United States","geoPoint":{"lat":43.66147,"lon":-70.25533}},{"facility":"Pfizer Investigational Site","city":"Baltimore","state":"Maryland","zip":"21201","country":"United States","geoPoint":{"lat":39.29038,"lon":-76.61219}},{"facility":"Pfizer Investigational Site","city":"Baltimore","state":"Maryland","zip":"21204","country":"United States","geoPoint":{"lat":39.29038,"lon":-76.61219}},{"facility":"Pfizer Investigational Site","city":"Baltimore","state":"Maryland","zip":"21205","country":"United States","geoPoint":{"lat":39.29038,"lon":-76.61219}},{"facility":"Pfizer Investigational Site","city":"Baltimore","state":"Maryland","zip":"21208","country":"United States","geoPoint":{"lat":39.29038,"lon":-76.61219}},{"facility":"Pfizer Investigational Site","city":"Baltimore","state":"Maryland","zip":"21218","country":"United States","geoPoint":{"lat":39.29038,"lon":-76.61219}},{"facility":"Pfizer Investigational Site","city":"Baltimore","state":"Maryland","zip":"21224","country":"United States","geoPoint":{"lat":39.29038,"lon":-76.61219}},{"facility":"Pfizer Investigational Site","city":"Baltimore","state":"Maryland","zip":"21228","country":"United States","geoPoint":{"lat":39.29038,"lon":-76.61219}},{"facility":"Pfizer Investigational Site","city":"Baltimore","state":"Maryland","zip":"21229","country":"United States","geoPoint":{"lat":39.29038,"lon":-76.61219}},{"facility":"Pfizer Investigational Site","city":"Baltimore","state":"Maryland","zip":"21237","country":"United States","geoPoint":{"lat":39.29038,"lon":-76.61219}},{"facility":"Pfizer Investigational Site","city":"Baltimore","state":"Maryland","zip":"21287","country":"United States","geoPoint":{"lat":39.29038,"lon":-76.61219}},{"facility":"Pfizer Investigational Site","city":"Bel Air","state":"Maryland","zip":"21014","country":"United States","geoPoint":{"lat":39.53594,"lon":-76.34829}},{"facility":"Pfizer Investigational Site","city":"Westminster","state":"Maryland","zip":"21157","country":"United States","geoPoint":{"lat":39.57538,"lon":-76.99581}},{"facility":"Pfizer Investigational Site","city":"Boston","state":"Massachusetts","zip":"02111","country":"United States","geoPoint":{"lat":42.35843,"lon":-71.05977}},{"facility":"Pfizer Investigational Site","city":"Boston","state":"Massachusetts","zip":"02215","country":"United States","geoPoint":{"lat":42.35843,"lon":-71.05977}},{"facility":"Pfizer Investigational Site","city":"Burlington","state":"Massachusetts","zip":"1805","country":"United States","geoPoint":{"lat":42.50482,"lon":-71.19561}},{"facility":"Pfizer Investigational Site","city":"Dearborn","state":"Michigan","zip":"48126","country":"United States","geoPoint":{"lat":42.32226,"lon":-83.17631}},{"facility":"Pfizer Investigational Site","city":"Detroit","state":"Michigan","zip":"48202","country":"United States","geoPoint":{"lat":42.33143,"lon":-83.04575}},{"facility":"Pfizer Investigational Site","city":"Farmington Hill","state":"Michigan","zip":"48336","country":"United States","geoPoint":{"lat":42.48531,"lon":-83.37716}},{"facility":"Pfizer Investigational Site","city":"Sterling Heights","state":"Michigan","zip":"48310","country":"United States","geoPoint":{"lat":42.58031,"lon":-83.0302}},{"facility":"Pfizer Investigational Site","city":"West Bloomfield","state":"Michigan","zip":"48322","country":"United States","geoPoint":{"lat":42.56891,"lon":-83.38356}},{"facility":"Pfizer Investigational Site","city":"Duluth","state":"Minnesota","zip":"55805","country":"United States","geoPoint":{"lat":46.78327,"lon":-92.10658}},{"facility":"Pfizer Investigational Site","city":"Edina","state":"Minnesota","zip":"55435","country":"United States","geoPoint":{"lat":44.88969,"lon":-93.34995}},{"facility":"Pfizer Investigational Site","city":"Maplewood","state":"Minnesota","zip":"55109","country":"United States","geoPoint":{"lat":44.95302,"lon":-92.99522}},{"facility":"Pfizer Investigational Site","city":"Minneapolis","state":"Minnesota","zip":"55455","country":"United States","geoPoint":{"lat":44.97997,"lon":-93.26384}},{"facility":"Pfizer Investigational Site","city":"St. Paul","state":"Minnesota","zip":"55102","country":"United States","geoPoint":{"lat":44.94441,"lon":-93.09327}},{"facility":"Pfizer Investigational Site","city":"Kansas City","state":"Missouri","zip":"64111","country":"United States","geoPoint":{"lat":39.09973,"lon":-94.57857}},{"facility":"Pfizer Investigational Site","city":"St. Louis","state":"Missouri","zip":"63104","country":"United States","geoPoint":{"lat":38.62727,"lon":-90.19789}},{"facility":"Pfizer Investigational Site","city":"St. Louis","state":"Missouri","zip":"63110-0205","country":"United States","geoPoint":{"lat":38.62727,"lon":-90.19789}},{"facility":"Pfizer Investigational Site","city":"St. Louis","state":"Missouri","zip":"63110","country":"United States","geoPoint":{"lat":38.62727,"lon":-90.19789}},{"facility":"Pfizer Investigational Site","city":"St. Louis","state":"Missouri","zip":"63117","country":"United States","geoPoint":{"lat":38.62727,"lon":-90.19789}},{"facility":"Pfizer Investigational Site","city":"St. Louis","state":"Missouri","zip":"63141","country":"United States","geoPoint":{"lat":38.62727,"lon":-90.19789}},{"facility":"Pfizer Investigational Site","city":"Papillion","state":"Nebraska","zip":"68046","country":"United States","geoPoint":{"lat":41.15444,"lon":-96.04224}},{"facility":"Pfizer Investigational Site","city":"Manchester","state":"New Hampshire","zip":"03102","country":"United States","geoPoint":{"lat":42.99564,"lon":-71.45479}},{"facility":"Pfizer Investigational Site","city":"New Brunswick","state":"New Jersey","zip":"08901","country":"United States","geoPoint":{"lat":40.48622,"lon":-74.45182}},{"facility":"Pfizer Investigational Site","city":"Albany","state":"New York","zip":"12208","country":"United States","geoPoint":{"lat":42.65258,"lon":-73.75623}},{"facility":"Pfizer Investigational Site","city":"Brooklyn","state":"New York","zip":"11203","country":"United States","geoPoint":{"lat":40.6501,"lon":-73.94958}},{"facility":"Pfizer Investigational Site","city":"Hawthorne","state":"New York","zip":"10535","country":"United States","geoPoint":{"lat":41.10732,"lon":-73.79597}},{"facility":"Pfizer Investigational Site","city":"Manlius","state":"New York","zip":"13104","country":"United States","geoPoint":{"lat":43.00201,"lon":-75.97686}},{"facility":"Pfizer Investigational Site","city":"New York","state":"New York","zip":"10021","country":"United States","geoPoint":{"lat":40.71427,"lon":-74.00597}},{"facility":"Pfizer Investigational Site","city":"New York","state":"New York","zip":"10029","country":"United States","geoPoint":{"lat":40.71427,"lon":-74.00597}},{"facility":"Pfizer Investigational Site","city":"New York","state":"New York","zip":"10032","country":"United States","geoPoint":{"lat":40.71427,"lon":-74.00597}},{"facility":"Pfizer Investigational Site","city":"Rochester","state":"New York","zip":"14607","country":"United States","geoPoint":{"lat":43.15478,"lon":-77.61556}},{"facility":"Pfizer Investigational Site","city":"Rochester","state":"New York","zip":"14618","country":"United States","geoPoint":{"lat":43.15478,"lon":-77.61556}},{"facility":"Pfizer Investigational Site","city":"Rochester","state":"New York","zip":"14621","country":"United States","geoPoint":{"lat":43.15478,"lon":-77.61556}},{"facility":"Pfizer Investigational Site","city":"Syracuse","state":"New York","zip":"13202","country":"United States","geoPoint":{"lat":43.04812,"lon":-76.14742}},{"facility":"Pfizer Investigational Site","city":"Syracuse","state":"New York","zip":"13210","country":"United States","geoPoint":{"lat":43.04812,"lon":-76.14742}},{"facility":"Pfizer Investigational Site","city":"Valhalla","state":"New York","zip":"10595","country":"United States","geoPoint":{"lat":41.07482,"lon":-73.77513}},{"facility":"Pfizer Investigational Site","city":"Asheville","state":"North Carolina","zip":"28803","country":"United States","geoPoint":{"lat":35.60095,"lon":-82.55402}},{"facility":"Pfizer Investigational Site","city":"Durham","state":"North Carolina","zip":"27710","country":"United States","geoPoint":{"lat":35.99403,"lon":-78.89862}},{"facility":"Pfizer Investigational Site","city":"Eden","state":"North Carolina","zip":"27288","country":"United States","geoPoint":{"lat":36.48847,"lon":-79.7667}},{"facility":"Pfizer Investigational Site","city":"Winston-Salem","state":"North Carolina","zip":"27157","country":"United States","geoPoint":{"lat":36.09986,"lon":-80.24422}},{"facility":"Pfizer Investigational Site","city":"Beachwood","state":"Ohio","zip":"44122","country":"United States","geoPoint":{"lat":41.4645,"lon":-81.50873}},{"facility":"Pfizer Investigational Site","city":"Cincinnati","state":"Ohio","zip":"45219","country":"United States","geoPoint":{"lat":39.12713,"lon":-84.51435}},{"facility":"Pfizer Investigational Site","city":"Cincinnati","state":"Ohio","zip":"45229","country":"United States","geoPoint":{"lat":39.12713,"lon":-84.51435}},{"facility":"Pfizer Investigational Site","city":"Cincinnati","state":"Ohio","zip":"45246","country":"United States","geoPoint":{"lat":39.12713,"lon":-84.51435}},{"facility":"Pfizer Investigational Site","city":"Cleveland","state":"Ohio","zip":"44106-5038","country":"United States","geoPoint":{"lat":41.4995,"lon":-81.69541}},{"facility":"Pfizer Investigational Site","city":"Cleveland","state":"Ohio","zip":"44195","country":"United States","geoPoint":{"lat":41.4995,"lon":-81.69541}},{"facility":"Pfizer Investigational Site","city":"Columbus","state":"Ohio","zip":"43210","country":"United States","geoPoint":{"lat":39.96118,"lon":-82.99879}},{"facility":"Pfizer Investigational Site","city":"Columbus","state":"Ohio","zip":"43221","country":"United States","geoPoint":{"lat":39.96118,"lon":-82.99879}},{"facility":"Pfizer Investigational Site","city":"Kettering","state":"Ohio","zip":"45429-1221","country":"United States","geoPoint":{"lat":39.6895,"lon":-84.16883}},{"facility":"Pfizer Investigational Site","city":"Lorain","state":"Ohio","zip":"44053","country":"United States","geoPoint":{"lat":41.45282,"lon":-82.18237}},{"facility":"Pfizer Investigational Site","city":"Sandusky","state":"Ohio","zip":"44870","country":"United States","geoPoint":{"lat":41.44894,"lon":-82.70796}},{"facility":"Pfizer Investigational Site","city":"Oklahoma City","state":"Oklahoma","zip":"73104","country":"United States","geoPoint":{"lat":35.46756,"lon":-97.51643}},{"facility":"Pfizer Investigational Site","city":"Tulsa","state":"Oklahoma","zip":"74133","country":"United States","geoPoint":{"lat":36.15398,"lon":-95.99277}},{"facility":"Pfizer Investigational Site","city":"Tulsa","state":"Oklahoma","zip":"74136-1920","country":"United States","geoPoint":{"lat":36.15398,"lon":-95.99277}},{"facility":"Pfizer Investigational Site","city":"Tulsa","state":"Oklahoma","zip":"74136","country":"United States","geoPoint":{"lat":36.15398,"lon":-95.99277}},{"facility":"Pfizer Investigational Site","city":"Eugene","state":"Oregon","zip":"97401","country":"United States","geoPoint":{"lat":44.05207,"lon":-123.08675}},{"facility":"Pfizer Investigational Site","city":"Portland","state":"Oregon","zip":"97210","country":"United States","geoPoint":{"lat":45.52345,"lon":-122.67621}},{"facility":"Pfizer Investigational Site","city":"Portland","state":"Oregon","zip":"97216","country":"United States","geoPoint":{"lat":45.52345,"lon":-122.67621}},{"facility":"Pfizer Investigational Site","city":"Allentown","state":"Pennsylvania","zip":"18102","country":"United States","geoPoint":{"lat":40.60843,"lon":-75.49018}},{"facility":"Pfizer Investigational Site","city":"Allentown","state":"Pennsylvania","zip":"18106-0880","country":"United States","geoPoint":{"lat":40.60843,"lon":-75.49018}},{"facility":"Pfizer Investigational Site","city":"Lansdale","state":"Pennsylvania","zip":"19446","country":"United States","geoPoint":{"lat":40.2415,"lon":-75.28379}},{"facility":"Pfizer Investigational Site","city":"Lehighton","state":"Pennsylvania","zip":"18235","country":"United States","geoPoint":{"lat":40.8337,"lon":-75.7138}},{"facility":"Pfizer Investigational Site","city":"Philadelphia","state":"Pennsylvania","zip":"19104","country":"United States","geoPoint":{"lat":39.95233,"lon":-75.16379}},{"facility":"Pfizer Investigational Site","city":"Philadelphia","state":"Pennsylvania","zip":"19107","country":"United States","geoPoint":{"lat":39.95233,"lon":-75.16379}},{"facility":"Pfizer Investigational Site","city":"Pittsburgh","state":"Pennsylvania","zip":"15213","country":"United States","geoPoint":{"lat":40.44062,"lon":-79.99589}},{"facility":"Pfizer Investigational Site","city":"Sellersville","state":"Pennsylvania","zip":"18960","country":"United States","geoPoint":{"lat":40.35399,"lon":-75.3049}},{"facility":"Pfizer Investigational Site","city":"Pawtucket","state":"Rhode Island","zip":"02860","country":"United States","geoPoint":{"lat":41.87871,"lon":-71.38256}},{"facility":"Pfizer Investigational Site","city":"Providence","state":"Rhode Island","zip":"02906","country":"United States","geoPoint":{"lat":41.82399,"lon":-71.41283}},{"facility":"Pfizer Investigational Site","city":"Charleston","state":"South Carolina","zip":"29403","country":"United States","geoPoint":{"lat":32.77657,"lon":-79.93092}},{"facility":"Pfizer Investigational Site","city":"Sioux Falls","state":"South Dakota","zip":"57105","country":"United States","geoPoint":{"lat":43.54997,"lon":-96.70033}},{"facility":"Pfizer Investigational Site","city":"Sioux Falls","state":"South Dakota","zip":"57108","country":"United States","geoPoint":{"lat":43.54997,"lon":-96.70033}},{"facility":"Pfizer Investigational Site","city":"Memphis","state":"Tennessee","zip":"38104","country":"United States","geoPoint":{"lat":35.14953,"lon":-90.04898}},{"facility":"Pfizer Investigational Site","city":"Memphis","state":"Tennessee","zip":"38105","country":"United States","geoPoint":{"lat":35.14953,"lon":-90.04898}},{"facility":"Pfizer Investigational Site","city":"Memphis","state":"Tennessee","zip":"38119-5209","country":"United States","geoPoint":{"lat":35.14953,"lon":-90.04898}},{"facility":"Pfizer Investigational Site","city":"Memphis","state":"Tennessee","zip":"38128","country":"United States","geoPoint":{"lat":35.14953,"lon":-90.04898}},{"facility":"Pfizer Investigational Site","city":"Nashville","state":"Tennessee","zip":"37205","country":"United States","geoPoint":{"lat":36.16589,"lon":-86.78444}},{"facility":"Pfizer Investigational Site","city":"Nashville","state":"Tennessee","zip":"37232-6300","country":"United States","geoPoint":{"lat":36.16589,"lon":-86.78444}},{"facility":"Pfizer Investigational Site","city":"Austin","state":"Texas","zip":"78756","country":"United States","geoPoint":{"lat":30.26715,"lon":-97.74306}},{"facility":"Pfizer Investigational Site","city":"Dallas","state":"Texas","zip":"75235","country":"United States","geoPoint":{"lat":32.78306,"lon":-96.80667}},{"facility":"Pfizer Investigational Site","city":"Dallas","state":"Texas","zip":"75246","country":"United States","geoPoint":{"lat":32.78306,"lon":-96.80667}},{"facility":"Pfizer Investigational Site","city":"Dallas","state":"Texas","zip":"75390-9047","country":"United States","geoPoint":{"lat":32.78306,"lon":-96.80667}},{"facility":"Pfizer Investigational Site","city":"Denton","state":"Texas","zip":"76204","country":"United States","geoPoint":{"lat":33.21484,"lon":-97.13307}},{"facility":"Pfizer Investigational Site","city":"Houston","state":"Texas","zip":"77030","country":"United States","geoPoint":{"lat":29.76328,"lon":-95.36327}},{"facility":"Pfizer Investigational Site","city":"Lackland AFB","state":"Texas","zip":"78236-5300","country":"United States","geoPoint":{"lat":29.38663,"lon":-98.61797}},{"facility":"Pfizer Investigational Site","city":"San Antonio","state":"Texas","zip":"78229","country":"United States","geoPoint":{"lat":29.42412,"lon":-98.49363}},{"facility":"Pfizer Investigational Site","city":"Salt Lake City","state":"Utah","zip":"84124","country":"United States","geoPoint":{"lat":40.76078,"lon":-111.89105}},{"facility":"Pfizer Investigational Site","city":"Burlington","state":"Vermont","zip":"05401","country":"United States","geoPoint":{"lat":44.47588,"lon":-73.21207}},{"facility":"Pfizer Investigational Site","city":"Richmond","state":"Virginia","zip":"23249","country":"United States","geoPoint":{"lat":37.55376,"lon":-77.46026}},{"facility":"Pfizer Investigational Site","city":"Richmond","state":"Virginia","zip":"23298","country":"United States","geoPoint":{"lat":37.55376,"lon":-77.46026}},{"facility":"Pfizer Investigational Site","city":"Seattle","state":"Washington","zip":"98104","country":"United States","geoPoint":{"lat":47.60621,"lon":-122.33207}},{"facility":"Pfizer Investigational Site","city":"Milwaukee","state":"Wisconsin","zip":"53295","country":"United States","geoPoint":{"lat":43.0389,"lon":-87.90647}},{"facility":"Pfizer Investigational Site","city":"St. Leonards","state":"New South Wales","zip":"2065","country":"Australia","geoPoint":{"lat":-33.82344,"lon":151.19836}},{"facility":"Pfizer Investigational Site","city":"Auchenflower","state":"Queensland","zip":"4066","country":"Australia","geoPoint":{"lat":-27.47443,"lon":152.99213}},{"facility":"Pfizer Investigational Site","city":"Brisbane","state":"Queensland","zip":"4029","country":"Australia","geoPoint":{"lat":-27.46794,"lon":153.02809}},{"facility":"Pfizer Investigational Site","city":"Chermside","state":"Queensland","zip":"4032","country":"Australia","geoPoint":{"lat":-27.38472,"lon":153.03062}},{"facility":"Pfizer Investigational Site","city":"Greenslopes","state":"Queensland","zip":"4130","country":"Australia","geoPoint":{"lat":-27.50815,"lon":153.04951}},{"facility":"Pfizer Investigational Site","city":"Herston","state":"Queensland","zip":"4029","country":"Australia","geoPoint":{"lat":-27.44453,"lon":153.01852}},{"facility":"Pfizer Investigational Site","city":"Milton","state":"Queensland","zip":"4064","country":"Australia","geoPoint":{"lat":-35.31644,"lon":150.4361}},{"facility":"Pfizer Investigational Site","city":"Adelaide","state":"South Australia","zip":"5000","country":"Australia","geoPoint":{"lat":-34.92866,"lon":138.59863}},{"facility":"Pfizer Investigational Site","city":"Bedford Park","state":"South Australia","zip":"5042","country":"Australia","geoPoint":{"lat":-35.03333,"lon":138.56667}},{"facility":"Pfizer Investigational Site","city":"Hobart","state":"Tasmania","zip":"7000","country":"Australia","geoPoint":{"lat":-42.87936,"lon":147.32941}},{"facility":"Pfizer Investigational Site","city":"Clayton","state":"Victoria","zip":"3168","country":"Australia","geoPoint":{"lat":-37.91667,"lon":145.11667}},{"facility":"Pfizer Investigational Site","city":"Parkville","state":"Victoria","zip":"3050","country":"Australia","geoPoint":{"lat":-37.78333,"lon":144.95}},{"facility":"Pfizer Investigational Site","city":"Prahran","state":"Victoria","zip":"3181","country":"Australia","geoPoint":{"lat":-37.85114,"lon":144.99318}},{"facility":"Pfizer Investigational Site","city":"Nedlands","state":"Western Australia","zip":"6009","country":"Australia","geoPoint":{"lat":-31.98184,"lon":115.8073}},{"facility":"Pfizer Investigational Site","city":"Feldkirch","zip":"A-6807","country":"Austria","geoPoint":{"lat":47.23306,"lon":9.6}},{"facility":"Pfizer Investigational Site","city":"Oberpullendorf","zip":"A-7350","country":"Austria","geoPoint":{"lat":47.50352,"lon":16.50447}},{"facility":"Pfizer Investigational Site","city":"Wien","zip":"1100","country":"Austria","geoPoint":{"lat":48.20849,"lon":16.37208}},{"facility":"Pfizer Investigational Site","city":"Wien","zip":"A-1090","country":"Austria","geoPoint":{"lat":48.20849,"lon":16.37208}},{"facility":"Pfizer Investigational Site","city":"Aalst","zip":"9300","country":"Belgium","geoPoint":{"lat":50.93604,"lon":4.0355}},{"facility":"Pfizer Investigational Site","city":"Antwerpen","zip":"B-2020","country":"Belgium","geoPoint":{"lat":51.21989,"lon":4.40346}},{"facility":"Pfizer Investigational Site","city":"Genk","zip":"3600","country":"Belgium","geoPoint":{"lat":50.965,"lon":5.50082}},{"facility":"Pfizer Investigational Site","city":"Genk","zip":"B-3600","country":"Belgium","geoPoint":{"lat":50.965,"lon":5.50082}},{"facility":"Pfizer Investigational Site","city":"Godinne","zip":"5530","country":"Belgium","geoPoint":{"lat":50.34809,"lon":4.87364}},{"facility":"Pfizer Investigational Site","city":"Leuven","zip":"3000","country":"Belgium","geoPoint":{"lat":50.87959,"lon":4.70093}},{"facility":"Pfizer Investigational Site","city":"Lommel","zip":"3920","country":"Belgium","geoPoint":{"lat":51.23074,"lon":5.31349}},{"facility":"Pfizer Investigational Site","city":"Neerpelt","zip":"3910","country":"Belgium","geoPoint":{"lat":51.22807,"lon":5.4427}},{"facility":"Pfizer Investigational Site","city":"Calgary","state":"Alberta","zip":"T2E 7C5","country":"Canada","geoPoint":{"lat":51.05011,"lon":-114.08529}},{"facility":"Pfizer Investigational Site","city":"Calgary","state":"Alberta","zip":"T2N 4N1","country":"Canada","geoPoint":{"lat":51.05011,"lon":-114.08529}},{"facility":"Pfizer Investigational Site","city":"Edmonton","state":"Alberta","zip":"T5R 4H5","country":"Canada","geoPoint":{"lat":53.55014,"lon":-113.46871}},{"facility":"Pfizer Investigational Site","city":"Edmonton","state":"Alberta","zip":"T6G 2B7","country":"Canada","geoPoint":{"lat":53.55014,"lon":-113.46871}},{"facility":"Pfizer Investigational Site","city":"Nanaimo","state":"British Columbia","zip":"V9S 2B8","country":"Canada","geoPoint":{"lat":49.16638,"lon":-123.94003}},{"facility":"Pfizer Investigational Site","city":"Vancouver","state":"British Columbia","zip":"V6R 1Y6","country":"Canada","geoPoint":{"lat":49.24966,"lon":-123.11934}},{"facility":"Pfizer Investigational Site","city":"Victoria","state":"British Columbia","zip":"V8T 5G4","country":"Canada","geoPoint":{"lat":48.43294,"lon":-123.3693}},{"facility":"Pfizer Investigational Site","city":"Winnipeg","state":"Manitoba","zip":"R3A 1R9","country":"Canada","geoPoint":{"lat":49.8844,"lon":-97.14704}},{"facility":"Pfizer Investigational Site","city":"St. John's","state":"Newfoundland and Labrador","zip":"A1B 3V6","country":"Canada","geoPoint":{"lat":47.56494,"lon":-52.70931}},{"facility":"Pfizer Investigational Site","city":"Halifax","state":"Nova Scotia","zip":"B3H 3A7","country":"Canada","geoPoint":{"lat":44.64533,"lon":-63.57239}},{"facility":"Pfizer Investigational Site","city":"Hamilton","state":"Ontario","zip":"L8L 2X2","country":"Canada","geoPoint":{"lat":43.25011,"lon":-79.84963}},{"facility":"Pfizer Investigational Site","city":"London","state":"Ontario","zip":"N6A 4G5","country":"Canada","geoPoint":{"lat":42.98339,"lon":-81.23304}},{"facility":"Pfizer Investigational Site","city":"Ottawa","state":"Ontario","zip":"K1Y 4W7","country":"Canada","geoPoint":{"lat":45.41117,"lon":-75.69812}},{"facility":"Pfizer Investigational Site","city":"Sudbury","state":"Ontario","zip":"P3E 1B8","country":"Canada","geoPoint":{"lat":46.49,"lon":-80.99001}},{"facility":"Pfizer Investigational Site","city":"Toronto","state":"Ontario","zip":"M5C 2T2","country":"Canada","geoPoint":{"lat":43.70011,"lon":-79.4163}},{"facility":"Pfizer Investigational Site","city":"Chicoutimi","state":"Quebec","zip":"G7H 5H6","country":"Canada","geoPoint":{"lat":48.41963,"lon":-71.06369}},{"facility":"Pfizer Investigational Site","city":"Montreal","state":"Quebec","zip":"H1T 1C8","country":"Canada","geoPoint":{"lat":45.50884,"lon":-73.58781}},{"facility":"Pfizer Investigational Site","city":"Montreal","state":"Quebec","zip":"H2W 1R7","country":"Canada","geoPoint":{"lat":45.50884,"lon":-73.58781}},{"facility":"Pfizer Investigational Site","city":"Montreal","state":"Quebec","zip":"H3A 1A1","country":"Canada","geoPoint":{"lat":45.50884,"lon":-73.58781}},{"facility":"Pfizer Investigational Site","city":"Sherbrooke","state":"Quebec","zip":"J1H 5N4","country":"Canada","geoPoint":{"lat":45.40008,"lon":-71.89908}},{"facility":"Pfizer Investigational Site","city":"St-foy","state":"Quebec","zip":"G1V 4G2","country":"Canada","geoPoint":{"lat":46.75615,"lon":-71.29543}},{"facility":"Pfizer Investigational Site","city":"Quebec","zip":"G1R 2J6","country":"Canada","geoPoint":{"lat":46.81228,"lon":-71.21454}},{"facility":"Pfizer Investigational Site","city":"Pessac","state":"Cedex","zip":"33604","country":"France","geoPoint":{"lat":44.81011,"lon":-0.64129}},{"facility":"Pfizer Investigational Site","city":"Agen","zip":"47000","country":"France","geoPoint":{"lat":44.2,"lon":0.63333}},{"facility":"Pfizer Investigational Site","city":"Bordeaux","zip":"33000","country":"France","geoPoint":{"lat":44.84044,"lon":-0.5805}},{"facility":"Pfizer Investigational Site","city":"Brest","zip":"29200","country":"France","geoPoint":{"lat":48.3903,"lon":-4.48628}},{"facility":"Pfizer Investigational Site","city":"Clermont-ferrand","zip":"63003","country":"France","geoPoint":{"lat":45.77966,"lon":3.08628}},{"facility":"Pfizer Investigational Site","city":"Lyon","zip":"69003","country":"France","geoPoint":{"lat":45.74848,"lon":4.84669}},{"facility":"Pfizer Investigational Site","city":"Marseille","zip":"13915 Cedex 20","country":"France","geoPoint":{"lat":43.29551,"lon":5.38958}},{"facility":"Pfizer Investigational Site","city":"Paris CEDEX 05","zip":"75230","country":"France","geoPoint":{"lat":48.85341,"lon":2.3488}},{"facility":"Pfizer Investigational Site","city":"Rennes","zip":"35033","country":"France","geoPoint":{"lat":48.11198,"lon":-1.67429}},{"facility":"Pfizer Investigational Site","city":"Roubaix Cdx","zip":"59056","country":"France","geoPoint":{"lat":50.69421,"lon":3.17456}},{"facility":"Pfizer Investigational Site","city":"Strasbourg","zip":"67091","country":"France","geoPoint":{"lat":48.58392,"lon":7.74553}},{"facility":"Pfizer Investigational Site","city":"Toulouse","zip":"31059","country":"France","geoPoint":{"lat":43.60426,"lon":1.44367}},{"facility":"Pfizer Investigational Site","city":"Toulouse","zip":"31400","country":"France","geoPoint":{"lat":43.60426,"lon":1.44367}},{"facility":"Pfizer Investigational Site","city":"Berlin","zip":"13353","country":"Germany","geoPoint":{"lat":52.52437,"lon":13.41053}},{"facility":"Pfizer Investigational Site","city":"Berlin","zip":"13439","country":"Germany","geoPoint":{"lat":52.52437,"lon":13.41053}},{"facility":"Pfizer Investigational Site","city":"Essen","zip":"45329","country":"Germany","geoPoint":{"lat":51.45657,"lon":7.01228}},{"facility":"Pfizer Investigational Site","city":"Hamburg","zip":"20246","country":"Germany","geoPoint":{"lat":53.57532,"lon":10.01534}},{"facility":"Pfizer Investigational Site","city":"Schwerte","zip":"D-58239","country":"Germany","geoPoint":{"lat":51.44387,"lon":7.5675}},{"facility":"Pfizer Investigational Site","city":"Tostedt","zip":"21255","country":"Germany","geoPoint":{"lat":53.28333,"lon":9.71667}},{"facility":"Pfizer Investigational Site","city":"Wurzburg","zip":"97070","country":"Germany","geoPoint":{"lat":49.79391,"lon":9.95121}},{"facility":"Pfizer Investigational Site","city":"Cork","country":"Ireland","geoPoint":{"lat":51.89797,"lon":-8.47061}},{"facility":"Pfizer Investigational Site","city":"Dublin","zip":"D8","country":"Ireland","geoPoint":{"lat":53.33306,"lon":-6.24889}},{"facility":"Pfizer Investigational Site","city":"Bologna","zip":"40138","country":"Italy","geoPoint":{"lat":44.49381,"lon":11.33875}},{"facility":"Pfizer Investigational Site","city":"Bologna","zip":"40139","country":"Italy","geoPoint":{"lat":44.49381,"lon":11.33875}},{"facility":"Pfizer Investigational Site","city":"Cuneo","zip":"12100","country":"Italy","geoPoint":{"lat":44.39071,"lon":7.54828}},{"facility":"Pfizer Investigational Site","city":"Firenze","zip":"50134","country":"Italy","geoPoint":{"lat":43.77925,"lon":11.24626}},{"facility":"Pfizer Investigational Site","city":"Napoli","zip":"80131","country":"Italy","geoPoint":{"lat":40.85216,"lon":14.26811}},{"facility":"Pfizer Investigational Site","city":"Rome","zip":"00184","country":"Italy","geoPoint":{"lat":41.89193,"lon":12.51133}},{"facility":"Pfizer Investigational Site","city":"Udine","zip":"33100","country":"Italy","geoPoint":{"lat":46.0693,"lon":13.23715}},{"facility":"Pfizer Investigational Site","city":"'s-Hertogenbosch","zip":"5211 NL","country":"Netherlands","geoPoint":{"lat":51.69917,"lon":5.30417}},{"facility":"Pfizer Investigational Site","city":"Alkmaar","zip":"1815 JD","country":"Netherlands","geoPoint":{"lat":52.63167,"lon":4.74861}},{"facility":"Pfizer Investigational Site","city":"Amersfoort","zip":"3818 ES","country":"Netherlands","geoPoint":{"lat":52.155,"lon":5.3875}},{"facility":"Pfizer Investigational Site","city":"Amsterdam","zip":"1105 AZ","country":"Netherlands","geoPoint":{"lat":52.37403,"lon":4.88969}},{"facility":"Pfizer Investigational Site","city":"Breda","zip":"4818 CK","country":"Netherlands","geoPoint":{"lat":51.58656,"lon":4.77596}},{"facility":"Pfizer Investigational Site","city":"Eindhoven","zip":"5623 EJ","country":"Netherlands","geoPoint":{"lat":51.44083,"lon":5.47778}},{"facility":"Pfizer Investigational Site","city":"Enschede","zip":"7513 ER","country":"Netherlands","geoPoint":{"lat":52.21833,"lon":6.89583}},{"facility":"Pfizer Investigational Site","city":"Groningen","zip":"9713 GZ","country":"Netherlands","geoPoint":{"lat":53.21917,"lon":6.56667}},{"facility":"Pfizer Investigational Site","city":"Groningen","zip":"9728 NZ","country":"Netherlands","geoPoint":{"lat":53.21917,"lon":6.56667}},{"facility":"Pfizer Investigational Site","city":"Leiden","zip":"2333 ZA","country":"Netherlands","geoPoint":{"lat":52.15833,"lon":4.49306}},{"facility":"Pfizer Investigational Site","city":"Nieuwegein","zip":"3435 CM","country":"Netherlands","geoPoint":{"lat":52.02917,"lon":5.08056}},{"facility":"Pfizer Investigational Site","city":"Nijmegen","zip":"6532 SZ","country":"Netherlands","geoPoint":{"lat":51.8425,"lon":5.85278}},{"facility":"Pfizer Investigational Site","city":"Zwolle","zip":"8011 JW","country":"Netherlands","geoPoint":{"lat":52.5125,"lon":6.09444}},{"facility":"Pfizer Investigational Site","city":"Zwolle","zip":"8025 AB","country":"Netherlands","geoPoint":{"lat":52.5125,"lon":6.09444}},{"facility":"Pfizer Investigational Site","city":"Johannesburg","state":"Gauteng","zip":"2193","country":"South Africa","geoPoint":{"lat":-26.20227,"lon":28.04363}},{"facility":"Pfizer Investigational Site","city":"Sunninghill","state":"Gauteng","zip":"2157","country":"South Africa","geoPoint":{"lat":-26.0355,"lon":28.06552}},{"facility":"Pfizer Investigational Site","city":"Bloemfontein","zip":"9301","country":"South Africa","geoPoint":{"lat":-29.12107,"lon":26.214}},{"facility":"Pfizer Investigational Site","city":"Cape Town","zip":"7405","country":"South Africa","geoPoint":{"lat":-33.92584,"lon":18.42322}},{"facility":"Pfizer Investigational Site","city":"Cape Town","zip":"7500","country":"South Africa","geoPoint":{"lat":-33.92584,"lon":18.42322}},{"facility":"Pfizer Investigational Site","city":"Parow","zip":"7505","country":"South Africa","geoPoint":{"lat":-33.89723,"lon":18.59992}},{"facility":"Pfizer Investigational Site","city":"Barcelona","zip":"08035","country":"Spain","geoPoint":{"lat":41.38879,"lon":2.15899}},{"facility":"Pfizer Investigational Site","city":"Barcelona","zip":"08036","country":"Spain","geoPoint":{"lat":41.38879,"lon":2.15899}},{"facility":"Pfizer Investigational Site","city":"Cordoba","zip":"14004","country":"Spain","geoPoint":{"lat":37.89155,"lon":-4.77275}},{"facility":"Pfizer Investigational Site","city":"Madrid","zip":"28007","country":"Spain","geoPoint":{"lat":40.4165,"lon":-3.70256}},{"facility":"Pfizer Investigational Site","city":"Madrid","zip":"28029","country":"Spain","geoPoint":{"lat":40.4165,"lon":-3.70256}},{"facility":"Pfizer Investigational Site","city":"Madrid","zip":"28040","country":"Spain","geoPoint":{"lat":40.4165,"lon":-3.70256}},{"facility":"Pfizer Investigational Site","city":"Madrid","zip":"28041","country":"Spain","geoPoint":{"lat":40.4165,"lon":-3.70256}},{"facility":"Pfizer Investigational Site","city":"San Sebastian","zip":"20014","country":"Spain","geoPoint":{"lat":43.31283,"lon":-1.97499}},{"facility":"Pfizer Investigational Site","city":"Santiago de Compostela","zip":"15706","country":"Spain","geoPoint":{"lat":42.88052,"lon":-8.54569}},{"facility":"Pfizer Investigational Site","city":"Sevilla","zip":"41009","country":"Spain","geoPoint":{"lat":37.38283,"lon":-5.97317}},{"facility":"Pfizer Investigational Site","city":"Sevilla","zip":"41013","country":"Spain","geoPoint":{"lat":37.38283,"lon":-5.97317}},{"facility":"Pfizer Investigational Site","city":"Valladolid","zip":"47011","country":"Spain","geoPoint":{"lat":41.65518,"lon":-4.72372}},{"facility":"Pfizer Investigational Site","city":"Zaragoza","zip":"50009","country":"Spain","geoPoint":{"lat":41.65606,"lon":-0.87734}},{"facility":"Pfizer Investigational Site","city":"Bern","zip":"3010","country":"Switzerland","geoPoint":{"lat":46.94809,"lon":7.44744}},{"facility":"Pfizer Investigational Site","city":"Geneve 14","zip":"CH-1211","country":"Switzerland","geoPoint":{"lat":46.20222,"lon":6.14569}},{"facility":"Pfizer Investigational Site","city":"Lausanne","zip":"CH-1011","country":"Switzerland","geoPoint":{"lat":46.516,"lon":6.63282}},{"facility":"Pfizer Investigational Site","city":"Lugano","zip":"6900","country":"Switzerland","geoPoint":{"lat":46.01008,"lon":8.96004}},{"facility":"Pfizer Investigational Site","city":"St Gallen","zip":"CH-9007","country":"Switzerland","geoPoint":{"lat":47.42391,"lon":9.37477}},{"facility":"Pfizer Investigational Site","city":"Romford","state":"Essex","zip":"RM7 OBE","country":"United Kingdom","geoPoint":{"lat":51.57515,"lon":0.18582}},{"facility":"Pfizer Investigational Site","city":"London","state":"Greater London","zip":"E2 9JX","country":"United Kingdom","geoPoint":{"lat":51.50853,"lon":-0.12574}},{"facility":"Pfizer Investigational Site","city":"London","state":"Greater London","zip":"NW10 7NS","country":"United Kingdom","geoPoint":{"lat":51.50853,"lon":-0.12574}},{"facility":"Pfizer Investigational Site","city":"London","state":"Greater London","zip":"SW17 0RE","country":"United Kingdom","geoPoint":{"lat":51.50853,"lon":-0.12574}},{"facility":"Pfizer Investigational Site","city":"Aldershot","state":"Hampshire","zip":"GU11 3RB","country":"United Kingdom","geoPoint":{"lat":51.24827,"lon":-0.76389}},{"facility":"Pfizer Investigational Site","city":"Farnborough","state":"Kent","zip":"BR6 7AR","country":"United Kingdom","geoPoint":{"lat":51.29424,"lon":-0.75565}},{"facility":"Pfizer Investigational Site","city":"Blackpool","state":"Lancashire","zip":"FY3 8NR","country":"United Kingdom","geoPoint":{"lat":53.81667,"lon":-3.05}},{"facility":"Pfizer Investigational Site","city":"Leicester","state":"Leicestershire","zip":"LE3 9QP","country":"United Kingdom","geoPoint":{"lat":52.6386,"lon":-1.13169}},{"facility":"Pfizer Investigational Site","city":"London","state":"Middlesex","zip":"HA8 0AD","country":"United Kingdom","geoPoint":{"lat":51.50853,"lon":-0.12574}},{"facility":"Pfizer Investigational Site","city":"Coventry","state":"West Midlands","zip":"CV1 4FH","country":"United Kingdom","geoPoint":{"lat":52.40656,"lon":-1.51217}},{"facility":"Pfizer Investigational Site","city":"Coventry","state":"West Midlands","zip":"CV2 2DX","country":"United Kingdom","geoPoint":{"lat":52.40656,"lon":-1.51217}},{"facility":"Pfizer Investigational Site","city":"Swindon","state":"Wiltshire","zip":"SN3 6BB","country":"United Kingdom","geoPoint":{"lat":51.55797,"lon":-1.78116}},{"facility":"Pfizer Investigational Site","city":"Barnet","zip":"EN5 3DJ","country":"United Kingdom","geoPoint":{"lat":51.65,"lon":-0.2}},{"facility":"Pfizer Investigational Site","city":"Glasgow","zip":"G11 6NT","country":"United Kingdom","geoPoint":{"lat":55.86515,"lon":-4.25763}},{"facility":"Pfizer Investigational Site","city":"London","zip":"E1 1BB","country":"United Kingdom","geoPoint":{"lat":51.50853,"lon":-0.12574}},{"facility":"Pfizer Investigational Site","city":"London","zip":"NW3 2PF","country":"United Kingdom","geoPoint":{"lat":51.50853,"lon":-0.12574}},{"facility":"Pfizer Investigational Site","city":"Paisley","zip":"P1 1HR","country":"United Kingdom","geoPoint":{"lat":55.83173,"lon":-4.43254}},{"facility":"Pfizer Investigational Site"}]},"referencesModule":{"references":[{"pmid":"17084252","type":"RESULT","citation":"Waters DD, LaRosa JC, Barter P, Fruchart JC, Gotto AM Jr, Carter R, Breazna A, Kastelein JJ, Grundy SM. Effects of high-dose atorvastatin on cerebrovascular events in patients with stable coronary disease in the TNT (treating to new targets) study. J Am Coll Cardiol. 2006 Nov 7;48(9):1793-9. doi: 10.1016/j.jacc.2006.07.041. Epub 2006 Oct 17."},{"pmid":"31020900","type":"DERIVED","citation":"Vogt L, Bangalore S, Fayyad R, Melamed S, Hovingh GK, DeMicco DA, Waters DD. Atorvastatin Has a Dose-Dependent Beneficial Effect on Kidney Function and Associated Cardiovascular Outcomes: Post Hoc Analysis of 6 Double-Blind Randomized Controlled Trials. J Am Heart Assoc. 2019 May 7;8(9):e010827. doi: 10.1161/JAHA.118.010827."},{"pmid":"30571333","type":"DERIVED","citation":"Bangalore S, Fayyad R, DeMicco DA, Colhoun HM, Waters DD. Body Weight Variability and Cardiovascular Outcomes in Patients With Type 2 Diabetes Mellitus. Circ Cardiovasc Qual Outcomes. 2018 Nov;11(11):e004724. doi: 10.1161/CIRCOUTCOMES.118.004724."},{"pmid":"29622600","type":"DERIVED","citation":"Kaasenbrood L, Ray KK, Boekholdt SM, Smulders YM, LaRosa JC, Kastelein JJP, van der Graaf Y, Dorresteijn JAN, Visseren FLJ. Estimated individual lifetime benefit from PCSK9 inhibition in statin-treated patients with coronary artery disease. Heart. 2018 Oct;104(20):1699-1705. doi: 10.1136/heartjnl-2017-312510. Epub 2018 Apr 5."},{"pmid":"29618599","type":"DERIVED","citation":"Vallejo-Vaz AJ, Fayyad R, Boekholdt SM, Hovingh GK, Kastelein JJ, Melamed S, Barter P, Waters DD, Ray KK. Triglyceride-Rich Lipoprotein Cholesterol and Risk of Cardiovascular Events Among Patients Receiving Statin Therapy in the TNT Trial. Circulation. 2018 Aug 21;138(8):770-781. doi: 10.1161/CIRCULATIONAHA.117.032318."},{"pmid":"29358194","type":"DERIVED","citation":"Ong KL, Waters DD, Fayyad R, Vogt L, Melamed S, DeMicco DA, Rye KA, Barter PJ. Relationship of High-Density Lipoprotein Cholesterol With Renal Function in Patients Treated With Atorvastatin. J Am Heart Assoc. 2018 Jan 22;7(2):e007387. doi: 10.1161/JAHA.117.007387."},{"pmid":"28573499","type":"DERIVED","citation":"Ports WC, Fayyad R, DeMicco DA, Laskey R, Wolk R. Effectiveness of Lipid-Lowering Statin Therapy in Patients With and Without Psoriasis. Clin Drug Investig. 2017 Aug;37(8):775-785. doi: 10.1007/s40261-017-0533-0."},{"pmid":"28379800","type":"DERIVED","citation":"Bangalore S, Fayyad R, Laskey R, DeMicco DA, Messerli FH, Waters DD. Body-Weight Fluctuations and Outcomes in Coronary Disease. N Engl J Med. 2017 Apr 6;376(14):1332-1340. doi: 10.1056/NEJMoa1606148."},{"pmid":"28214794","type":"DERIVED","citation":"Stam-Slob MC, van der Graaf Y, Greving JP, Dorresteijn JA, Visseren FL. Cost-Effectiveness of Intensifying Lipid-Lowering Therapy With Statins Based on Individual Absolute Benefit in Coronary Artery Disease Patients. J Am Heart Assoc. 2017 Feb 18;6(2):e004648. doi: 10.1161/JAHA.116.004648."},{"pmid":"27513651","type":"DERIVED","citation":"Deedwania PC, Pedersen TR, DeMicco DA, Breazna A, Betteridge DJ, Hitman GA, Durrington P, Neil A; TNT, CARDS and IDEAL Steering Committees and Investigators. Differing predictive relationships between baseline LDL-C, systolic blood pressure, and cardiovascular outcomes. Int J Cardiol. 2016 Nov 1;222:548-556. doi: 10.1016/j.ijcard.2016.07.201. Epub 2016 Jul 30."},{"pmid":"25835440","type":"DERIVED","citation":"Byun YS, Lee JH, Arsenault BJ, Yang X, Bao W, DeMicco D, Laskey R, Witztum JL, Tsimikas S; TNT Trial Investigators. Relationship of oxidized phospholipids on apolipoprotein B-100 to cardiovascular outcomes in patients treated with intensive versus moderate atorvastatin therapy: the TNT trial. J Am Coll Cardiol. 2015 Apr 7;65(13):1286-1295. doi: 10.1016/j.jacc.2015.01.050."},{"pmid":"25531109","type":"DERIVED","citation":"Arsenault BJ, Barter P, DeMicco DA, Bao W, Preston GM, LaRosa JC, Grundy SM, Deedwania P, Greten H, Wenger NK, Shepherd J, Waters DD, Kastelein JJ; Treating to New Targets (TNT) Investigators. Prediction of cardiovascular events in statin-treated stable coronary patients of the treating to new targets randomized controlled trial by lipid and non-lipid biomarkers. PLoS One. 2014 Dec 22;9(12):e114519. doi: 10.1371/journal.pone.0114519. eCollection 2014."},{"pmid":"23674398","type":"DERIVED","citation":"Dorresteijn JA, Boekholdt SM, van der Graaf Y, Kastelein JJ, LaRosa JC, Pedersen TR, DeMicco DA, Ridker PM, Cook NR, Visseren FL. High-dose statin therapy in patients with stable coronary artery disease: treating the right patients based on individualized prediction of treatment effect. Circulation. 2013 Jun 25;127(25):2485-93. doi: 10.1161/CIRCULATIONAHA.112.000712. Epub 2013 May 14."},{"pmid":"22576673","type":"DERIVED","citation":"Semb AG, Kvien TK, DeMicco DA, Fayyad R, Wun CC, LaRosa JC, Betteridge J, Pedersen TR, Holme I. Effect of intensive lipid-lowering therapy on cardiovascular outcome in patients with and those without inflammatory joint disease. Arthritis Rheum. 2012 Sep;64(9):2836-46. doi: 10.1002/art.34524."},{"pmid":"22575316","type":"DERIVED","citation":"Huijgen R, Boekholdt SM, Arsenault BJ, Bao W, Davaine JM, Tabet F, Petrides F, Rye KA, DeMicco DA, Barter PJ, Kastelein JJ, Lambert G. Plasma PCSK9 levels and clinical outcomes in the TNT (Treating to New Targets) trial: a nested case-control study. J Am Coll Cardiol. 2012 May 15;59(20):1778-84. doi: 10.1016/j.jacc.2011.12.043.","retractions":[{"pmid":"23729038","source":"J Am Coll Cardiol. 2013 Apr 23;61(16):1751"}]},{"pmid":"22461416","type":"DERIVED","citation":"Mora S, Wenger NK, Demicco DA, Breazna A, Boekholdt SM, Arsenault BJ, Deedwania P, Kastelein JJ, Waters DD. Determinants of residual risk in secondary prevention patients treated with high- versus low-dose statin therapy: the Treating to New Targets (TNT) study. Circulation. 2012 Apr 24;125(16):1979-87. doi: 10.1161/CIRCULATIONAHA.111.088591. Epub 2012 Mar 29."},{"pmid":"22135385","type":"DERIVED","citation":"Arsenault BJ, Boekholdt SM, Hovingh GK, Hyde CL, DeMicco DA, Chatterjee A, Barter P, Deedwania P, Waters DD, LaRosa JC, Pedersen TR, Kastelein JJ; TNT and IDEAL Investigators. The 719Arg variant of KIF6 and cardiovascular outcomes in statin-treated, stable coronary patients of the treating to new targets and incremental decrease in end points through aggressive lipid-lowering prospective studies. Circ Cardiovasc Genet. 2012 Feb 1;5(1):51-7. doi: 10.1161/CIRCGENETICS.111.960252. Epub 2011 Dec 1."},{"pmid":"21185503","type":"DERIVED","citation":"Arsenault BJ, Barter P, DeMicco DA, Bao W, Preston GM, LaRosa JC, Grundy SM, Deedwania P, Greten H, Wenger NK, Shepherd J, Waters DD, Kastelein JJ; TNT Study Investigators. Prediction of cardiovascular events in statin-treated stable coronary patients by lipid and nonlipid biomarkers. J Am Coll Cardiol. 2011 Jan 4;57(1):63-9. doi: 10.1016/j.jacc.2010.06.052.","retractions":[{"pmid":"23729037","source":"J Am Coll Cardiol. 2013 Apr 23;61(16):1750"}]},{"pmid":"20130232","type":"DERIVED","citation":"Hyde CL, Macinnes A, Sanders FA, Thompson JF, Mazzarella RA, Faergeman O, van Wijk DF, Wood L, Lira M, Paciga SA. Genetic association of the CCR5 region with lipid levels in at-risk cardiovascular patients. Circ Cardiovasc Genet. 2010 Apr;3(2):162-8. doi: 10.1161/CIRCGENETICS.109.897793. Epub 2010 Feb 3."},{"pmid":"19410683","type":"DERIVED","citation":"Waters DD. Clinical insights from the Treating to New Targets trial. Prog Cardiovasc Dis. 2009 May-Jun;51(6):487-502. doi: 10.1016/j.pcad.2009.01.001."},{"pmid":"18674471","type":"DERIVED","citation":"Shepherd J, Kastelein JP, Bittner VA, Carmena R, Deedwania PC, Breazna A, Dobson S, Wilson DJ, Zuckerman AL, Wenger NK; Treating to New Targets Steering Committee and Investigators. Intensive lipid lowering with atorvastatin in patients with coronary artery disease, diabetes, and chronic kidney disease. Mayo Clin Proc. 2008 Aug;83(8):870-9."},{"pmid":"18482661","type":"DERIVED","citation":"Shah SJ, Waters DD, Barter P, Kastelein JJ, Shepherd J, Wenger NK, DeMicco DA, Breazna A, LaRosa JC. Intensive lipid-lowering with atorvastatin for secondary prevention in patients after coronary artery bypass surgery. J Am Coll Cardiol. 2008 May 20;51(20):1938-43. doi: 10.1016/j.jacc.2007.12.054."},{"pmid":"18402899","type":"DERIVED","citation":"Shepherd J, Kastelein JJ, Bittner V, Deedwania P, Breazna A, Dobson S, Wilson DJ, Zuckerman A, Wenger NK; TNT (Treating to New Targets) Investigators. Intensive lipid lowering with atorvastatin in patients with coronary heart disease and chronic kidney disease: the TNT (Treating to New Targets) study. J Am Coll Cardiol. 2008 Apr 15;51(15):1448-54. doi: 10.1016/j.jacc.2007.11.072."},{"pmid":"17898099","type":"DERIVED","citation":"Barter P, Gotto AM, LaRosa JC, Maroni J, Szarek M, Grundy SM, Kastelein JJ, Bittner V, Fruchart JC; Treating to New Targets Investigators. HDL cholesterol, very low levels of LDL cholesterol, and cardiovascular events. N Engl J Med. 2007 Sep 27;357(13):1301-10. doi: 10.1056/NEJMoa064278."}],"seeAlsoLinks":[{"label":"To obtain contact information for a study center near you, click here.","url":"https://trialinfoemail.pfizer.com/pages/landing.aspx?StudyID=0981-117&StudyName=The+study+is+to+determine+the+degree+of+additional+reduction+in+CV+risk+in+lowering+LDL+below+minimum+target+levels+"}]}},"derivedSection":{"miscInfoModule":{"versionHolder":"2024-02-14"},"conditionBrowseModule":{"meshes":[{"id":"D000020521","term":"Stroke"},{"id":"D000002318","term":"Cardiovascular Diseases"},{"id":"D000006331","term":"Heart Diseases"},{"id":"D000003327","term":"Coronary Disease"},{"id":"D000003324","term":"Coronary Artery Disease"},{"id":"D000017202","term":"Myocardial Ischemia"}],"ancestors":[{"id":"D000014652","term":"Vascular Diseases"},{"id":"D000001161","term":"Arteriosclerosis"},{"id":"D000001157","term":"Arterial Occlusive Diseases"},{"id":"D000002561","term":"Cerebrovascular Disorders"},{"id":"D000001927","term":"Brain Diseases"},{"id":"D000002493","term":"Central Nervous System Diseases"},{"id":"D000009422","term":"Nervous System Diseases"}],"browseLeaves":[{"id":"M21996","name":"Stroke","asFound":"Cerebrovascular Accident","relevance":"HIGH"},{"id":"M6236","name":"Coronary Artery Disease","asFound":"Coronary Heart Disease","relevance":"HIGH"},{"id":"M6239","name":"Coronary Disease","asFound":"Coronary Heart Disease","relevance":"HIGH"},{"id":"M14540","name":"Recurrence","relevance":"LOW"},{"id":"M19196","name":"Myocardial Ischemia","asFound":"Coronary Heart Disease","relevance":"HIGH"},{"id":"M9109","name":"Heart Diseases","asFound":"Heart Disease","relevance":"HIGH"},{"id":"M10233","name":"Ischemia","relevance":"LOW"},{"id":"M17090","name":"Vascular Diseases","relevance":"LOW"},{"id":"M4159","name":"Arteriosclerosis","relevance":"LOW"},{"id":"M4155","name":"Arterial Occlusive Diseases","relevance":"LOW"},{"id":"M5500","name":"Cerebrovascular Disorders","relevance":"LOW"},{"id":"M4894","name":"Brain Diseases","relevance":"LOW"},{"id":"M5432","name":"Central Nervous System Diseases","relevance":"LOW"}],"browseBranches":[{"abbrev":"BC10","name":"Nervous System Diseases"},{"abbrev":"BC14","name":"Heart and Blood Diseases"},{"abbrev":"All","name":"All Conditions"},{"abbrev":"BC23","name":"Symptoms and General Pathology"}]},"interventionBrowseModule":{"meshes":[{"id":"D000069059","term":"Atorvastatin"}],"ancestors":[{"id":"D000000924","term":"Anticholesteremic Agents"},{"id":"D000000960","term":"Hypolipidemic Agents"},{"id":"D000000963","term":"Antimetabolites"},{"id":"D000045504","term":"Molecular Mechanisms of Pharmacological Action"},{"id":"D000057847","term":"Lipid Regulating Agents"},{"id":"D000019161","term":"Hydroxymethylglutaryl-CoA Reductase Inhibitors"},{"id":"D000004791","term":"Enzyme Inhibitors"}],"browseLeaves":[{"id":"M351","name":"Atorvastatin","asFound":"Functional","relevance":"HIGH"},{"id":"M3933","name":"Anticholesteremic Agents","relevance":"LOW"},{"id":"M3968","name":"Hypolipidemic Agents","relevance":"LOW"},{"id":"M3971","name":"Antimetabolites","relevance":"LOW"},{"id":"M28573","name":"Lipid Regulating Agents","relevance":"LOW"},{"id":"M20845","name":"Hydroxymethylglutaryl-CoA Reductase Inhibitors","relevance":"LOW"},{"id":"M7641","name":"Enzyme Inhibitors","relevance":"LOW"}],"browseBranches":[{"abbrev":"Lipd","name":"Lipid Regulating Agents"},{"abbrev":"All","name":"All Drugs and Chemicals"}]}},"hasResults":false}