{"protocolSection":{"identificationModule":{"nctId":"NCT00240643","orgStudyIdInfo":{"id":"101724"},"organization":{"fullName":"GlaxoSmithKline","class":"INDUSTRY"},"briefTitle":"Use Of SB424323 With Aspirin In Non-Valvular Atrial Fibrillation In Patients At A Low Or Intermediate Risk For Stroke","officialTitle":"A Randomized, Double Blind, Double Dummy, Parallel Group, Placebo Controlled Study to Evaluate the Pharmacodynamic and Pharmacokinetic Response and Safety and Tolerability of SB424323 (250mg, 375mg and 500 mg) Administered Twice Daily for 16 Weeks, on Top of Asprin (325mg, qd) in Men and Women With Non Valvular Atrial Fibrillation at a Low or Intermediate Risk for Stroke"},"statusModule":{"statusVerifiedDate":"2017-01","overallStatus":"COMPLETED","startDateStruct":{"date":"2005-11"},"primaryCompletionDateStruct":{"date":"2006-12","type":"ACTUAL"},"completionDateStruct":{"date":"2006-12","type":"ACTUAL"},"studyFirstSubmitDate":"2005-10-14","studyFirstSubmitQcDate":"2005-10-14","studyFirstPostDateStruct":{"date":"2005-10-18","type":"ESTIMATED"},"lastUpdateSubmitDate":"2017-01-13","lastUpdatePostDateStruct":{"date":"2017-01-16","type":"ESTIMATED"}},"sponsorCollaboratorsModule":{"responsibleParty":{"oldNameTitle":"Cheri Hudson; Clinical Disclosure Advisor","oldOrganization":"GSK Clinical Disclosure"},"leadSponsor":{"name":"GlaxoSmithKline","class":"INDUSTRY"}},"descriptionModule":{"briefSummary":"This study will allow determination of the pharmacokinetic and pharmacodynamics of SB424323 in a relevant population. The data from this study will be used along with other data to aid in choosing the most appropriate dose for the later phase study.","detailedDescription":"A randomized, double blind, double dummy, parallel group, placebo controlled study to evaluate the pharmacodynamic and pharmacokinetic response and safety and tolerability of SB424323 (250 mg, 375 mg and 500 mg) administered twice daily for 16 weeks, on top of aspirin (325 mg, qd) in men and women with non valvular atrial fibrillation at a low or intermediate risk for stroke"},"conditionsModule":{"conditions":["Fibrillation, Atrial","Atrial Fibrillation"],"keywords":["non valvular atrial fibrillation","stroke","aspirin"]},"designModule":{"studyType":"INTERVENTIONAL","phases":["PHASE2"],"designInfo":{"allocation":"RANDOMIZED","interventionModel":"PARALLEL","primaryPurpose":"PREVENTION","maskingInfo":{"masking":"DOUBLE"}},"enrollmentInfo":{"count":640,"type":"ACTUAL"}},"armsInterventionsModule":{"interventions":[{"type":"DRUG","name":"SB424323"}]},"outcomesModule":{"primaryOutcomes":[{"measure":"Relationship between anti IIa (a biomarker)and the dose of SB424323."}],"secondaryOutcomes":[{"measure":"Blood levels of SB424323 during the study. Number of strokes, transient ischemic attacks or systemic embolism during the study. Changes in laboratory tests during the study."}]},"eligibilityModule":{"eligibilityCriteria":"Inclusion Criteria:\n\n* Patients with non valvular atrial fibrillation and any of the following:\n* \\</= 60 years old with no heart disease.\n* 60 years old with heart disease but no risk factors.\n* \\>/=60 years old and \\</=75 years old with no risk factors and no heart disease.\n* Must be able to take aspirin.\n\nExclusion Criteria:\n\n* Previous heart attack or stroke.\n* History of high blood pressure, diabetes or a prior blood clot.\n* Liver or kidney disease.\n* Need for anti-thrombotic or anti-platelet drugs.\n* Need for cardiovascular medicines.","healthyVolunteers":false,"sex":"ALL","minimumAge":"18 Years","maximumAge":"75 Years","stdAges":["ADULT","OLDER_ADULT"]},"contactsLocationsModule":{"overallOfficials":[{"name":"GSK Clinical Trials","affiliation":"GlaxoSmithKline","role":"STUDY_DIRECTOR"}],"locations":[{"facility":"GSK Investigational Site","city":"Mobile","state":"Alabama","zip":"36608","country":"United States","geoPoint":{"lat":30.69436,"lon":-88.04305}},{"facility":"GSK Investigational Site","city":"Troy","state":"Michigan","zip":"48098","country":"United States","geoPoint":{"lat":42.60559,"lon":-83.14993}},{"facility":"GSK Investigational Site","city":"Akron","state":"Ohio","zip":"44313","country":"United States","geoPoint":{"lat":41.08144,"lon":-81.51901}},{"facility":"GSK Investigational Site","city":"Cincinnati","state":"Ohio","zip":"45224","country":"United States","geoPoint":{"lat":39.12713,"lon":-84.51435}},{"facility":"GSK Investigational Site","city":"Camp Hill","state":"Pennsylvania","zip":"17011","country":"United States","geoPoint":{"lat":40.23981,"lon":-76.91997}},{"facility":"GSK Investigational Site","city":"Philadelphia","state":"Pennsylvania","zip":"19140","country":"United States","geoPoint":{"lat":39.95233,"lon":-75.16379}},{"facility":"GSK Investigational Site","city":"Houston","state":"Texas","zip":"77030","country":"United States","geoPoint":{"lat":29.76328,"lon":-95.36327}},{"facility":"GSK Investigational Site","city":"Walla Walla","state":"Washington","zip":"99362","country":"United States","geoPoint":{"lat":46.06458,"lon":-118.34302}},{"facility":"GSK Investigational Site","city":"Milwaukee","state":"Wisconsin","zip":"53215","country":"United States","geoPoint":{"lat":43.0389,"lon":-87.90647}},{"facility":"GSK Investigational Site","city":"Capital Federal","state":"Buenos Aires","zip":"C1180AAX","country":"Argentina","geoPoint":{"lat":-34.61315,"lon":-58.37723}},{"facility":"GSK Investigational Site","city":"Capital Fefderal","state":"Buenos Aires","country":"Argentina","geoPoint":{"lat":-34.61315,"lon":-58.37723}},{"facility":"GSK Investigational Site","city":"Cordoba","state":"Córdova","zip":"5003","country":"Argentina","geoPoint":{"lat":-31.4135,"lon":-64.18105}},{"facility":"GSK Investigational Site","city":"Córdoba","state":"Córdova","zip":"5000","country":"Argentina","geoPoint":{"lat":-31.4135,"lon":-64.18105}},{"facility":"GSK Investigational Site","city":"Rosario","state":"Santa Fe","zip":"2000","country":"Argentina","geoPoint":{"lat":-32.94682,"lon":-60.63932}},{"facility":"GSK Investigational Site","city":"Buenos Aires","zip":"1428","country":"Argentina","geoPoint":{"lat":-34.61315,"lon":-58.37723}},{"facility":"GSK Investigational Site","city":"Buenos Aires","zip":"1704","country":"Argentina","geoPoint":{"lat":-34.61315,"lon":-58.37723}},{"facility":"GSK Investigational Site","city":"Ciudad Autónoma de Buenos Aires","zip":"1221","country":"Argentina","geoPoint":{"lat":-34.61315,"lon":-58.37723}},{"facility":"GSK Investigational Site","city":"Ciudad Autónoma de Buenos Aires","zip":"1405","country":"Argentina","geoPoint":{"lat":-34.61315,"lon":-58.37723}},{"facility":"GSK Investigational Site","city":"Moron-Provincia de Buenos Aires","zip":"1709","country":"Argentina"},{"facility":"GSK Investigational Site","city":"Antwerpen","zip":"2020","country":"Belgium","geoPoint":{"lat":51.21989,"lon":4.40346}},{"facility":"GSK Investigational Site","city":"Linkebeek","zip":"1630","country":"Belgium","geoPoint":{"lat":50.76781,"lon":4.33688}},{"facility":"GSK Investigational Site","city":"Porto Alegre","state":"Rio Grande Do Sul","zip":"40110-160","country":"Brazil","geoPoint":{"lat":-30.03306,"lon":-51.23}},{"facility":"GSK Investigational Site","city":"São Paulo","zip":"04024-002","country":"Brazil","geoPoint":{"lat":-23.5475,"lon":-46.63611}},{"facility":"GSK Investigational Site","city":"Halifax","state":"Nova Scotia","zip":"B3K 5R3","country":"Canada","geoPoint":{"lat":44.64533,"lon":-63.57239}},{"facility":"GSK Investigational Site","city":"Truro","state":"Nova Scotia","zip":"B2N 1L2","country":"Canada","geoPoint":{"lat":45.36685,"lon":-63.26538}},{"facility":"GSK Investigational Site","city":"Burlington","state":"Ontario","zip":"L7M 4Y1","country":"Canada","geoPoint":{"lat":43.38621,"lon":-79.83713}},{"facility":"GSK Investigational Site","city":"Grimsby","state":"Ontario","zip":"L3M 1P3","country":"Canada","geoPoint":{"lat":43.20011,"lon":-79.56631}},{"facility":"GSK Investigational Site","city":"Hamilton","state":"Ontario","zip":"L8P 3B6","country":"Canada","geoPoint":{"lat":43.25011,"lon":-79.84963}},{"facility":"GSK Investigational Site","city":"Newmarket","state":"Ontario","zip":"L3Y 8C3","country":"Canada","geoPoint":{"lat":44.05011,"lon":-79.46631}},{"facility":"GSK Investigational Site","city":"Toronto","state":"Ontario","zip":"M3J 1N2","country":"Canada","geoPoint":{"lat":43.70011,"lon":-79.4163}},{"facility":"GSK Investigational Site","city":"Greenfield Park","state":"Quebec","zip":"J4V 2G8","country":"Canada","geoPoint":{"lat":45.48649,"lon":-73.46223}},{"facility":"GSK Investigational Site","city":"Longueuil","state":"Quebec","zip":"J4K 1E3","country":"Canada","geoPoint":{"lat":45.53121,"lon":-73.51806}},{"facility":"GSK Investigational Site","city":"Montreal","state":"Quebec","zip":"H2L 4M1","country":"Canada","geoPoint":{"lat":45.50884,"lon":-73.58781}},{"facility":"GSK Investigational Site","city":"St-Lambert","state":"Quebec","zip":"J4P 2H4","country":"Canada","geoPoint":{"lat":45.50008,"lon":-73.51028}},{"facility":"GSK Investigational Site","city":"Trois Rivières","state":"Quebec","zip":"G8T 7A1","country":"Canada","geoPoint":{"lat":46.34515,"lon":-72.5477}},{"facility":"GSK Investigational Site","city":"Aarhus","zip":"DK-8000","country":"Denmark","geoPoint":{"lat":56.15674,"lon":10.21076}},{"facility":"GSK Investigational Site","city":"Frederiksberg","zip":"2000","country":"Denmark","geoPoint":{"lat":55.67938,"lon":12.53463}},{"facility":"GSK Investigational Site","city":"Tallinn","zip":"13419","country":"Estonia","geoPoint":{"lat":59.43696,"lon":24.75353}},{"facility":"GSK Investigational Site","city":"Tartu","zip":"51014","country":"Estonia","geoPoint":{"lat":58.38062,"lon":26.72509}},{"facility":"GSK Investigational Site","city":"Créteil","zip":"94000","country":"France","geoPoint":{"lat":48.78333,"lon":2.46667}},{"facility":"GSK Investigational Site","city":"Mont de Marsan","zip":"40000","country":"France","geoPoint":{"lat":43.89022,"lon":-0.49713}},{"facility":"GSK Investigational Site","city":"Toulouse","zip":"31300","country":"France","geoPoint":{"lat":43.60426,"lon":1.44367}},{"facility":"GSK Investigational Site","city":"Tours","zip":"37000","country":"France","geoPoint":{"lat":47.38333,"lon":0.68333}},{"facility":"GSK Investigational Site","city":"Kuenzing","state":"Bayern","zip":"94550","country":"Germany"},{"facility":"GSK Investigational Site","city":"Northeim","state":"Niedersachsen","zip":"37154","country":"Germany","geoPoint":{"lat":51.70662,"lon":9.99997}},{"facility":"GSK Investigational Site","city":"Weyhe-Leeste","state":"Niedersachsen","zip":"28844","country":"Germany"},{"facility":"GSK Investigational Site","city":"Wolmirstedt","state":"Sachsen-Anhalt","zip":"39326","country":"Germany","geoPoint":{"lat":52.24856,"lon":11.62945}},{"facility":"GSK Investigational Site","city":"Chemnitz","state":"Sachsen","zip":"09113","country":"Germany","geoPoint":{"lat":50.8357,"lon":12.92922}},{"facility":"GSK Investigational Site","city":"Ebersbach","state":"Sachsen","zip":"02730","country":"Germany","geoPoint":{"lat":51.00762,"lon":14.58621}},{"facility":"GSK Investigational Site","city":"Koenigsbrueck","state":"Sachsen","zip":"01936","country":"Germany"},{"facility":"GSK Investigational Site","city":"Leipzig","state":"Sachsen","zip":"04177","country":"Germany","geoPoint":{"lat":51.33962,"lon":12.37129}},{"facility":"GSK Investigational Site","city":"Leipzig","state":"Sachsen","zip":"04299","country":"Germany","geoPoint":{"lat":51.33962,"lon":12.37129}},{"facility":"GSK Investigational Site","city":"Leisnig","state":"Sachsen","zip":"04703","country":"Germany","geoPoint":{"lat":51.15743,"lon":12.9279}},{"facility":"GSK Investigational Site","city":"Markkleeberg","state":"Sachsen","zip":"04416","country":"Germany","geoPoint":{"lat":51.2755,"lon":12.36906}},{"facility":"GSK Investigational Site","city":"Bad Segeberg","state":"Schleswig-Holstein","zip":"23795","country":"Germany","geoPoint":{"lat":53.94313,"lon":10.30215}},{"facility":"GSK Investigational Site","city":"Jena","state":"Thueringen","zip":"07743","country":"Germany","geoPoint":{"lat":50.92878,"lon":11.5899}},{"facility":"GSK Investigational Site","city":"Berlin","zip":"10117","country":"Germany","geoPoint":{"lat":52.52437,"lon":13.41053}},{"facility":"GSK Investigational Site","city":"Berlin","zip":"12163","country":"Germany","geoPoint":{"lat":52.52437,"lon":13.41053}},{"facility":"GSK Investigational Site","city":"Athens","zip":"115 28","country":"Greece","geoPoint":{"lat":37.97945,"lon":23.71622}},{"facility":"GSK Investigational Site","city":"Athens","zip":"123 51","country":"Greece","geoPoint":{"lat":37.97945,"lon":23.71622}},{"facility":"GSK Investigational Site","city":"Sopron","zip":"9400","country":"Hungary","geoPoint":{"lat":47.68501,"lon":16.59049}},{"facility":"GSK Investigational Site","city":"Szolnok","zip":"5000","country":"Hungary","geoPoint":{"lat":47.18333,"lon":20.2}},{"facility":"GSK Investigational Site","city":"Szolnok","zip":"5004","country":"Hungary","geoPoint":{"lat":47.18333,"lon":20.2}},{"facility":"GSK Investigational Site","city":"Székesfehérvár","zip":"8000","country":"Hungary","geoPoint":{"lat":47.18995,"lon":18.41034}},{"facility":"GSK Investigational Site","city":"Bangalore","zip":"560034","country":"India","geoPoint":{"lat":12.97194,"lon":77.59369}},{"facility":"GSK Investigational Site","city":"Bangalore","country":"India","geoPoint":{"lat":12.97194,"lon":77.59369}},{"facility":"GSK Investigational Site","city":"Hyderabad","zip":"500063","country":"India","geoPoint":{"lat":17.38405,"lon":78.45636}},{"facility":"GSK Investigational Site","city":"Mumbai","zip":"400008","country":"India","geoPoint":{"lat":19.07283,"lon":72.88261}},{"facility":"GSK Investigational Site","city":"New Delhi","zip":"110065","country":"India","geoPoint":{"lat":28.63576,"lon":77.22445}},{"facility":"GSK Investigational Site","city":"Catanzaro","state":"Calabria","zip":"88100","country":"Italy","geoPoint":{"lat":38.88247,"lon":16.60086}},{"facility":"GSK Investigational Site","city":"Caserta","state":"Campania","zip":"81100","country":"Italy","geoPoint":{"lat":41.07262,"lon":14.33231}},{"facility":"GSK Investigational Site","city":"Roma","state":"Lazio","zip":"00163","country":"Italy","geoPoint":{"lat":41.89193,"lon":12.51133}},{"facility":"GSK Investigational Site","city":"Città della Pieve (PG)","state":"Umbria","zip":"06062","country":"Italy"},{"facility":"GSK Investigational Site","city":"Kwangju","country":"Korea, Republic of","geoPoint":{"lat":36.9122,"lon":127.1279}},{"facility":"GSK Investigational Site","city":"Seoul","zip":"110-744","country":"Korea, Republic of","geoPoint":{"lat":37.566,"lon":126.9784}},{"facility":"GSK Investigational Site","city":"Seoul","zip":"120-752","country":"Korea, Republic of","geoPoint":{"lat":37.566,"lon":126.9784}},{"facility":"GSK Investigational Site","city":"Seoul","zip":"152-703","country":"Korea, Republic of","geoPoint":{"lat":37.566,"lon":126.9784}},{"facility":"GSK Investigational Site","city":"Riga","zip":"LV 1002","country":"Latvia","geoPoint":{"lat":56.946,"lon":24.10589}},{"facility":"GSK Investigational Site","city":"Riga","zip":"LV1001","country":"Latvia","geoPoint":{"lat":56.946,"lon":24.10589}},{"facility":"GSK Investigational Site","city":"Mexico","zip":"11850","country":"Mexico","geoPoint":{"lat":19.42847,"lon":-99.12766}},{"facility":"GSK Investigational Site","city":"Delft","zip":"2625 AD","country":"Netherlands","geoPoint":{"lat":52.00667,"lon":4.35556}},{"facility":"GSK Investigational Site","city":"Den Haag","zip":"2597 AX","country":"Netherlands","geoPoint":{"lat":52.07667,"lon":4.29861}},{"facility":"GSK Investigational Site","city":"Utrecht","zip":"3582 KE","country":"Netherlands","geoPoint":{"lat":52.09083,"lon":5.12222}},{"facility":"GSK Investigational Site","city":"Auckland","country":"New Zealand","geoPoint":{"lat":-36.84853,"lon":174.76349}},{"facility":"GSK Investigational Site","city":"Christchurch","zip":"8001","country":"New Zealand","geoPoint":{"lat":-43.53333,"lon":172.63333}},{"facility":"GSK Investigational Site","city":"Hamilton","zip":"2001","country":"New Zealand","geoPoint":{"lat":-37.78333,"lon":175.28333}},{"facility":"GSK Investigational Site","city":"Takapuna, Auckland","zip":"1309","country":"New Zealand"},{"facility":"GSK Investigational Site","city":"Elverum","zip":"2408","country":"Norway","geoPoint":{"lat":60.88191,"lon":11.56231}},{"facility":"GSK Investigational Site","city":"Oslo","zip":"N-0160","country":"Norway","geoPoint":{"lat":59.91273,"lon":10.74609}},{"facility":"GSK Investigational Site","city":"Skien","zip":"N-3710","country":"Norway","geoPoint":{"lat":59.20962,"lon":9.60897}},{"facility":"GSK Investigational Site","city":"Bucharest","zip":"020125","country":"Romania","geoPoint":{"lat":44.43225,"lon":26.10626}},{"facility":"GSK Investigational Site","city":"Bucuresti","country":"Romania","geoPoint":{"lat":44.42802,"lon":26.09665}},{"facility":"GSK Investigational Site","city":"Targu-Mures","country":"Romania","geoPoint":{"lat":46.54245,"lon":24.55747}},{"facility":"GSK Investigational Site","city":"Alicante","zip":"03010","country":"Spain","geoPoint":{"lat":38.34517,"lon":-0.48149}},{"facility":"GSK Investigational Site","city":"Alicante","zip":"03114","country":"Spain","geoPoint":{"lat":38.34517,"lon":-0.48149}},{"facility":"GSK Investigational Site","city":"Barcelona","zip":"08036","country":"Spain","geoPoint":{"lat":41.38879,"lon":2.15899}},{"facility":"GSK Investigational Site","city":"Cadiz","zip":"11009","country":"Spain","geoPoint":{"lat":36.52672,"lon":-6.2891}},{"facility":"GSK Investigational Site","city":"Leganes","country":"Spain","geoPoint":{"lat":40.32718,"lon":-3.7635}},{"facility":"GSK Investigational Site","city":"Madrid","zip":"28006","country":"Spain","geoPoint":{"lat":40.4165,"lon":-3.70256}},{"facility":"GSK Investigational Site","city":"Madrid","zip":"28035","country":"Spain","geoPoint":{"lat":40.4165,"lon":-3.70256}},{"facility":"GSK Investigational Site","city":"Madrid","zip":"28040","country":"Spain","geoPoint":{"lat":40.4165,"lon":-3.70256}},{"facility":"GSK Investigational Site","city":"San Juan De Alicante","zip":"3550","country":"Spain","geoPoint":{"lat":38.40148,"lon":-0.43623}},{"facility":"GSK Investigational Site","city":"Göteborg","zip":"SE-413 45","country":"Sweden","geoPoint":{"lat":57.70716,"lon":11.96679}},{"facility":"GSK Investigational Site","city":"Stockholm","zip":"SE-111 57","country":"Sweden","geoPoint":{"lat":59.33258,"lon":18.0649}},{"facility":"GSK Investigational Site","city":"Uppsala","zip":"SE-751 85","country":"Sweden","geoPoint":{"lat":59.85882,"lon":17.63889}},{"facility":"GSK Investigational Site","city":"Taipei","zip":"112","country":"Taiwan","geoPoint":{"lat":25.04776,"lon":121.53185}},{"facility":"GSK Investigational Site","city":"Bangkok","zip":"10400","country":"Thailand","geoPoint":{"lat":13.75398,"lon":100.50144}},{"facility":"GSK Investigational Site","city":"Chiangmai","zip":"50200","country":"Thailand","geoPoint":{"lat":18.79038,"lon":98.98468}},{"facility":"GSK Investigational Site","city":"Glasgow","state":"Lanarkshire","zip":"G11 6NT","country":"United Kingdom","geoPoint":{"lat":55.86515,"lon":-4.25763}},{"facility":"GSK Investigational Site","city":"Harrow","state":"Middlesex","zip":"HA1 1QL","country":"United Kingdom","geoPoint":{"lat":51.57142,"lon":-0.33371}},{"facility":"GSK Investigational Site","city":"Northwood","state":"Middlesex","zip":"HA6 2RN","country":"United Kingdom"},{"facility":"GSK Investigational Site","city":"Birmingham","state":"West Midlands","zip":"B18 7QH","country":"United Kingdom","geoPoint":{"lat":52.48142,"lon":-1.89983}},{"facility":"GSK Investigational Site","city":"Antrim","zip":"BT41 2RL","country":"United Kingdom","geoPoint":{"lat":54.7,"lon":-6.2}},{"facility":"GSK Investigational Site","city":"Dundee","zip":"DD1 9SY","country":"United Kingdom","geoPoint":{"lat":56.46913,"lon":-2.97489}},{"facility":"GSK Investigational Site","city":"Manchester","zip":"M23 9LT","country":"United Kingdom","geoPoint":{"lat":53.48095,"lon":-2.23743}},{"facility":"GSK Investigational Site","city":"York","zip":"YO31 8HE","country":"United Kingdom","geoPoint":{"lat":53.95763,"lon":-1.08271}}]}},"annotationSection":{"annotationModule":{"unpostedAnnotation":{"unpostedResponsibleParty":"GlaxoSmithKline","unpostedEvents":[{"type":"RELEASE","date":"2017-05-03"},{"type":"UNRELEASE","dateUnknown":true},{"type":"RELEASE","date":"2017-05-30"},{"type":"RESET","date":"2017-12-15"},{"type":"RELEASE","date":"2018-02-14"},{"type":"UNRELEASE","dateUnknown":true},{"type":"RELEASE","date":"2018-03-08"},{"type":"UNRELEASE","date":"2018-08-15"}]}}},"derivedSection":{"miscInfoModule":{"versionHolder":"2024-02-14","removedCountries":["Australia"],"submissionTracking":{"estimatedResultsFirstSubmitDate":"2017-05-03","submissionInfos":[{"releaseDate":"2017-05-03","unreleaseDateUnknown":true},{"releaseDate":"2017-05-30","resetDate":"2017-12-15"},{"releaseDate":"2018-02-14","unreleaseDateUnknown":true},{"releaseDate":"2018-03-08","unreleaseDate":"2018-08-15"}]}},"conditionBrowseModule":{"meshes":[{"id":"D000001281","term":"Atrial Fibrillation"}],"ancestors":[{"id":"D000002318","term":"Cardiovascular Diseases"},{"id":"D000001145","term":"Arrhythmias, Cardiac"},{"id":"D000006331","term":"Heart Diseases"},{"id":"D000010335","term":"Pathologic Processes"}],"browseLeaves":[{"id":"M21996","name":"Stroke","relevance":"LOW"},{"id":"M4276","name":"Atrial Fibrillation","asFound":"Atrial Fibrillation","relevance":"HIGH"},{"id":"M4143","name":"Arrhythmias, Cardiac","relevance":"LOW"},{"id":"M9109","name":"Heart Diseases","relevance":"LOW"}],"browseBranches":[{"abbrev":"BC10","name":"Nervous System Diseases"},{"abbrev":"BC14","name":"Heart and Blood Diseases"},{"abbrev":"All","name":"All Conditions"},{"abbrev":"BC23","name":"Symptoms and General Pathology"}]},"interventionBrowseModule":{"browseLeaves":[{"id":"M4238","name":"Aspirin","relevance":"LOW"}],"browseBranches":[{"abbrev":"Antipy","name":"Antipyretics"},{"abbrev":"Infl","name":"Anti-Inflammatory Agents"},{"abbrev":"ARhu","name":"Antirheumatic Agents"},{"abbrev":"FiAg","name":"Fibrinolytic Agents"},{"abbrev":"Analg","name":"Analgesics"},{"abbrev":"PlAggInh","name":"Platelet Aggregation Inhibitors"},{"abbrev":"All","name":"All Drugs and Chemicals"}]}},"hasResults":false}