{"protocolSection":{"identificationModule":{"nctId":"NCT04732728","orgStudyIdInfo":{"id":"92557593"},"organization":{"fullName":"Boston Scientific Corporation","class":"INDUSTRY"},"briefTitle":"LUX-Dx Insertable Cardiac Monitor Remote Programming and Performance Study","officialTitle":"LUX-Dx Insertable Cardiac Monitor Remote Programming and Performance Study","acronym":"LUX-Dx PERFORM"},"statusModule":{"statusVerifiedDate":"2023-08","overallStatus":"COMPLETED","expandedAccessInfo":{"hasExpandedAccess":false},"startDateStruct":{"date":"2021-03-05","type":"ACTUAL"},"primaryCompletionDateStruct":{"date":"2023-05-18","type":"ACTUAL"},"completionDateStruct":{"date":"2023-05-18","type":"ACTUAL"},"studyFirstSubmitDate":"2021-01-27","studyFirstSubmitQcDate":"2021-01-27","studyFirstPostDateStruct":{"date":"2021-02-01","type":"ACTUAL"},"lastUpdateSubmitDate":"2023-08-09","lastUpdatePostDateStruct":{"date":"2023-08-14","type":"ACTUAL"}},"sponsorCollaboratorsModule":{"responsibleParty":{"type":"SPONSOR"},"leadSponsor":{"name":"Boston Scientific Corporation","class":"INDUSTRY"}},"oversightModule":{"oversightHasDmc":false,"isFdaRegulatedDrug":false,"isFdaRegulatedDevice":false},"descriptionModule":{"briefSummary":"The LUX-Dx PERFORM Study will characterize, in a general patient population, the utilization of the remote programming feature of the Boston Scientific (BSC) Insertable Cardiac Monitor (ICM) device. The study will also collect data to characterize the performance of arrhythmia detection algorithms. Finally, data collected will be used to analyze and characterize the ICM system-related safety events."},"conditionsModule":{"conditions":["Atrial Fibrillation","Syncope","Cryptogenic Stroke"]},"designModule":{"studyType":"OBSERVATIONAL","patientRegistry":true,"targetDuration":"1 Year","designInfo":{"observationalModel":"OTHER","timePerspective":"PROSPECTIVE"},"enrollmentInfo":{"count":727,"type":"ACTUAL"}},"armsInterventionsModule":{"armGroups":[{"label":"Safety Cohort","description":"No intervention will be administered to subjects that comprise the safety cohort."},{"label":"Holter Cohort","description":"No intervention will be administered to subjects that comprise the safety cohort."}]},"outcomesModule":{"primaryOutcomes":[{"measure":"Characterize the utilization of the LUX-Dx remote programming feature","timeFrame":"12 months"},{"measure":"Characterize the performance of the LUX-Dx arrhythmia detection algorithms","timeFrame":"12 months"},{"measure":"ICM System-related Complication-free Rate at 30 days post-implant","timeFrame":"30 days"},{"measure":"ICM System-related Complication-free Rate at 12 months post-implant","timeFrame":"12 months"}]},"eligibilityModule":{"eligibilityCriteria":"Inclusion Criteria:\n\n* Patient is indicated to be implanted with the LUX-Dx ICM for one of the following reasons (grouped in three \"Reason for Monitoring\" subgroups): 1) Cryptogenic stroke, 2) Syncope, 3) AF management, Post-AF ablation, or Suspected AF\n* Patient is willing to enroll and be monitored in LATITUDE Clarity.\n* Patient is willing and able to be followed remotely via the ICM patient mobile app.\n* Patient is willing and capable of providing informed consent (which is not to include the use of a legally authorized representative (LAR) for documentation of informed consent) and agrees to participate in all protocol required activities.\n* Patient is age 18 years or above, or of legal age to give informed consent specific to state and national law.\n\nThe following inclusion criterion is applicable for patients participating in the Holter study:\n\nâ€¢ Patient can tolerate the adhesive used in the Holter monitoring for an extended period of time.\n\nExclusion Criteria:\n\n* Patient is indicated for implantation of, or is currently implanted with an active implantable cardiac device (e.g., LVAD, ICD, CRT D, PPM\\*).\n* Patient cannot tolerate a subcutaneous, chronically-inserted device due to medical condition.\n* Patient has a documented life expectancy of less than 12 months (per investigator's discretion).\n* Patient is known to be pregnant at the time of study enrollment (method of assessment upon investigator's discretion).\n* Patient is currently enrolled in another clinical study including observational studies/registries, unless prior written approval from BSC is obtained. Mandatory governmental registries are accepted for co-enrollment without approval by BSC.\n\nThe following exclusion criteria are applicable for patients participating in the Holter study:\n\n* Patient has known allergies to the adhesive materials or hydrogel used in the extended Holter monitoring.\n* Patient has broken, damaged, or irritated skin over the chest area where the extended Holter monitor will be attached.","healthyVolunteers":true,"sex":"ALL","minimumAge":"18 Years","stdAges":["ADULT","OLDER_ADULT"],"studyPopulation":"Patients that have a known heart condition and are at risk of developing an abnormal heart rhythm, or have symptoms that may suggest a cardiac arrhythmia such as dizziness, palpitations, syncope, chest pain, and/or shortness of breath.","samplingMethod":"NON_PROBABILITY_SAMPLE"},"contactsLocationsModule":{"locations":[{"facility":"Heart Center Research, LLC","city":"Huntsville","state":"Alabama","zip":"35801","country":"United States","geoPoint":{"lat":34.7304,"lon":-86.58594}},{"facility":"Northern Arizona Healthcare","city":"Flagstaff","state":"Arizona","zip":"86001","country":"United States","geoPoint":{"lat":35.19807,"lon":-111.65127}},{"facility":"Arrythmia Research Group","city":"Jonesboro","state":"Arkansas","zip":"72401","country":"United States","geoPoint":{"lat":35.8423,"lon":-90.70428}},{"facility":"Scripps Memorial Hospital","city":"La Jolla","state":"California","zip":"92037","country":"United States","geoPoint":{"lat":32.84727,"lon":-117.2742}},{"facility":"Cardiology Associates Medical Group","city":"Ventura","state":"California","zip":"93003","country":"United States","geoPoint":{"lat":34.27834,"lon":-119.29317}},{"facility":"Cardiac Arrhythmia Service","city":"Boca Raton","state":"Florida","zip":"33432","country":"United States","geoPoint":{"lat":26.3669,"lon":-80.13033}},{"facility":"Tallahassee Memorial Hospital","city":"Tallahassee","state":"Florida","zip":"32308","country":"United States","geoPoint":{"lat":30.43826,"lon":-84.28073}},{"facility":"St. Luke's Idaho Cardiology Associates","city":"Boise","state":"Idaho","zip":"83712","country":"United States","geoPoint":{"lat":43.6135,"lon":-116.20345}},{"facility":"University of Iowa Hospitals and Clinics","city":"Iowa City","state":"Iowa","zip":"52242","country":"United States","geoPoint":{"lat":41.66113,"lon":-91.53017}},{"facility":"University of Mississippi Medical Center","city":"Jackson","state":"Mississippi","zip":"39216","country":"United States","geoPoint":{"lat":32.29876,"lon":-90.18481}},{"facility":"Kansas City Arrhythmia Research LLC","city":"Kansas City","state":"Missouri","zip":"66211","country":"United States","geoPoint":{"lat":39.09973,"lon":-94.57857}},{"facility":"Cox Health","city":"Springfield","state":"Missouri","zip":"65807","country":"United States","geoPoint":{"lat":37.21533,"lon":-93.29824}},{"facility":"Rutgers New Jersey Medical School","city":"Newark","state":"New Jersey","zip":"07103","country":"United States","geoPoint":{"lat":40.73566,"lon":-74.17237}},{"facility":"Mount Sinai Morningside","city":"New York","state":"New York","zip":"10025","country":"United States","geoPoint":{"lat":40.71427,"lon":-74.00597}},{"facility":"North Carolina Heart and Vascular Research","city":"Raleigh","state":"North Carolina","zip":"27607","country":"United States","geoPoint":{"lat":35.7721,"lon":-78.63861}},{"facility":"Aultman Hospital","city":"Canton","state":"Ohio","zip":"44710","country":"United States","geoPoint":{"lat":40.79895,"lon":-81.37845}},{"facility":"Bethesda North Hospital","city":"Cincinnati","state":"Ohio","zip":"45242","country":"United States","geoPoint":{"lat":39.12713,"lon":-84.51435}},{"facility":"The Toledo Hospital","city":"Toledo","state":"Ohio","zip":"43615","country":"United States","geoPoint":{"lat":41.66394,"lon":-83.55521}},{"facility":"Presbyterian University of Pennsylvania Medical Center","city":"Philadelphia","state":"Pennsylvania","zip":"19104","country":"United States","geoPoint":{"lat":39.95233,"lon":-75.16379}},{"facility":"Monument Health Rapid City Hospital","city":"Rapid City","state":"South Dakota","zip":"57701","country":"United States","geoPoint":{"lat":44.08054,"lon":-103.23101}},{"facility":"Erlanger Medical Center","city":"Chattanooga","state":"Tennessee","zip":"37403","country":"United States","geoPoint":{"lat":35.04563,"lon":-85.30968}},{"facility":"Texas Cardiac Arrhythmia Research","city":"Austin","state":"Texas","zip":"78705","country":"United States","geoPoint":{"lat":30.26715,"lon":-97.74306}},{"facility":"Sentara Norfolk General Hospital","city":"Norfolk","state":"Virginia","zip":"23507","country":"United States","geoPoint":{"lat":36.84681,"lon":-76.28522}},{"facility":"PeaceHealth Southwest Medical","city":"Vancouver","state":"Washington","zip":"98664","country":"United States","geoPoint":{"lat":45.63873,"lon":-122.66149}}]},"ipdSharingStatementModule":{"ipdSharing":"NO"}},"derivedSection":{"miscInfoModule":{"versionHolder":"2024-02-14"},"conditionBrowseModule":{"meshes":[{"id":"D000013575","term":"Syncope"},{"id":"D000083242","term":"Ischemic Stroke"},{"id":"D000001281","term":"Atrial Fibrillation"}],"ancestors":[{"id":"D000001145","term":"Arrhythmias, Cardiac"},{"id":"D000006331","term":"Heart Diseases"},{"id":"D000002318","term":"Cardiovascular Diseases"},{"id":"D000010335","term":"Pathologic Processes"},{"id":"D000014474","term":"Unconsciousness"},{"id":"D000003244","term":"Consciousness Disorders"},{"id":"D000019954","term":"Neurobehavioral Manifestations"},{"id":"D000009461","term":"Neurologic Manifestations"},{"id":"D000009422","term":"Nervous System Diseases"},{"id":"D000020521","term":"Stroke"},{"id":"D000002561","term":"Cerebrovascular Disorders"},{"id":"D000001927","term":"Brain Diseases"},{"id":"D000002493","term":"Central Nervous System Diseases"},{"id":"D000014652","term":"Vascular Diseases"}],"browseLeaves":[{"id":"M21996","name":"Stroke","relevance":"LOW"},{"id":"M4276","name":"Atrial Fibrillation","asFound":"Atrial Fibrillation","relevance":"HIGH"},{"id":"M16043","name":"Syncope","asFound":"Syncope","relevance":"HIGH"},{"id":"M10233","name":"Ischemia","relevance":"LOW"},{"id":"M2401","name":"Ischemic Stroke","asFound":"Cryptogenic Stroke","relevance":"HIGH"},{"id":"M4143","name":"Arrhythmias, Cardiac","relevance":"LOW"},{"id":"M9109","name":"Heart Diseases","relevance":"LOW"},{"id":"M16914","name":"Unconsciousness","relevance":"LOW"},{"id":"M6158","name":"Consciousness Disorders","relevance":"LOW"},{"id":"M21516","name":"Neurobehavioral Manifestations","relevance":"LOW"},{"id":"M12094","name":"Neurologic Manifestations","relevance":"LOW"},{"id":"M5500","name":"Cerebrovascular Disorders","relevance":"LOW"},{"id":"M4894","name":"Brain Diseases","relevance":"LOW"},{"id":"M5432","name":"Central Nervous System Diseases","relevance":"LOW"},{"id":"M17090","name":"Vascular Diseases","relevance":"LOW"}],"browseBranches":[{"abbrev":"BC10","name":"Nervous System Diseases"},{"abbrev":"BC14","name":"Heart and Blood Diseases"},{"abbrev":"All","name":"All Conditions"},{"abbrev":"BC23","name":"Symptoms and General Pathology"},{"abbrev":"BXM","name":"Behaviors and Mental Disorders"}]}},"hasResults":false}