{"protocolSection":{"identificationModule":{"nctId":"NCT03302494","orgStudyIdInfo":{"id":"CHX_IP014"},"organization":{"fullName":"Coherex Medical","class":"INDUSTRY"},"briefTitle":"WAveCrest Vs. Watchman TranssEptal LAA Closure to REduce AF-Mediated STroke 2","officialTitle":"WAveCrest Vs. Watchman TranssEptal LAA Closure to REduce AF-Mediated STroke 2. A Prospective, Multicenter, Randomized, Active Controlled, Clinical Trial of the Coherex WaveCrest® Left Atrial Appendage Occlusion System Compared to the Watchman® LAA Closure Device for the Reduction in Risk of Ischemic Stroke or Systemic Embolism in Subjects With Non-valvular Atrial Fibrillation That Have an Appropriate Rationale to Seek a Non-pharmacologic Alternative to Chronic Oral Anticoagulation.","acronym":"WAVECREST2"},"statusModule":{"statusVerifiedDate":"2024-01","overallStatus":"ACTIVE_NOT_RECRUITING","expandedAccessInfo":{"hasExpandedAccess":false},"startDateStruct":{"date":"2017-12-27","type":"ACTUAL"},"primaryCompletionDateStruct":{"date":"2024-01-01","type":"ESTIMATED"},"completionDateStruct":{"date":"2029-12-01","type":"ESTIMATED"},"studyFirstSubmitDate":"2017-09-29","studyFirstSubmitQcDate":"2017-10-04","studyFirstPostDateStruct":{"date":"2017-10-05","type":"ACTUAL"},"lastUpdateSubmitDate":"2024-01-02","lastUpdatePostDateStruct":{"date":"2024-01-03","type":"ACTUAL"}},"sponsorCollaboratorsModule":{"responsibleParty":{"type":"SPONSOR"},"leadSponsor":{"name":"Coherex Medical","class":"INDUSTRY"},"collaborators":[{"name":"Biosense Webster, Inc.","class":"INDUSTRY"}]},"oversightModule":{"oversightHasDmc":true,"isFdaRegulatedDrug":false,"isFdaRegulatedDevice":true,"isUnapprovedDevice":true},"descriptionModule":{"briefSummary":"The WAVECREST 2 trial is a prospective, multicenter, randomized, active controlled, clinical trial to evaluate the safety and effectiveness of the Coherex WaveCrest Left Atrial Appendage (LAA) Occlusion System.","detailedDescription":"The WAVECREST 2 trial is a prospective, multicenter, randomized, active controlled, clinical trial to evaluate the safety and effectiveness of the Coherex WaveCrest Left Atrial Appendage (LAA) Occlusion System. Subjects will be randomized in a 1:1 ratio to the Treatment Arm (Coherex WaveCrest LAA occlusion system) or the Control Arm (Boston Scientific's Watchman LAA occlusion system). The trial is designed to demonstrate that safety and effectiveness of the WaveCrest device are non-inferior to the Watchman device."},"conditionsModule":{"conditions":["Stroke"],"keywords":["Non-valvular Atrial Fibrillation","Left Atrial Appendage"]},"designModule":{"studyType":"INTERVENTIONAL","phases":["PHASE3"],"designInfo":{"allocation":"RANDOMIZED","interventionModel":"PARALLEL","primaryPurpose":"PREVENTION","maskingInfo":{"masking":"SINGLE","maskingDescription":"If the subject is suspected of having a stroke since their most recent follow-up, a Neurologist blinded to subject's randomization and implanted device must evaluate the subject or otherwise provide rationale for why an in-person neurology visit and exam are unnecessary. Neurology or blinded trial personnel should also administer mRS \\& NIHSS if there is suspicion of stroke A Clinical Events Committee, also blinded to subject's randomization, will adjudicate primary safety and effectiveness.","whoMasked":["OUTCOMES_ASSESSOR"]}},"enrollmentInfo":{"count":1550,"type":"ESTIMATED"}},"armsInterventionsModule":{"armGroups":[{"label":"WaveCrest","type":"EXPERIMENTAL","description":"WaveCrest left atrial appendage occluder","interventionNames":["Device: Coherex WaveCrest® Left Atrial Appendage Occlusion System"]},{"label":"Watchman (control)","type":"ACTIVE_COMPARATOR","description":"Watchman left atrial appendage closure device","interventionNames":["Device: Watchman® LAA Closure Device"]}],"interventions":[{"type":"DEVICE","name":"Coherex WaveCrest® Left Atrial Appendage Occlusion System","description":"Percutaneous left atrial appendage closure","armGroupLabels":["WaveCrest"]},{"type":"DEVICE","name":"Watchman® LAA Closure Device","description":"Percutaeous left atrial appendage closure","armGroupLabels":["Watchman (control)"]}]},"outcomesModule":{"primaryOutcomes":[{"measure":"Procedure or device related complications","description":"Part of the composite rate of the primary safety endpoint.","timeFrame":"45 Days"},{"measure":"All Death","description":"Part of the composite rate of the primary safety endpoint.","timeFrame":"24 months"},{"measure":"Major Bleeding","description":"Part of the composite rate of the primary safety endpoint.","timeFrame":"24 months"},{"measure":"Ischemic stroke, systemic embolism","description":"The primary effectiveness endpoint is a composite rate of ischemic stroke or systemic embolism at 24 months","timeFrame":"24 months"}],"secondaryOutcomes":[{"measure":"Ischemic stroke, systemic embolism","description":"The secondary endpoint is the rate of ischemic stroke or systemic embolism with the WaveCrest device in comparison to the CHADS2 and CHA2DS2-VASc imputed risk of ischemic stroke or systemic embolism in the absence of anticoagulant therapy","timeFrame":"45 days"}]},"eligibilityModule":{"eligibilityCriteria":"Inclusion Criteria:\n\n1. Documented evidence of paroxysmal, persistent, or permanent non-valvular atrial fibrillation\n2. At least 18 years of age\n3. Calculated CHADS2 score ≥ 2 or CHA2DS2-VASc score ≥ 3\n4. Indication for warfarin therapy with an appropriate rationale to seek a non-pharmacologic alternative to chronic oral anticoagulation\n5. Willing and able to comply with post-implant anticoagulation and antiplatelet regimen\n6. Willing to participate in the required follow-up visits and tests\n7. Subject has been informed of the nature of the trial, agrees to its provisions and has provided written informed consent as approved by the IRB/EC at the site\n\nExclusion Criteria:\n\n1. Atrial fibrillation (AF) due to a reversible cause (e.g. thyrotoxicosis or postoperative)\n2. Known contraindication and/or allergy to warfarin, nickel, aspirin, intravenous contrast or P2Y12 inhibitors (clopidogrel, ticagrelor, and prasugrel), which cannot be adequately pre-medicated or desensitized\n3. Conditions other than AF requiring long-term anticoagulation therapy\n4. Contraindications for percutaneous catheterization procedures\n5. Prior surgical LAA occlusion/exclusion or implanted with LAA occlusion device, or any prior attempt of such procedures\n6. Prior percutaneous or surgical closure of a patent foramen ovale or atrial septal defect\n7. Inability or unwillingness to take oral anticoagulation for 45 days post-procedure\n8. New York Heart Association (NYHA) Class IV heart failure\n9. Prior cardiac transplant, history of mitral valve replacement or transcatheter mitral valve intervention, or any mechanical valve implant\n10. History of symptomatic carotid, intervertebral, or intracranial artery occlusion or stenosis without revascularization with the exception of known occlusion without symptoms \\> 6 months\n11. Modified Rankin Scale (mRS) score ≥ 4\n12. Chronic resting heart rate ≥ 110 bpm\n13. Congenital cardiac anomalies requiring cardiac surgery or interventional repair\n14. Stroke or transient ischemic attack (confirmed by Neurologist) within 60 days prior to enrollment\n15. Myocardial infarction within 60 days prior to enrollment\n16. Sepsis or any infection requiring oral antibiotic therapy within 14 days or intravenous antibiotic therapy within 30 days prior to enrollment\n17. Surgical or interventional cardiovascular and non-cardiovascular procedure including cardioversion within 30 days prior to enrollment or AF ablation within 60 days prior to enrollment or any planned general surgery or interventional procedure within 90 days after enrollment or any planned cardiac surgery.\n18. On renal replacement therapy, serum creatinine \\> 3.0 mg/dl (265 μmol/L) or calculated creatinine clearance \\< 25 ml/minute\n19. Thrombocytopenia (\\<60,000 platelets/mm3), leucopenia (white blood cell count \\< 3,000 cells/mm³), or anemia (hemoglobin concentration \\< 10 grams/deciliter) based on blood work done within 30 days prior to enrollment\n20. Any medical disorder or psychiatric illness that would interfere with successful completion of the trial\n21. Currently participating in an investigational drug trial or another device trial that has not completed the primary endpoint (trials requiring extended follow-up for products that are commercially available are not considered investigational trials). Concurrent enrollment in the ACC LAAO Registry is permitted.\n22. Subject belongs to a vulnerable population (see definition in Appendix I: Acronyms and Definitions)\n23. Any condition that would reduce life expectancy to less than 2 years\n24. Women of childbearing potential who are, or plan to become pregnant during the time of the trial (method of assessment per physician discretion)\n\nEchocardiographic Exclusion Criteria\n\n1. Left ventricular ejection fraction \\< 30%\n2. Mitral valve stenosis defined as valve area \\< 1.5cm2, mean gradient \\> 6mmHg, or any valve deformity consistent with rheumatic valvular disease\n3. Aortic valve stenosis defined as valve area ≤1.0cm2 or mean gradient \\>30mmHg\n4. Circumferential pericardial effusion \\> 10mm or symptomatic pericardial effusion\n5. Evidence of intracardiac thrombus\n6. Cardiac tumor or myxoma\n7. Atrial septal defect that warrants closure\n8. Complex atheroma in the ascending aorta or aortic arch as evidenced by mobile plaque\n9. Left Atrial Appendage size and shape are unsuitable for closure with a WaveCrest or Watchman device","healthyVolunteers":false,"sex":"ALL","minimumAge":"18 Years","stdAges":["ADULT","OLDER_ADULT"]},"contactsLocationsModule":{"overallOfficials":[{"name":"Vivek Reddy, MD","affiliation":"MOUNT SINAI HOSPITAL","role":"STUDY_CHAIR"},{"name":"Gregg Stone, MD","affiliation":"MOUNT SINAI HOSPITAL","role":"STUDY_CHAIR"}],"locations":[{"facility":"Grandview Medical Center","city":"Birmingham","state":"Alabama","zip":"35243","country":"United States","geoPoint":{"lat":33.52066,"lon":-86.80249}},{"facility":"Dignity Health Mercy Gilbert Medical Center","city":"Chandler","state":"Arizona","zip":"85224","country":"United States","geoPoint":{"lat":33.30616,"lon":-111.84125}},{"facility":"Pacific Heart Institute / St. John's Health Center","city":"Los Angeles","state":"California","zip":"90033","country":"United States","geoPoint":{"lat":34.05223,"lon":-118.24368}},{"facility":"Medstar Heart and Vascular Institute - Washington Hospital Center","city":"Washington","state":"District of Columbia","zip":"20010","country":"United States","geoPoint":{"lat":38.89511,"lon":-77.03637}},{"facility":"St. Vincent's Medical Center","city":"Jacksonville","state":"Florida","zip":"32204","country":"United States","geoPoint":{"lat":30.33218,"lon":-81.65565}},{"facility":"Piedmont Heart Institute","city":"Atlanta","state":"Georgia","zip":"30309","country":"United States","geoPoint":{"lat":33.749,"lon":-84.38798}},{"facility":"Wellstar Kennestone","city":"Marietta","state":"Georgia","zip":"30060","country":"United States","geoPoint":{"lat":33.9526,"lon":-84.54993}},{"facility":"Baptist Health Lexington","city":"Lexington","state":"Kentucky","zip":"40503","country":"United States","geoPoint":{"lat":37.98869,"lon":-84.47772}},{"facility":"MedStar Union Memorial Hospital","city":"Baltimore","state":"Maryland","zip":"21218","country":"United States","geoPoint":{"lat":39.29038,"lon":-76.61219}},{"facility":"Marquette General Hospital","city":"Marquette","state":"Michigan","zip":"49855","country":"United States","geoPoint":{"lat":46.54354,"lon":-87.39542}},{"facility":"Munson Medical Center","city":"Traverse City","state":"Michigan","zip":"49684","country":"United States","geoPoint":{"lat":44.76306,"lon":-85.62063}},{"facility":"Cardiology Associates Research, LLC","city":"Tupelo","state":"Mississippi","zip":"38801","country":"United States","geoPoint":{"lat":34.25807,"lon":-88.70464}},{"facility":"Northwell Health","city":"Bay Shore","state":"New York","zip":"11706","country":"United States","geoPoint":{"lat":40.7251,"lon":-73.24539}},{"facility":"New York University- NYU Langone Cardiac","city":"New York","state":"New York","zip":"10016","country":"United States","geoPoint":{"lat":40.71427,"lon":-74.00597}},{"facility":"New York University","city":"New York","state":"New York","zip":"10016","country":"United States","geoPoint":{"lat":40.71427,"lon":-74.00597}},{"facility":"Icahn School of Medicine at Mount Sinai","city":"New York","state":"New York","zip":"10029","country":"United States","geoPoint":{"lat":40.71427,"lon":-74.00597}},{"facility":"Ohio State University","city":"Columbus","state":"Ohio","zip":"43210","country":"United States","geoPoint":{"lat":39.96118,"lon":-82.99879}},{"facility":"UPMC Pinnacle Health Cardiovascular Institute","city":"Harrisburg","state":"Pennsylvania","zip":"17104","country":"United States","geoPoint":{"lat":40.2737,"lon":-76.88442}},{"facility":"Texas Cardiac Arrhythmia Research Foundation","city":"Austin","state":"Texas","zip":"78705","country":"United States","geoPoint":{"lat":30.26715,"lon":-97.74306}},{"facility":"Baylor Scott & White All Saints Medical Center","city":"Fort Worth","state":"Texas","zip":"76104","country":"United States","geoPoint":{"lat":32.72541,"lon":-97.32085}},{"facility":"Heart Hospital Baylor Plano (Baylor Research Institute)","city":"Plano","state":"Texas","zip":"75093","country":"United States","geoPoint":{"lat":33.01984,"lon":-96.69889}},{"facility":"Christus Trinity Clinic Research","city":"Tyler","state":"Texas","zip":"75702","country":"United States","geoPoint":{"lat":32.35126,"lon":-95.30106}},{"facility":"Virginia Commonwealth University","city":"Richmond","state":"Virginia","zip":"23298","country":"United States","geoPoint":{"lat":37.55376,"lon":-77.46026}},{"facility":"Monash Health","city":"Melbourne","country":"Australia","geoPoint":{"lat":-37.814,"lon":144.96332}},{"facility":"St. Vincent's Hospital","city":"Sydney","zip":"2023","country":"Australia","geoPoint":{"lat":-33.86785,"lon":151.20732}}]},"ipdSharingStatementModule":{"ipdSharing":"NO"}},"derivedSection":{"miscInfoModule":{"versionHolder":"2024-02-14"},"conditionBrowseModule":{"meshes":[{"id":"D000020521","term":"Stroke"}],"ancestors":[{"id":"D000002561","term":"Cerebrovascular Disorders"},{"id":"D000001927","term":"Brain Diseases"},{"id":"D000002493","term":"Central Nervous System Diseases"},{"id":"D000009422","term":"Nervous System Diseases"},{"id":"D000014652","term":"Vascular Diseases"},{"id":"D000002318","term":"Cardiovascular Diseases"}],"browseLeaves":[{"id":"M21996","name":"Stroke","asFound":"Stroke","relevance":"HIGH"},{"id":"M7474","name":"Embolism","relevance":"LOW"},{"id":"M10233","name":"Ischemia","relevance":"LOW"},{"id":"M2401","name":"Ischemic Stroke","relevance":"LOW"},{"id":"M4276","name":"Atrial Fibrillation","relevance":"LOW"},{"id":"M5500","name":"Cerebrovascular Disorders","relevance":"LOW"},{"id":"M4894","name":"Brain Diseases","relevance":"LOW"},{"id":"M5432","name":"Central Nervous System Diseases","relevance":"LOW"},{"id":"M17090","name":"Vascular Diseases","relevance":"LOW"},{"id":"T1303","name":"Chronic Graft Versus Host Disease","relevance":"LOW"}],"browseBranches":[{"abbrev":"BC10","name":"Nervous System Diseases"},{"abbrev":"BC14","name":"Heart and Blood Diseases"},{"abbrev":"All","name":"All Conditions"},{"abbrev":"BC23","name":"Symptoms and General Pathology"},{"abbrev":"Rare","name":"Rare Diseases"}]}},"hasResults":false}