{"protocolSection":{"identificationModule":{"nctId":"NCT05611918","orgStudyIdInfo":{"id":"IRB00311985"},"secondaryIdInfos":[{"id":"R01NS120557","type":"NIH","link":"https://reporter.nih.gov/quickSearch/R01NS120557"}],"organization":{"fullName":"Johns Hopkins University","class":"OTHER"},"briefTitle":"REpeated ASSEssment of SurvivorS in Intracerebral Hemorrhage Study","officialTitle":"The Repeated Assessment of Survivors in ICH (REASSESS ICH)","acronym":"ICH03"},"statusModule":{"statusVerifiedDate":"2023-05","overallStatus":"ENROLLING_BY_INVITATION","expandedAccessInfo":{"hasExpandedAccess":false},"startDateStruct":{"date":"2023-05-23","type":"ACTUAL"},"primaryCompletionDateStruct":{"date":"2025-09-01","type":"ESTIMATED"},"completionDateStruct":{"date":"2027-12-31","type":"ESTIMATED"},"studyFirstSubmitDate":"2022-11-03","studyFirstSubmitQcDate":"2022-11-03","studyFirstPostDateStruct":{"date":"2022-11-10","type":"ACTUAL"},"lastUpdateSubmitDate":"2023-05-23","lastUpdatePostDateStruct":{"date":"2023-05-24","type":"ACTUAL"}},"sponsorCollaboratorsModule":{"responsibleParty":{"type":"SPONSOR"},"leadSponsor":{"name":"Johns Hopkins University","class":"OTHER"},"collaborators":[{"name":"National Institute of Neurological Disorders and Stroke (NINDS)","class":"NIH"}]},"oversightModule":{"oversightHasDmc":false,"isFdaRegulatedDrug":false,"isFdaRegulatedDevice":false},"descriptionModule":{"briefSummary":"The investigators propose to perform serial detailed cognitive, motor, behavioral, and blood collection follow-up using longitudinal structured telephone interviews of an anticipated 350 ICH survivors enrolled in Minimally Invasive Surgery Plus Alteplase for Intracerebral Hemorrhage Evacuation (MISTIE) III and ENRICH trials to identify specific cognitive and motor impairment and to perform RNA sequencing to evaluate for evidence of chronic inflammation. The investigators' expected sample size in 2022 accounts for mortality attrition of 10%/year.","detailedDescription":"The REASSESS study will conduct long-term cognitive, functional, and neuropsychiatric performance assessments to determine if evacuation of spontaneous intracerebral hemorrhage (ICH) reduces the risk of later cognitive decline in the ageing brain. This study will compare rates of cognitive decline under two treatment strategies for intracerebral hemorrhage: the use of minimally invasive surgery with two similar techniques as performed in the MISTIE III and ENRICH trials, and the current standard of care using data from controls in MISTIE III and ENRICH and comparative data from The Ethnic/Racial Variations of ICH (ERICH) study (U-01-NS067963) extended into the ERICH-Longitudinal study (R01-NS093870) which followed over 900 of ERICH cases with serial cognitive examinations."},"conditionsModule":{"conditions":["Intra Cerebral Hemorrhage","ICH - Intracerebral Hemorrhage","ICH","Hemorrhage","Stroke","Clot (Blood); Brain","Clot Blood","Cognitive Decline","Cognitive Impairment","Survivorship","Memory Impairment","Motor Activity"],"keywords":["Intracerebral hemorrhage","Stroke","Cognitive Impairment"]},"designModule":{"studyType":"OBSERVATIONAL","patientRegistry":false,"designInfo":{"observationalModel":"CASE_CONTROL","timePerspective":"PROSPECTIVE"},"bioSpec":{"retention":"SAMPLES_WITH_DNA","description":"Complete Blood Count, Ribonucleic Acid, Deoxyribonucleic Acid"},"enrollmentInfo":{"count":350,"type":"ESTIMATED"}},"outcomesModule":{"primaryOutcomes":[{"measure":"To determine if surgical clot reduction after ICH reduces the risk of progressive cognitive decline.","description":"Primary outcome measure is the rate of cognitive decline which is based on a composite measure of global cognition using the National Institute on Aging Genetics Initiative for Late Onset Alzheimer Disease (NIA-LOAD) Battery.\n\nClot reduction measure will be obtained from semi-automated computerized volumetrics using the OsiriX software.\n\nNational Institute on Aging Genetics Initiative for Late Onset Alzheimer Disease (NIA-LOAD) Battery is a 7-measure cognitive testing battery to assess change in episodic, semantic, and working memory in community-dwelling older persons with broad ability levels.","timeFrame":"24 months"}],"secondaryOutcomes":[{"measure":"To determine if there is a long-term benefit in survival and functional outcome from minimally invasive surgery whether or not cognitive decline occurs","description":"Survival and poor functional outcome (Modified Rankin Score (mRS) 4-6) will be calculated separately for cases with \\<=20 mL and \\>20 mL volume. We will use statistical modeling similar to Aim 1 to compute and calculate differences in hazard ratios for risk of mortality and poor outcome among \\<=20 mL and \\>20 mL survivors. We will assess interaction between cognitive decline and functional performance decline to evaluate whether these decline together.\n\nSecondary outcome measures include the following: Modified Rankin Scale score (mRS), NIH Stroke Scale (NIHSS), Motor Assessment Scale (MAS), Western Aphasia Battery (WAB), Mini Mental Status Exam (MMSE), Barthel Index (BI), De Jong Gierveld Loneliness Scale, EuroQol 5 Dimension (EQ-5D), Activities of Daily Living (ADL) and fall history, Telephone Interview for Cognitive Status (TICS), Informant Questionnaire on Cognitive Decline in the Elderly (IQ-CODE) and Center for Epidemiological Studies Depression (CES-D).","timeFrame":"24 months"}]},"eligibilityModule":{"eligibilityCriteria":"Inclusion Criteria:\n\n* Participants in the study must be survivors enrolled in MISTIE III and ENRICH trials at end of each trial's final follow-up (day 365 in MISTIE III and day 180 in ENRICH). Relatives of known survivors that are found to be deceased since the end of each trial will be interviewed to capture relevant data.\n\nExclusion Criteria:\n\n* None","healthyVolunteers":false,"sex":"ALL","stdAges":["CHILD","ADULT","OLDER_ADULT"],"studyPopulation":"The study populations includes all surviving cases identified and recruited through the 5-year durations of the MISTIE III and ENRICH trials and with follow-up periods extending from 2013-2017 and 2016-2022, respectively.","samplingMethod":"PROBABILITY_SAMPLE"},"contactsLocationsModule":{"overallOfficials":[{"name":"Wendy Ziai, MD","affiliation":"Johns Hopkins University","role":"PRINCIPAL_INVESTIGATOR"}],"locations":[{"facility":"University of Alabama at Brimingham","city":"Birmingham","state":"Alabama","zip":"35294","country":"United States","geoPoint":{"lat":33.52066,"lon":-86.80249}},{"facility":"Scripps Health","city":"La Jolla","state":"California","zip":"92037","country":"United States","geoPoint":{"lat":32.84727,"lon":-117.2742}},{"facility":"Dignity Health component - St. Joseph's Hospital and Medical Center","city":"Sacramento","state":"California","zip":"95819","country":"United States","geoPoint":{"lat":38.58157,"lon":-121.4944}},{"facility":"Stanford University","city":"Stanford","state":"California","zip":"94305","country":"United States","geoPoint":{"lat":37.42411,"lon":-122.16608}},{"facility":"Yale University","city":"New Haven","state":"Connecticut","zip":"06511","country":"United States","geoPoint":{"lat":41.30815,"lon":-72.92816}},{"facility":"Mayo Clinic, Jacksonville","city":"Jacksonville","state":"Florida","zip":"32224","country":"United States","geoPoint":{"lat":30.33218,"lon":-81.65565}},{"facility":"CommonSpirit (formerly Mercy San Juan Medical Center; dignity health)","city":"Chicago","state":"Illinois","zip":"60606","country":"United States","geoPoint":{"lat":41.85003,"lon":-87.65005}},{"facility":"University of Illinois at Chicago","city":"Chicago","state":"Illinois","zip":"60607","country":"United States","geoPoint":{"lat":41.85003,"lon":-87.65005}},{"facility":"University of Kansas Medical Center","city":"Fairway","state":"Kansas","zip":"66205","country":"United States","geoPoint":{"lat":39.02223,"lon":-94.6319}},{"facility":"University of Louisville","city":"Louisville","state":"Kentucky","zip":"40292","country":"United States","geoPoint":{"lat":38.25424,"lon":-85.75941}},{"facility":"University of Maryland Baltimore","city":"Baltimore","state":"Maryland","zip":"21201","country":"United States","geoPoint":{"lat":39.29038,"lon":-76.61219}},{"facility":"Johns Hopkins Hospital","city":"Baltimore","state":"Maryland","zip":"21205","country":"United States","geoPoint":{"lat":39.29038,"lon":-76.61219}},{"facility":"University of Michigan","city":"Ann Arbor","state":"Michigan","zip":"48109","country":"United States","geoPoint":{"lat":42.27756,"lon":-83.74088}},{"facility":"Henry Ford Health System","city":"Detroit","state":"Michigan","zip":"48202","country":"United States","geoPoint":{"lat":42.33143,"lon":-83.04575}},{"facility":"Hennepin Healthcare Research Institute","city":"Minneapolis","state":"Minnesota","zip":"55415","country":"United States","geoPoint":{"lat":44.97997,"lon":-93.26384}},{"facility":"Washington University in St. Louis, School of Medicine","city":"Saint Louis","state":"Missouri","zip":"63130","country":"United States","geoPoint":{"lat":38.62727,"lon":-90.19789}},{"facility":"Rutgers - Robert Wood Johnson Medical School","city":"Piscataway","state":"New Jersey","zip":"08854","country":"United States","geoPoint":{"lat":40.49927,"lon":-74.39904}},{"facility":"University of New Mexico","city":"Albuquerque","state":"New Mexico","zip":"87131","country":"United States","geoPoint":{"lat":35.08449,"lon":-106.65114}},{"facility":"Albert Einstein Montefiore","city":"Bronx","state":"New York","zip":"10461","country":"United States","geoPoint":{"lat":40.84985,"lon":-73.86641}},{"facility":"Wake Forest University Health Sciences","city":"Winston-Salem","state":"North Carolina","zip":"27157","country":"United States","geoPoint":{"lat":36.09986,"lon":-80.24422}},{"facility":"University of Cincinnati","city":"Cincinnati","state":"Ohio","zip":"45220","country":"United States","geoPoint":{"lat":39.12713,"lon":-84.51435}},{"facility":"Thomas Jefferson University","city":"Philadelphia","state":"Pennsylvania","zip":"19107","country":"United States","geoPoint":{"lat":39.95233,"lon":-75.16379}},{"facility":"Vanderbilt University Medical Center","city":"Nashville","state":"Tennessee","zip":"37232","country":"United States","geoPoint":{"lat":36.16589,"lon":-86.78444}},{"facility":"University of Texas, Houston Health Science Center","city":"Houston","state":"Texas","zip":"77030","country":"United States","geoPoint":{"lat":29.76328,"lon":-95.36327}},{"facility":"University of Texas Health Science Center at San Antonio","city":"San Antonio","state":"Texas","zip":"78229","country":"United States","geoPoint":{"lat":29.42412,"lon":-98.49363}},{"facility":"Inova Health System Foundation","city":"Fairfax","state":"Virginia","zip":"22042","country":"United States","geoPoint":{"lat":38.84622,"lon":-77.30637}}]},"ipdSharingStatementModule":{"ipdSharing":"YES","description":"NIH policy states grant award recipients must make unique resources readily available for research purposes to qualified individuals within the scientific community after publication. Drs. Ziai and Flaherty are committed to sharing resources, products, and data generated in this study. They are aware of and agree to abide by the principles for sharing research resources as described by NIH in \"Principles and Guidelines for Recipients of NIH Research Grants and Contracts on Obtaining and Disseminating Biomedical Research Programs.\"","infoTypes":["STUDY_PROTOCOL","SAP","ICF","CSR"],"timeFrame":"9 months of database lock","accessCriteria":"We will share individual-participant-level data, in a de-identified format in compliance with the HIPAA privacy rule, which will make the data free of identifiers that would permit linkages to the research participants and free of content that would create unacceptable risk of subject identification."}},"derivedSection":{"miscInfoModule":{"versionHolder":"2024-02-14"},"conditionBrowseModule":{"meshes":[{"id":"D000002543","term":"Cerebral Hemorrhage"},{"id":"D000006470","term":"Hemorrhage"},{"id":"D000060825","term":"Cognitive Dysfunction"}],"ancestors":[{"id":"D000002561","term":"Cerebrovascular Disorders"},{"id":"D000001927","term":"Brain Diseases"},{"id":"D000002493","term":"Central Nervous System Diseases"},{"id":"D000009422","term":"Nervous System Diseases"},{"id":"D000014652","term":"Vascular Diseases"},{"id":"D000002318","term":"Cardiovascular Diseases"},{"id":"D000003072","term":"Cognition Disorders"},{"id":"D000019965","term":"Neurocognitive Disorders"},{"id":"D000001523","term":"Mental Disorders"},{"id":"D000010335","term":"Pathologic Processes"},{"id":"D000020300","term":"Intracranial Hemorrhages"}],"browseLeaves":[{"id":"M21996","name":"Stroke","relevance":"LOW"},{"id":"M9246","name":"Hemorrhage","asFound":"Hemorrhage","relevance":"HIGH"},{"id":"M29395","name":"Cognitive Dysfunction","asFound":"Cognitive Impairment","relevance":"HIGH"},{"id":"M5482","name":"Cerebral Hemorrhage","asFound":"Intracerebral Hemorrhage","relevance":"HIGH"},{"id":"M5500","name":"Cerebrovascular Disorders","relevance":"LOW"},{"id":"M4894","name":"Brain Diseases","relevance":"LOW"},{"id":"M5432","name":"Central Nervous System Diseases","relevance":"LOW"},{"id":"M17090","name":"Vascular Diseases","relevance":"LOW"},{"id":"M5991","name":"Cognition Disorders","relevance":"LOW"},{"id":"M21526","name":"Neurocognitive Disorders","relevance":"LOW"},{"id":"M4505","name":"Mental Disorders","relevance":"LOW"},{"id":"M14163","name":"Psychotic Disorders","relevance":"LOW"},{"id":"M21803","name":"Intracranial Hemorrhages","relevance":"LOW"}],"browseBranches":[{"abbrev":"BC10","name":"Nervous System Diseases"},{"abbrev":"BC14","name":"Heart and Blood Diseases"},{"abbrev":"All","name":"All Conditions"},{"abbrev":"BC23","name":"Symptoms and General Pathology"},{"abbrev":"BXM","name":"Behaviors and Mental Disorders"}]}},"hasResults":false}