{"protocolSection":{"identificationModule":{"nctId":"NCT02334969","orgStudyIdInfo":{"id":"14401970300"},"organization":{"fullName":"ShuGuang Hospital","class":"OTHER"},"briefTitle":"Curative Efficacy of Secondary Prevention for Patients With Ischemic Stroke Through Syndrome Differentiation of TCM","officialTitle":"A Multi-center, Randomized, Double-blind and Placebo-controlled Clinical Research of 2200 Cases in Improving Curative Effect of Secondary Prevention for Patients With Ischemic Stroke Through Syndrome Differentiation of TCM"},"statusModule":{"statusVerifiedDate":"2018-11","overallStatus":"COMPLETED","expandedAccessInfo":{"hasExpandedAccess":false},"startDateStruct":{"date":"2016-04","type":"ACTUAL"},"primaryCompletionDateStruct":{"date":"2018-08-30","type":"ACTUAL"},"completionDateStruct":{"date":"2018-08-30","type":"ACTUAL"},"studyFirstSubmitDate":"2015-01-06","studyFirstSubmitQcDate":"2015-01-08","studyFirstPostDateStruct":{"date":"2015-01-09","type":"ESTIMATED"},"lastUpdateSubmitDate":"2018-11-15","lastUpdatePostDateStruct":{"date":"2018-11-19","type":"ACTUAL"}},"sponsorCollaboratorsModule":{"responsibleParty":{"type":"SPONSOR_INVESTIGATOR","investigatorFullName":"Xiaofei Yu","investigatorTitle":"Shuguang Hospital","investigatorAffiliation":"ShuGuang Hospital"},"leadSponsor":{"name":"Xiaofei Yu","class":"OTHER"},"collaborators":[{"name":"Shanghai Municipal Science and Technology Commission","class":"OTHER_GOV"}]},"oversightModule":{"oversightHasDmc":true},"descriptionModule":{"briefSummary":"The purpose of this study is to assess the efficacy and safety of Naoxintong Capsule in the secondary prevention of ischemic stroke by the multi-center, randomized,double-blind，placebo-controlled trial design project.","detailedDescription":"The research employs a random, double-blind, multicenter, placebo parallel and controlled design to observe the clinical effect of Naoxintong capsule in the treatment in ischemic stroke of the blood stasis syndrome on the secondary prevention，which is funded by Science and Technology Commission of Shanghai Municipality.The therapeutic drug of the research is Naoxintong capsule on the market for treatment and prevention of stroke, applicable to stroke patients caused by qi deficiency, blood stasis and venation stasis.The research will be carried out in 24 hospitals.It is a total number of 2200 volunteers，who will meet the inclusion criteria other than the exclusion criteria and agree to participate in the research.Volunteers will be randomly assigned to the experimental group or the control group. The trial drug for the experimental group is Naoxintong capsule, while that for the control group is a kind of placebo capsule.Volunteers will be regularly followed up during the experimental period of 2 years. It will be to evaluate the clinical efficacy of Naoxintong capsule on the secondary prevention by the stroke recurrence and mortality."},"conditionsModule":{"conditions":["Ischemic Stroke"],"keywords":["ischemic stroke；Naoxintong Capsule"]},"designModule":{"studyType":"INTERVENTIONAL","phases":["PHASE4"],"designInfo":{"allocation":"RANDOMIZED","interventionModel":"PARALLEL","primaryPurpose":"PREVENTION","maskingInfo":{"masking":"DOUBLE","whoMasked":["INVESTIGATOR","OUTCOMES_ASSESSOR"]}},"enrollmentInfo":{"count":2200,"type":"ACTUAL"}},"armsInterventionsModule":{"armGroups":[{"label":"Experimental group","type":"EXPERIMENTAL","description":"On the basis of the secondary prevention of ischemic stroke，Volunteers will be taken Naoxintong capsule, 2 times a day, three granule per time","interventionNames":["Drug: Naoxintong Capsule"]},{"label":"Control group","type":"ACTIVE_COMPARATOR","description":"On the basis of the secondary prevention of ischemic stroke，Volunteers will be taken Placebo capsule，which is identical with Naoxintong capsule in the appearance, shape, color and content, 2 times a day, three granule per time","interventionNames":["Drug: Placebo"]}],"interventions":[{"type":"DRUG","name":"Naoxintong Capsule","description":"This is Naoxintong capsule,which is composed of Huangqi,Chishao,Danshen,Danggui, Chuanxiong,Taoren,Honghua,Ruxiang,Moyao,Jixueteng,Niuxi,Guizhi,Sangzhi,Dilong,Quanxie,etal.","armGroupLabels":["Experimental group"],"otherNames":["Chinese Herbal Compound"]},{"type":"DRUG","name":"Placebo","description":"placebo capsule has the same as Naoxintong capsule in the appearance, shape,colour and content tinct.","armGroupLabels":["Control group"],"otherNames":["Placebo of Chinese Herbal Compound"]}]},"outcomesModule":{"primaryOutcomes":[{"measure":"Stroke recurrence rate and Stroke mortality","description":"Stroke recurrence rate and Stroke mortality","timeFrame":"2 years"}],"secondaryOutcomes":[{"measure":"All-cause mortality","description":"All-cause mortality","timeFrame":"2 years"},{"measure":"The incidence rate of myocardial infarction","description":"The incidence rate of myocardial infarction","timeFrame":"2 years"}],"otherOutcomes":[{"measure":"The incidence of adverse events","description":"The incidence of adverse events","timeFrame":"2 years"}]},"eligibilityModule":{"eligibilityCriteria":"Inclusion Criteria:\n\n* Adult volunteers aged ≤ 90 years old, ≥18 years old；\n* Conforming to the diagnostic criteria of cerebral infarction under the 2010 version of Chinese Guidelines for Treatment of Acute Ischemic Stroke；\n* Conforming to diagnostic criteria of the stasis type of TCM on the ischemic stroke；\n* The onset of acute cerebral infarction ≥ 10 days；\n* Consciousness awake；\n* Volunteers agree to accept the program and sign informed consent.\n\nExclusion Criteria:\n\n* Excluding the patients of the yin deficiency type of ischemic stroke.The diagnostic criteria of Yin deficiency type of ischemic stroke is that sudden onset of disease；being signs or symptoms of of neurological deficit；CT or MRI examination showing intracranial ischemic lesions；Scarlet tongue；\n* The volunteers with severe heart diseases, cardiac insufficiency, hepatosis, renal insufficiency, respiratory failure, malignant tumour, alimentary tract hemorrhage, etc. who may fail to complete the two-year follow-up；\n* Psychiatric patients；\n* Pregnants and lactating women；\n* Volunteers in other clinical trials；\n* Volunteers who are not suitable for this clinical trial according to the researchers for other reasons.","healthyVolunteers":true,"sex":"ALL","minimumAge":"18 Years","maximumAge":"90 Years","stdAges":["ADULT","OLDER_ADULT"]},"contactsLocationsModule":{"overallOfficials":[{"name":"Xiao F Yu, Doctor","affiliation":"ShuGuang Hospital","role":"STUDY_CHAIR"}],"locations":[{"facility":"Shanghai seventh People's Hospital","city":"Shanghai","state":"Shanghai","zip":"200000","country":"China","geoPoint":{"lat":31.22222,"lon":121.45806}},{"facility":"Shanghai Ninth People's Hospital affliated to Shanghai Jiao Tong University Shool of Medcine","city":"Shanghai","state":"Shanghai","zip":"200011","country":"China","geoPoint":{"lat":31.22222,"lon":121.45806}},{"facility":"North Branch of Ruijin Hospital affliated to Shanghai Jiao Tong University","city":"Shanghai","state":"Shanghai","zip":"200020","country":"China","geoPoint":{"lat":31.22222,"lon":121.45806}},{"facility":"Shanghai Putuo Central Hospital","city":"Shanghai","state":"Shanghai","zip":"200021","country":"China","geoPoint":{"lat":31.22222,"lon":121.45806}},{"facility":"Shuguang Hospital affliated to Shanghai University of Traditional Chinese Medicine","city":"Shanghai","state":"Shanghai","zip":"200021","country":"China","geoPoint":{"lat":31.22222,"lon":121.45806}},{"facility":"Longhua Hospital affliated to Shanghai University of Traditional Chinese Medicine","city":"Shanghai","state":"Shanghai","zip":"200032","country":"China","geoPoint":{"lat":31.22222,"lon":121.45806}},{"facility":"Zhongshan Hospital affliated to Fudan University","city":"Shanghai","state":"Shanghai","zip":"200032","country":"China","geoPoint":{"lat":31.22222,"lon":121.45806}},{"facility":"Huashan Hospital affliated to Fudan University","city":"Shanghai","state":"Shanghai","zip":"200040","country":"China","geoPoint":{"lat":31.22222,"lon":121.45806}},{"facility":"Shanghai fifth People's Hospital affliated to Fudan University","city":"Shanghai","state":"Shanghai","zip":"200040","country":"China","geoPoint":{"lat":31.22222,"lon":121.45806}},{"facility":"Tongren Hospital affliated to Shanghai Jiao Tong University","city":"Shanghai","state":"Shanghai","zip":"200050","country":"China","geoPoint":{"lat":31.22222,"lon":121.45806}},{"facility":"Tongji Hospital","city":"Shanghai","state":"Shanghai","zip":"200065","country":"China","geoPoint":{"lat":31.22222,"lon":121.45806}},{"facility":"Shanghai Chinese Medicine Hospital","city":"Shanghai","state":"Shanghai","zip":"200071","country":"China","geoPoint":{"lat":31.22222,"lon":121.45806}},{"facility":"Shanghai tenth People's Hospital","city":"Shanghai","state":"Shanghai","zip":"200072","country":"China","geoPoint":{"lat":31.22222,"lon":121.45806}},{"facility":"Shanghai Hospital of Integrative Medicine","city":"Shanghai","state":"Shanghai","zip":"200082","country":"China","geoPoint":{"lat":31.22222,"lon":121.45806}},{"facility":"Xinhua Hospital affliated to Shanghai Jiao Tong University Shool of Medcine","city":"Shanghai","state":"Shanghai","zip":"200092","country":"China","geoPoint":{"lat":31.22222,"lon":121.45806}},{"facility":"Dongfang Hospital affliated to Tongji University","city":"Shanghai","state":"Shanghai","zip":"200120","country":"China","geoPoint":{"lat":31.22222,"lon":121.45806}},{"facility":"Pudong Gong Li Hospital of Shanghai","city":"Shanghai","state":"Shanghai","zip":"200135","country":"China","geoPoint":{"lat":31.22222,"lon":121.45806}},{"facility":"Shanghai sixth People's Hospital affliated to Shanghai Jiao Tong University","city":"Shanghai","state":"Shanghai","zip":"200233","country":"China","geoPoint":{"lat":31.22222,"lon":121.45806}},{"facility":"Changning Tongren Hospital of Shanghai","city":"Shanghai","state":"Shanghai","zip":"200336","country":"China","geoPoint":{"lat":31.22222,"lon":121.45806}},{"facility":"Changhai Hospital","city":"Shanghai","state":"Shanghai","zip":"200433","country":"China","geoPoint":{"lat":31.22222,"lon":121.45806}},{"facility":"Pudong Hospital of Traditional Chinese Medicine","city":"Shanghai","state":"Shanghai","zip":"201200","country":"China","geoPoint":{"lat":31.22222,"lon":121.45806}},{"facility":"East Branch of Shanghai sixth People's Hospital","city":"Shanghai","state":"Shanghai","zip":"201306","country":"China","geoPoint":{"lat":31.22222,"lon":121.45806}},{"facility":"Qingpu Branch of Zhongshan Hospital affliated to Fudan University","city":"Shanghai","state":"Shanghai","zip":"201700","country":"China","geoPoint":{"lat":31.22222,"lon":121.45806}},{"facility":"Shanghai third People's Hospital affliated to Shanghai Jiao Tong University","city":"Shanghai","state":"Shanghai","zip":"201999","country":"China","geoPoint":{"lat":31.22222,"lon":121.45806}}]},"referencesModule":{"references":[{"pmid":"11786451","type":"RESULT","citation":"Antithrombotic Trialists' Collaboration. Collaborative meta-analysis of randomised trials of antiplatelet therapy for prevention of death, myocardial infarction, and stroke in high risk patients. BMJ. 2002 Jan 12;324(7329):71-86. doi: 10.1136/bmj.324.7329.71. Erratum In: BMJ 2002 Jan 19;324(7330):141."},{"pmid":"21125042","type":"RESULT","citation":"Hankey GJ. Ischaemic stroke--prevention is better than cure. J R Coll Physicians Edinb. 2010 Mar;40(1):56-63. doi: 10.4997/JRCPE.2010.111. No abstract available."},{"pmid":"17437989","type":"RESULT","citation":"Sobel M. Commentary. Aspirin plus dipyridamole versus aspirin alone after cerebral ischaemia of arterial origin (ESPRIT): randomised controlled trial. Perspect Vasc Surg Endovasc Ther. 2007 Mar;19(1):87-9. doi: 10.1177/1531003507299489. No abstract available."},{"pmid":"16176495","type":"RESULT","citation":"Matchar DB, Samsa GP, Liu S. Cost-effectiveness of antiplatelet agents in secondary stroke prevention: the limits of certainty. Value Health. 2005 Sep-Oct;8(5):572-80. doi: 10.1111/j.1524-4733.2005.00050.x."},{"pmid":"18757238","type":"RESULT","citation":"Diener HC, Sacco RL, Yusuf S, Cotton D, Ounpuu S, Lawton WA, Palesch Y, Martin RH, Albers GW, Bath P, Bornstein N, Chan BP, Chen ST, Cunha L, Dahlof B, De Keyser J, Donnan GA, Estol C, Gorelick P, Gu V, Hermansson K, Hilbrich L, Kaste M, Lu C, Machnig T, Pais P, Roberts R, Skvortsova V, Teal P, Toni D, VanderMaelen C, Voigt T, Weber M, Yoon BW; Prevention Regimen for Effectively Avoiding Second Strokes (PRoFESS) study group. Effects of aspirin plus extended-release dipyridamole versus clopidogrel and telmisartan on disability and cognitive function after recurrent stroke in patients with ischaemic stroke in the Prevention Regimen for Effectively Avoiding Second Strokes (PRoFESS) trial: a double-blind, active and placebo-controlled study. Lancet Neurol. 2008 Oct;7(10):875-84. doi: 10.1016/S1474-4422(08)70198-4. Epub 2008 Aug 29. Erratum In: Lancet Neurol. 2008 Nov;7(11):985."},{"pmid":"21502757","type":"RESULT","citation":"Uchiyama S, Ikeda Y, Urano Y, Horie Y, Yamaguchi T. The Japanese aggrenox (extended-release dipyridamole plus aspirin) stroke prevention versus aspirin programme (JASAP) study: a randomized, double-blind, controlled trial. Cerebrovasc Dis. 2011;31(6):601-13. doi: 10.1159/000327035. Epub 2011 Apr 19."},{"pmid":"25394855","type":"RESULT","citation":"Jeng JS, Sun Y, Lee JT, Lin RT, Chen CH, Po HL, Lin HJ, Liu CH, Sun MH, Sun MC, Chern CM, Lien LM, Chiu HC, Hu HH, Chiou HY, Chen ST, Ma H, Hsu CY; SPAD Study Investigators. The efficacy and safety of cilostazol in ischemic stroke patients with peripheral arterial disease (SPAD): protocol of a randomized, double-blind, placebo-controlled multicenter trial. Int J Stroke. 2015 Jan;10(1):123-7. doi: 10.1111/ijs.12384. Epub 2014 Nov 14."},{"pmid":"25401325","type":"RESULT","citation":"Ikeda Y, Shimada K, Teramoto T, Uchiyama S, Yamazaki T, Oikawa S, Sugawara M, Ando K, Murata M, Yokoyama K, Ishizuka N. Low-dose aspirin for primary prevention of cardiovascular events in Japanese patients 60 years or older with atherosclerotic risk factors: a randomized clinical trial. JAMA. 2014 Dec 17;312(23):2510-20. doi: 10.1001/jama.2014.15690."},{"pmid":"36251140","type":"DERIVED","citation":"Yu XF, Zhu XY, Yuan CX, Wu DH, Zhao YW, Yang JJ, Wang CD, Wu WW, Liu XY, Liu ZG, Nie ZY, Deng BQ, Bao H, Li LX, Wang CY, Zhang HZ, Zhang JS, Huang JH, Gong F, Wang MZ, Guo YM, Sun Y, Cai DF. Naoxintong Capsule for Secondary Prevention of Ischemic Stroke: A Multicenter, Randomized, and Placebo-Controlled Trial. Chin J Integr Med. 2022 Dec;28(12):1063-1071. doi: 10.1007/s11655-022-3586-8. Epub 2022 Oct 17."}]},"ipdSharingStatementModule":{"ipdSharing":"NO"}},"derivedSection":{"miscInfoModule":{"versionHolder":"2024-02-14"},"conditionBrowseModule":{"meshes":[{"id":"D000020521","term":"Stroke"},{"id":"D000083242","term":"Ischemic Stroke"},{"id":"D000002544","term":"Cerebral Infarction"},{"id":"D000007511","term":"Ischemia"}],"ancestors":[{"id":"D000002561","term":"Cerebrovascular Disorders"},{"id":"D000001927","term":"Brain Diseases"},{"id":"D000002493","term":"Central Nervous System Diseases"},{"id":"D000009422","term":"Nervous System Diseases"},{"id":"D000014652","term":"Vascular Diseases"},{"id":"D000002318","term":"Cardiovascular Diseases"},{"id":"D000010335","term":"Pathologic Processes"},{"id":"D000020520","term":"Brain Infarction"},{"id":"D000002545","term":"Brain Ischemia"},{"id":"D000007238","term":"Infarction"},{"id":"D000009336","term":"Necrosis"}],"browseLeaves":[{"id":"M21996","name":"Stroke","asFound":"Stroke","relevance":"HIGH"},{"id":"M11997","name":"Neoplasm Metastasis","relevance":"LOW"},{"id":"M10233","name":"Ischemia","asFound":"Ischemic","relevance":"HIGH"},{"id":"M2401","name":"Ischemic Stroke","asFound":"Ischemic Stroke","relevance":"HIGH"},{"id":"M16045","name":"Syndrome","relevance":"LOW"},{"id":"M9972","name":"Infarction","relevance":"LOW"},{"id":"M5483","name":"Cerebral Infarction","asFound":"Ischemic Stroke","relevance":"HIGH"},{"id":"M5500","name":"Cerebrovascular Disorders","relevance":"LOW"},{"id":"M4894","name":"Brain Diseases","relevance":"LOW"},{"id":"M5432","name":"Central Nervous System Diseases","relevance":"LOW"},{"id":"M17090","name":"Vascular Diseases","relevance":"LOW"},{"id":"M21995","name":"Brain Infarction","relevance":"LOW"},{"id":"M5484","name":"Brain Ischemia","relevance":"LOW"},{"id":"M11974","name":"Necrosis","relevance":"LOW"}],"browseBranches":[{"abbrev":"BC10","name":"Nervous System Diseases"},{"abbrev":"BC14","name":"Heart and Blood Diseases"},{"abbrev":"All","name":"All Conditions"},{"abbrev":"BC04","name":"Neoplasms"},{"abbrev":"BC23","name":"Symptoms and General Pathology"}]},"interventionBrowseModule":{"browseLeaves":[{"id":"T108","name":"Chinese Salvia","relevance":"LOW"}],"browseBranches":[{"abbrev":"HB","name":"Herbal and Botanical"},{"abbrev":"All","name":"All Drugs and Chemicals"}]}},"hasResults":false}