{"protocolSection":{"identificationModule":{"nctId":"NCT02072681","orgStudyIdInfo":{"id":"20120079"},"organization":{"fullName":"University of Miami","class":"OTHER"},"briefTitle":"Mild and Rapidly Improving Stroke Study","officialTitle":"Mild and Rapidly Improving Stroke Study","acronym":"MaRISS"},"statusModule":{"statusVerifiedDate":"2021-07","overallStatus":"COMPLETED","expandedAccessInfo":{"hasExpandedAccess":false},"startDateStruct":{"date":"2015-03","type":"ACTUAL"},"primaryCompletionDateStruct":{"date":"2020-12-31","type":"ACTUAL"},"completionDateStruct":{"date":"2021-06-30","type":"ACTUAL"},"studyFirstSubmitDate":"2014-01-09","studyFirstSubmitQcDate":"2014-02-24","studyFirstPostDateStruct":{"date":"2014-02-26","type":"ESTIMATED"},"lastUpdateSubmitDate":"2021-07-09","lastUpdatePostDateStruct":{"date":"2021-07-15","type":"ACTUAL"}},"sponsorCollaboratorsModule":{"responsibleParty":{"type":"PRINCIPAL_INVESTIGATOR","investigatorFullName":"Jose Romano, MD","investigatorTitle":"Professor of Clinical Neurology","investigatorAffiliation":"University of Miami"},"leadSponsor":{"name":"University of Miami","class":"OTHER"},"collaborators":[{"name":"American Heart Association","class":"OTHER"},{"name":"Genentech, Inc.","class":"INDUSTRY"}]},"oversightModule":{"oversightHasDmc":false,"isFdaRegulatedDrug":false,"isFdaRegulatedDevice":false},"descriptionModule":{"briefSummary":"The objective of this study is to determine the 90-day outcomes of mild and rapidly improving ischemic stroke."},"conditionsModule":{"conditions":["Ischemic Stroke"]},"designModule":{"studyType":"OBSERVATIONAL","patientRegistry":true,"targetDuration":"3 Months","designInfo":{"observationalModel":"COHORT","timePerspective":"PROSPECTIVE"},"enrollmentInfo":{"count":2175,"type":"ACTUAL"}},"armsInterventionsModule":{"armGroups":[{"label":"Mild and Rapidly Improving Ischemic Stroke","description":"Patients 18 years or older with mild or rapidly improving acute ischemic stroke defined clinically. .Absence of non-ischemic conditions neuro-imaging (i.e. absence of hemorrhage or a mass on brain imaging that arrived to the hospital within 4.5 hours after the onset of stroke symptoms.\n\nAll participants will have two follow up telephone calls: One at approximately 30 days after the stroke and one at approximately 90 days after the stroke to ask questions about how well participant can carry out usual duties after the stroke, how much assistance do he/she needs to perform your daily activities and how good or bad would he/she considers current health to be."}]},"outcomesModule":{"primaryOutcomes":[{"measure":"Proportion of patients not independent at 90 days","description":"The primary outcome measure is proportion of patients with a modified Rankin Scale of 2-6 at 90 days","timeFrame":"90 days"}],"secondaryOutcomes":[{"measure":"Proportion of patients with dependence or disability in activities of daily living at 90 days","description":"Proportion of patients not independent in activities of daily living defined as a Barthel Index score \\<95","timeFrame":"90 days"},{"measure":"Symptomatic intracranial hemorrhage due to Alteplase","description":"Amongst those that receive intravenous Alteplase, a secondary safety measure is the proportion of patients that develop neurologic worsening development of symptomatic intracerebral hemorrhage, defined as neurological deterioration that, in the judgment of the investigator, is related to intracranial hemorrhage confirmed by CT or MRI, within 36 hours of administration of Alteplase.","timeFrame":"36 hours"},{"measure":"Proportion of patients not independent at 30 days","description":"Proportion of patients with modified Rankin Scale 2-6 at 30 days.","timeFrame":"30 days"},{"measure":"Quality of life by the EuroQOL EQ-5D","description":"EuroQOL will be treated as a continuous measure","timeFrame":"90 days"},{"measure":"Stroke disability by the Stroke-Impact Scale-16","description":"SIS-16 will be treated as a continuous measure","timeFrame":"90 days"},{"measure":"Independence with Activities of Daily Living by the Barthel Index","description":"BI will be treated as a continuous measure; pre specified analysis include proportion of patients with Barthel Index \\<95","timeFrame":"90 days"}]},"eligibilityModule":{"eligibilityCriteria":"Inclusion Criteria:\n\n* Mild or spontaneously rapidly improving ischemic stroke confirmed by neuroimaging\n* Arrival to hospital within 4.5 hours of symptom onset\n* Willing to provide consent\n* Available for a telephone interview at 30 and 90 days\n\nExclusion Criteria:\n\n* Onset \\>4.5 hours\n* Unable to provide informed consent (patient or legally appointed representative\n* Premorbid modified Rankin Scale \\>1\n* Unavailable by telephone for follow-up","healthyVolunteers":false,"sex":"ALL","minimumAge":"18 Years","stdAges":["ADULT","OLDER_ADULT"],"studyPopulation":"Patients with ischemic stroke defined clinically as mild and/or spontaneously rapidly improving and confirmed by neuroimaging not to have a hemorrhagic stroke with symptom onset within 4.5 hours.","samplingMethod":"NON_PROBABILITY_SAMPLE"},"contactsLocationsModule":{"overallOfficials":[{"name":"Jose G Romano, MD","affiliation":"University of Miami","role":"PRINCIPAL_INVESTIGATOR"}],"locations":[{"facility":"Chandler Regional Medical Center","city":"Chandler","state":"Arizona","zip":"85224","country":"United States","geoPoint":{"lat":33.30616,"lon":-111.84125}},{"facility":"HonorHealth","city":"Scottsdale","state":"Arizona","zip":"85258","country":"United States","geoPoint":{"lat":33.50921,"lon":-111.89903}},{"facility":"Long Beach Memorial Medical Center","city":"Long Beach","state":"California","zip":"90806","country":"United States","geoPoint":{"lat":33.76696,"lon":-118.18923}},{"facility":"Good Samaritan Hospital","city":"Los Angeles","state":"California","zip":"90017","country":"United States","geoPoint":{"lat":34.05223,"lon":-118.24368}},{"facility":"Kaiser Permanente South California","city":"Los Angeles","state":"California","zip":"90027","country":"United States","geoPoint":{"lat":34.05223,"lon":-118.24368}},{"facility":"Providence Holy Cross Medical Center","city":"Mission Hills","state":"California","zip":"91345","country":"United States","geoPoint":{"lat":34.68952,"lon":-120.4356}},{"facility":"Riverside University Health System Medical Center","city":"Moreno Valley","state":"California","zip":"92555","country":"United States","geoPoint":{"lat":33.93752,"lon":-117.23059}},{"facility":"Southern California Permanente Medical Group / Downey","city":"Pasadena","state":"California","zip":"91101","country":"United States","geoPoint":{"lat":34.14778,"lon":-118.14452}},{"facility":"Pomona Valley Hospital Medical Center","city":"Pomona","state":"California","zip":"91767","country":"United States","geoPoint":{"lat":34.05529,"lon":-117.75228}},{"facility":"Kaiser Permanente Northern California (Sacramento)","city":"Sacramento","state":"California","zip":"95825","country":"United States","geoPoint":{"lat":38.58157,"lon":-121.4944}},{"facility":"Orange County Global Medical Center","city":"Santa Ana","state":"California","zip":"92705","country":"United States","geoPoint":{"lat":33.74557,"lon":-117.86783}},{"facility":"Memorial Hospital Central","city":"Colorado Springs","state":"Colorado","zip":"80909","country":"United States","geoPoint":{"lat":38.83388,"lon":-104.82136}},{"facility":"The Hospital of Central Connecticut","city":"New Britain","state":"Connecticut","zip":"06050","country":"United States","geoPoint":{"lat":41.66121,"lon":-72.77954}},{"facility":"Shands Hospital- University of Florida","city":"Gainesville","state":"Florida","zip":"32608","country":"United States","geoPoint":{"lat":29.65163,"lon":-82.32483}},{"facility":"Osceola Regional Medical Center","city":"Kissimmee","state":"Florida","zip":"34741","country":"United States","geoPoint":{"lat":28.30468,"lon":-81.41667}},{"facility":"Jackson Memorial Hospital","city":"Miami","state":"Florida","zip":"33136","country":"United States","geoPoint":{"lat":25.77427,"lon":-80.19366}},{"facility":"Florida Hospital","city":"Orlando","state":"Florida","zip":"32804","country":"United States","geoPoint":{"lat":28.53834,"lon":-81.37924}},{"facility":"Sacred Heart Hospital","city":"Pensacola","state":"Florida","zip":"32504","country":"United States","geoPoint":{"lat":30.42131,"lon":-87.21691}},{"facility":"Morton Plant Mease Healthcare","city":"Tampa","state":"Florida","zip":"33607","country":"United States","geoPoint":{"lat":27.94752,"lon":-82.45843}},{"facility":"Medical Center, Navicent Health","city":"Macon","state":"Georgia","zip":"31201","country":"United States","geoPoint":{"lat":32.84069,"lon":-83.6324}},{"facility":"WellStar Health System-Kennestone Hospital","city":"Marietta","state":"Georgia","zip":"30062","country":"United States","geoPoint":{"lat":33.9526,"lon":-84.54993}},{"facility":"The Queen's Medical Center","city":"Honolulu","state":"Hawaii","zip":"96813","country":"United States","geoPoint":{"lat":21.30694,"lon":-157.85833}},{"facility":"Alexian Brothers","city":"Arlington Heights","state":"Illinois","zip":"60005","country":"United States","geoPoint":{"lat":42.08836,"lon":-87.98063}},{"facility":"Memorial Medical Center","city":"Springfield","state":"Illinois","zip":"62781","country":"United States","geoPoint":{"lat":39.80172,"lon":-89.64371}},{"facility":"Central DuPage Hospital Association","city":"Winfield","state":"Illinois","zip":"60190","country":"United States","geoPoint":{"lat":41.8617,"lon":-88.1609}},{"facility":"Lutheran Hospital","city":"Fort Wayne","state":"Indiana","zip":"46804","country":"United States","geoPoint":{"lat":41.1306,"lon":-85.12886}},{"facility":"Parkview Research Center","city":"Fort Wayne","state":"Indiana","zip":"46845","country":"United States","geoPoint":{"lat":41.1306,"lon":-85.12886}},{"facility":"Methodist Hospitals","city":"Gary","state":"Indiana","zip":"46402","country":"United States","geoPoint":{"lat":41.59337,"lon":-87.34643}},{"facility":"St. Vincent Hospital Indianapolis","city":"Indianapolis","state":"Indiana","zip":"46260","country":"United States","geoPoint":{"lat":39.76838,"lon":-86.15804}},{"facility":"Wesley Medical Center","city":"Wichita","state":"Kansas","zip":"67214","country":"United States","geoPoint":{"lat":37.69224,"lon":-97.33754}},{"facility":"King's Daughters Medical Center","city":"Ashland","state":"Kentucky","zip":"41101","country":"United States","geoPoint":{"lat":38.47841,"lon":-82.63794}},{"facility":"Baptist Health Lexington","city":"Lexington","state":"Kentucky","zip":"40503","country":"United States","geoPoint":{"lat":37.98869,"lon":-84.47772}},{"facility":"University of Louisville","city":"Louisville","state":"Kentucky","zip":"40202","country":"United States","geoPoint":{"lat":38.25424,"lon":-85.75941}},{"facility":"Norton HealthCare","city":"Louisville","state":"Kentucky","zip":"40241","country":"United States","geoPoint":{"lat":38.25424,"lon":-85.75941}},{"facility":"Ochsner Medical Center","city":"New Orleans","state":"Louisiana","zip":"70121","country":"United States","geoPoint":{"lat":29.95465,"lon":-90.07507}},{"facility":"Eastern Maine Medical Center","city":"Bangor","state":"Maine","zip":"04401","country":"United States","geoPoint":{"lat":44.80118,"lon":-68.77781}},{"facility":"Boston Medical Center","city":"Boston","state":"Massachusetts","zip":"02118","country":"United States","geoPoint":{"lat":42.35843,"lon":-71.05977}},{"facility":"Berkshire Medical Center","city":"Pittsfield","state":"Massachusetts","zip":"01201","country":"United States","geoPoint":{"lat":42.45008,"lon":-73.24538}},{"facility":"Henry Ford Health System","city":"Detroit","state":"Michigan","zip":"48202","country":"United States","geoPoint":{"lat":42.33143,"lon":-83.04575}},{"facility":"Ascencion-St. John Providence","city":"Detroit","state":"Michigan","zip":"48236","country":"United States","geoPoint":{"lat":42.33143,"lon":-83.04575}},{"facility":"Spectrum Health","city":"Grand Rapids","state":"Michigan","zip":"49503","country":"United States","geoPoint":{"lat":42.96336,"lon":-85.66809}},{"facility":"Ascension-Borgess","city":"Kalamazoo","state":"Michigan","zip":"49048","country":"United States","geoPoint":{"lat":42.29171,"lon":-85.58723}},{"facility":"Mississippi Baptist Medical Center","city":"Jackson","state":"Mississippi","zip":"39202","country":"United States","geoPoint":{"lat":32.29876,"lon":-90.18481}},{"facility":"University of Mississippi Medical Center","city":"Jackson","state":"Mississippi","zip":"39216","country":"United States","geoPoint":{"lat":32.29876,"lon":-90.18481}},{"facility":"St. Luke's Neuroscience Institute","city":"Kansas City","state":"Missouri","zip":"64111","country":"United States","geoPoint":{"lat":39.09973,"lon":-94.57857}},{"facility":"SSM Health Care St. Louis","city":"Saint Louis","state":"Missouri","zip":"63044","country":"United States","geoPoint":{"lat":38.62727,"lon":-90.19789}},{"facility":"St. Anthony's Medical Center","city":"Saint Louis","state":"Missouri","zip":"63128","country":"United States","geoPoint":{"lat":38.62727,"lon":-90.19789}},{"facility":"Mercy Hospital St. Louis","city":"Saint Louis","state":"Missouri","zip":"63141","country":"United States","geoPoint":{"lat":38.62727,"lon":-90.19789}},{"facility":"Cox Medical Centers","city":"Springfield","state":"Missouri","zip":"65807","country":"United States","geoPoint":{"lat":37.21533,"lon":-93.29824}},{"facility":"Ocean Medical Center","city":"Brick","state":"New Jersey","zip":"08724","country":"United States","geoPoint":{"lat":40.05928,"lon":-74.13708}},{"facility":"Hackensack Meridian Health/Jersey Shore University Medical Center","city":"Neptune","state":"New Jersey","zip":"07753","country":"United States","geoPoint":{"lat":40.20011,"lon":-74.02792}},{"facility":"St. Joseph's Regional Medical Center","city":"Paterson","state":"New Jersey","zip":"07503","country":"United States","geoPoint":{"lat":40.91677,"lon":-74.17181}},{"facility":"The Valley Hospital","city":"Ridgewood","state":"New Jersey","zip":"07450","country":"United States","geoPoint":{"lat":40.97926,"lon":-74.11653}},{"facility":"Saint Peter's Hospital","city":"Albany","state":"New York","zip":"12208","country":"United States","geoPoint":{"lat":42.65258,"lon":-73.75623}},{"facility":"Albert Einstein College of Medicine-Montefiore Medical Center","city":"Bronx","state":"New York","zip":"10467","country":"United States","geoPoint":{"lat":40.84985,"lon":-73.86641}},{"facility":"SUNY Downstate Medical Center","city":"Brooklyn","state":"New York","zip":"11203","country":"United States","geoPoint":{"lat":40.6501,"lon":-73.94958}},{"facility":"New York Methodist Hospital","city":"Brooklyn","state":"New York","zip":"11215","country":"United States","geoPoint":{"lat":40.6501,"lon":-73.94958}},{"facility":"Mercy Hospital of Buffalo","city":"Buffalo","state":"New York","zip":"10220","country":"United States","geoPoint":{"lat":42.88645,"lon":-78.87837}},{"facility":"Rochester General Hospital","city":"Rochester","state":"New York","zip":"14621","country":"United States","geoPoint":{"lat":43.15478,"lon":-77.61556}},{"facility":"Univ of Rochester - Strong Memorial Hospital","city":"Rochester","state":"New York","zip":"14627","country":"United States","geoPoint":{"lat":43.15478,"lon":-77.61556}},{"facility":"Crouse Hospital","city":"Syracuse","state":"New York","zip":"13210","country":"United States","geoPoint":{"lat":43.04812,"lon":-76.14742}},{"facility":"Faxton St. Luke's Healthcare","city":"Utica","state":"New York","zip":"13502","country":"United States","geoPoint":{"lat":43.1009,"lon":-75.23266}},{"facility":"Carolinas HealthCare System","city":"Charlotte","state":"North Carolina","zip":"28203","country":"United States","geoPoint":{"lat":35.22709,"lon":-80.84313}},{"facility":"Carolina Healthcare Blue Ridge","city":"Morganton","state":"North Carolina","zip":"28655","country":"United States","geoPoint":{"lat":35.74541,"lon":-81.68482}},{"facility":"Novant Forsyth Medical Center","city":"Winston-Salem","state":"North Carolina","zip":"27103","country":"United States","geoPoint":{"lat":36.09986,"lon":-80.24422}},{"facility":"Wake Forest University Health Sciences","city":"Winston-Salem","state":"North Carolina","zip":"27157","country":"United States","geoPoint":{"lat":36.09986,"lon":-80.24422}},{"facility":"University of Cincinnati Medical Center","city":"Cincinnati","state":"Ohio","zip":"45229","country":"United States","geoPoint":{"lat":39.12713,"lon":-84.51435}},{"facility":"MetroHealth Medical Center","city":"Cleveland","state":"Ohio","zip":"44109","country":"United States","geoPoint":{"lat":41.4995,"lon":-81.69541}},{"facility":"Ohio State University Wexner Medical Center","city":"Columbus","state":"Ohio","zip":"43202","country":"United States","geoPoint":{"lat":39.96118,"lon":-82.99879}},{"facility":"INTEGRIS Baptist Medical Center","city":"Oklahoma City","state":"Oklahoma","zip":"73112","country":"United States","geoPoint":{"lat":35.46756,"lon":-97.51643}},{"facility":"Mercy Hospital","city":"Oklahoma City","state":"Oklahoma","zip":"73120","country":"United States","geoPoint":{"lat":35.46756,"lon":-97.51643}},{"facility":"Saint Francis Hospital","city":"Tulsa","state":"Oklahoma","zip":"74136","country":"United States","geoPoint":{"lat":36.15398,"lon":-95.99277}},{"facility":"Kaiser Permanente Northwest Sunnyside Medical Center","city":"Clackamas","state":"Oregon","zip":"97015","country":"United States","geoPoint":{"lat":45.40762,"lon":-122.57037}},{"facility":"Providence St. Vincent","city":"Portland","state":"Oregon","zip":"97225","country":"United States","geoPoint":{"lat":45.52345,"lon":-122.67621}},{"facility":"Legacy Emanuel Medical Center","city":"Portland","state":"Oregon","zip":"97227","country":"United States","geoPoint":{"lat":45.52345,"lon":-122.67621}},{"facility":"UPMC Altoona","city":"Altoona","state":"Pennsylvania","zip":"16601","country":"United States","geoPoint":{"lat":40.51868,"lon":-78.39474}},{"facility":"Saint Vincent Hospital","city":"Erie","state":"Pennsylvania","zip":"16544","country":"United States","geoPoint":{"lat":42.12922,"lon":-80.08506}},{"facility":"UPMC Hamot","city":"Erie","state":"Pennsylvania","zip":"16550","country":"United States","geoPoint":{"lat":42.12922,"lon":-80.08506}},{"facility":"Pennsylvania State University / The Milton S. Hershey Medical Center","city":"Hershey","state":"Pennsylvania","zip":"17033","country":"United States","geoPoint":{"lat":40.28592,"lon":-76.65025}},{"facility":"Conemaugh Memorial Medical Center","city":"Johnstown","state":"Pennsylvania","zip":"15905","country":"United States","geoPoint":{"lat":40.32674,"lon":-78.92197}},{"facility":"Rhode Island Hospital","city":"Providence","state":"Rhode Island","zip":"02903","country":"United States","geoPoint":{"lat":41.82399,"lon":-71.41283}},{"facility":"Greenville Memorial Hospital","city":"Greenville","state":"South Carolina","zip":"29605","country":"United States","geoPoint":{"lat":34.85262,"lon":-82.39401}},{"facility":"Seton Medical Center-Brackenridge","city":"Austin","state":"Texas","zip":"78705","country":"United States","geoPoint":{"lat":30.26715,"lon":-97.74306}},{"facility":"Seton Medical Center","city":"Austin","state":"Texas","zip":"78705","country":"United States","geoPoint":{"lat":30.26715,"lon":-97.74306}},{"facility":"St. David's Medical Center/Neuro Texas Institute","city":"Austin","state":"Texas","zip":"78705","country":"United States","geoPoint":{"lat":30.26715,"lon":-97.74306}},{"facility":"JPS Health Network","city":"Fort Worth","state":"Texas","zip":"76104","country":"United States","geoPoint":{"lat":32.72541,"lon":-97.32085}},{"facility":"Houston Methodist Hospital","city":"Houston","state":"Texas","zip":"77030","country":"United States","geoPoint":{"lat":29.76328,"lon":-95.36327}},{"facility":"Scott & White Memorial Hospital","city":"Temple","state":"Texas","zip":"76508","country":"United States","geoPoint":{"lat":31.09823,"lon":-97.34278}},{"facility":"Clear Lake Regional Medical Center","city":"Webster","state":"Texas","zip":"77598","country":"United States","geoPoint":{"lat":29.53773,"lon":-95.11826}},{"facility":"Intermountain Medical Center Neuroscience Institute","city":"Murray","state":"Utah","zip":"84107","country":"United States","geoPoint":{"lat":40.66689,"lon":-111.88799}},{"facility":"University of Vermont","city":"Burlington","state":"Vermont","zip":"05401","country":"United States","geoPoint":{"lat":44.47588,"lon":-73.21207}},{"facility":"Bon Secours Hampton Roads","city":"Norfolk","state":"Virginia","zip":"23505","country":"United States","geoPoint":{"lat":36.84681,"lon":-76.28522}},{"facility":"Overlake Hospital Medical Center","city":"Bellevue","state":"Washington","zip":"98004","country":"United States","geoPoint":{"lat":47.61038,"lon":-122.20068}},{"facility":"West Virginia University","city":"Morgantown","state":"West Virginia","zip":"26505","country":"United States","geoPoint":{"lat":39.62953,"lon":-79.9559}},{"facility":"Aurora BayCare Medical Center","city":"Milwaukee","state":"Wisconsin","zip":"53233","country":"United States","geoPoint":{"lat":43.0389,"lon":-87.90647}},{"facility":"Aurora Medical Center Grafton","city":"Milwaukee","state":"Wisconsin","zip":"53233","country":"United States","geoPoint":{"lat":43.0389,"lon":-87.90647}},{"facility":"Aurora St. Luke's Medical Center","city":"Milwaukee","state":"Wisconsin","zip":"53233","country":"United States","geoPoint":{"lat":43.0389,"lon":-87.90647}}]},"referencesModule":{"references":[{"pmid":"31496438","type":"BACKGROUND","citation":"Romano JG, Gardener H, Campo-Bustillo I, Khan Y, Riley N, Tai S, Sacco RL, Khatri P, Smith EE, Schwamm LH. The Mild and Rapidly Improving Stroke Study (MaRISS): Rationale and design. Int J Stroke. 2019 Dec;14(9):983-986. doi: 10.1177/1747493019873595. Epub 2019 Sep 7."},{"pmid":"25642650","type":"BACKGROUND","citation":"Romano JG, Smith EE, Liang L, Gardener H, Camp S, Shuey L, Cook A, Campo-Bustillo I, Khatri P, Bhatt DL, Fonarow GC, Sacco RL, Schwamm LH. Outcomes in mild acute ischemic stroke treated with intravenous thrombolysis: a retrospective analysis of the Get With the Guidelines-Stroke registry. JAMA Neurol. 2015 Apr;72(4):423-31. doi: 10.1001/jamaneurol.2014.4354."},{"pmid":"26987870","type":"BACKGROUND","citation":"Romano JG, Smith EE, Liang L, Gardener H, Campo-Bustillo I, Khatri P, Bhatt DL, Fonarow GC, Sacco RL, Schwamm LH. Distinct Short-Term Outcomes in Patients With Mild Versus Rapidly Improving Stroke Not Treated With Thrombolytics. Stroke. 2016 May;47(5):1278-85. doi: 10.1161/STROKEAHA.115.011528. Epub 2016 Mar 17."},{"pmid":"33947209","type":"RESULT","citation":"Romano JG, Gardener H, Campo-Bustillo I, Khan Y, Tai S, Riley N, Smith EE, Sacco RL, Khatri P, Alger HM, Mac Grory B, Gulati D, Sangha NS, Craig JM, Olds KE, Benesch CG, Kelly AG, Brehaut SS, Kansara AC, Schwamm LH; MaRISS Investigators*. Predictors of Outcomes in Patients With Mild Ischemic Stroke Symptoms: MaRISS. Stroke. 2021 Jun;52(6):1995-2004. doi: 10.1161/STROKEAHA.120.032809. Epub 2021 May 5."},{"pmid":"35474180","type":"DERIVED","citation":"Gardener H, Romano LA, Smith EE, Campo-Bustillo I, Khan Y, Tai S, Riley N, Sacco RL, Khatri P, Alger HM, Mac Grory B, Gulati D, Sangha NS, Olds KE, Benesch CG, Kelly AG, Brehaut SS, Kansara AC, Schwamm LH, Romano JG. Functional status at 30 and 90 days after mild ischaemic stroke. Stroke Vasc Neurol. 2022 Apr 26;7(5):375-80. doi: 10.1136/svn-2021-001333. Online ahead of print."},{"pmid":"34645285","type":"DERIVED","citation":"Romano JG, Gardener H, Smith EE, Campo-Bustillo I, Khan Y, Tai S, Riley N, Sacco RL, Khatri P, Alger HM, Mac Grory B, Gulati D, Sangha NS, Olds KE, Benesch CG, Kelly AG, Brehaut SS, Kansara AC, Schwamm LH; MaRISS Investigators*. Frequency and Prognostic Significance of Clinical Fluctuations Before Hospital Arrival in Stroke. Stroke. 2022 Feb;53(2):482-487. doi: 10.1161/STROKEAHA.121.034124. Epub 2021 Oct 14."}]},"ipdSharingStatementModule":{"ipdSharing":"NO"}},"derivedSection":{"miscInfoModule":{"versionHolder":"2024-02-14"},"conditionBrowseModule":{"meshes":[{"id":"D000020521","term":"Stroke"},{"id":"D000083242","term":"Ischemic Stroke"}],"ancestors":[{"id":"D000002561","term":"Cerebrovascular Disorders"},{"id":"D000001927","term":"Brain Diseases"},{"id":"D000002493","term":"Central Nervous System Diseases"},{"id":"D000009422","term":"Nervous System Diseases"},{"id":"D000014652","term":"Vascular Diseases"},{"id":"D000002318","term":"Cardiovascular Diseases"}],"browseLeaves":[{"id":"M21996","name":"Stroke","asFound":"Stroke","relevance":"HIGH"},{"id":"M10233","name":"Ischemia","relevance":"LOW"},{"id":"M2401","name":"Ischemic Stroke","asFound":"Ischemic Stroke","relevance":"HIGH"},{"id":"M5500","name":"Cerebrovascular Disorders","relevance":"LOW"},{"id":"M4894","name":"Brain Diseases","relevance":"LOW"},{"id":"M5432","name":"Central Nervous System Diseases","relevance":"LOW"},{"id":"M17090","name":"Vascular Diseases","relevance":"LOW"}],"browseBranches":[{"abbrev":"BC10","name":"Nervous System Diseases"},{"abbrev":"BC14","name":"Heart and Blood Diseases"},{"abbrev":"All","name":"All Conditions"},{"abbrev":"BC23","name":"Symptoms and General Pathology"}]}},"hasResults":false}