{"protocolSection":{"identificationModule":{"nctId":"NCT02600364","orgStudyIdInfo":{"id":"DP64/BO1507"},"organization":{"fullName":"Phenox GmbH","class":"INDUSTRY"},"briefTitle":"Diversion-p64 Post Market Clinical Follow-Up Study to Assess Safety and Effectiveness of the p64 Flow Modulation Device","officialTitle":"Prospective, Multicenter, Single Arm Post Market Clinical Follow-Up Study to Assess Safety and Effectiveness of the p64 Flow Modulation Device"},"statusModule":{"statusVerifiedDate":"2020-11","overallStatus":"COMPLETED","expandedAccessInfo":{"hasExpandedAccess":false},"startDateStruct":{"date":"2015-12","type":"ACTUAL"},"primaryCompletionDateStruct":{"date":"2020-06","type":"ACTUAL"},"completionDateStruct":{"date":"2020-06","type":"ACTUAL"},"studyFirstSubmitDate":"2015-11-04","studyFirstSubmitQcDate":"2015-11-06","studyFirstPostDateStruct":{"date":"2015-11-09","type":"ESTIMATED"},"lastUpdateSubmitDate":"2020-11-19","lastUpdatePostDateStruct":{"date":"2020-11-20","type":"ACTUAL"}},"sponsorCollaboratorsModule":{"responsibleParty":{"type":"SPONSOR"},"leadSponsor":{"name":"Phenox GmbH","class":"INDUSTRY"}},"oversightModule":{"oversightHasDmc":true,"isFdaRegulatedDrug":false,"isFdaRegulatedDevice":false},"descriptionModule":{"briefSummary":"The purpose of this study is to assess safety and effectiveness of the p64 Flow Modulation Device.","detailedDescription":"Title: Diversion-p64. Device: p64 Flow Modulation Device. Study design: Prospective, multicenter, single arm Post Market Clinical Follow-Up Study.\n\nPurpose: To assess safety and effectiveness of p64. Study duration: 48 months. Sample Size: 400 patients. Number of sites: \\> 20. Follow-up intervals: Two independent follow-ups (after 3-6 and 7-12 months) according to site specific standard."},"conditionsModule":{"conditions":["Intracranial Aneurysm"],"keywords":["Aneurysm","intracerebral","stroke","p64"]},"designModule":{"studyType":"OBSERVATIONAL","patientRegistry":false,"designInfo":{"observationalModel":"COHORT","timePerspective":"PROSPECTIVE"},"enrollmentInfo":{"count":450,"type":"ACTUAL"}},"outcomesModule":{"primaryOutcomes":[{"measure":"Change in the rate of complete occlusion","description":"Rate of complete aneurysm occlusion is assessed immediately after treatment (an expected average of 1 hour) and at both follow-up visits (3-6 months and 7-12 months). The change is assesed.","timeFrame":"immediately after treatment, an expected average of 1 hour; to 12 months"},{"measure":"Change of frequency of major stroke (ischemic or hemorrhagic) or neurological death related to the treatment of the target aneurysm","description":"Frequency of major stroke (ischemic or hemorrhagic) or neurological death is assessed immediately after treatment (an expected average of 1 hour) and at both follow-up visits (3-6 months and 7-12 months). The change is assesed.","timeFrame":"immediately after treatment, an expected average of 1 hour; to 12 months"}],"secondaryOutcomes":[{"measure":"Intra-procedural technical complications","description":"p64 placed in the desired location Correct opening of p64 (markers fully deployed) at the end of the procedure Ability to detach p64 at the end of the procedure","timeFrame":"during treatment, an expected average of 1 hour"},{"measure":"Change of Angiographic results","description":"Change in both Rate of re-growth (related rate of re-treatment) and Rate of recanalization (related rate of re-treatment) are assessed immediately after treatment (an expected average of 1 hour) and at both follow-up visits (3-6 months and 7-12 months).","timeFrame":"immediately after treatment, an expected average of 1 hour; to 12 months"},{"measure":"Intra-procedural vascular complications","description":"Vessel perforation (e.g. with distal wire tip of p64, microcatheter) Target aneurysm perforation (e.g. with distal wire tip of p64, microcatheter) Thromboembolism Dissection of any access vessel Side branch occlusion","timeFrame":"during treatment, an expected average of 1 hour"},{"measure":"Post-procedural Complications","description":"Parenchymal hemorrhage detected during the follow-up period Subarachnoid hemorrhage detected during the follow-up period Ischemic stroke detected on follow-up imaging Rupture of the target aneurysm detected during the follow-up period Rate of in-stent-stenosis detected during the follow-up period","timeFrame":"3-6 and 7-12 months"}]},"eligibilityModule":{"eligibilityCriteria":"Inclusion Criteria\n\n1. Age ≥ 18\n2. Patient harbours either one saccular or one dissecting or one blisterlike or one fusiform intracerebral aneurysm or one intracerebral segmental disease, in the anterior circulation for which the indication for p64 treatment is given\n3. Patient or legal representative provides written informed consent verifying that he/she consents to the use of his/her data (according to the data protection laws)\n\nExclusion Criteria\n\n1. Aneurysms of the posterior circulation\n2. Imaging evidence of bifurcation aneurysms\n3. Imaging evidence of dissections\n4. Imaging evidence of fistulae\n5. Imaging evidence of arteriovenous malformations\n6. Patient is harbouring another aneurysm that has to be treated within six months after first procedure\n7. Known allergy to study medication, e.g. ASA, Clopidogrel, Heparin or contrast media\n8. Confirmation of positive pregnancy test according to site specific standard of care (e.g. test, verbal communication)\n9. Current involvement in another study or trial\n10. Parent vessel treated with other Flow Diverters than p64 during intervention and re-treatment","healthyVolunteers":false,"sex":"ALL","minimumAge":"18 Years","stdAges":["ADULT","OLDER_ADULT"],"studyPopulation":"The target population for this non-interventional study are patients with ruptured or unruptured aneurysms and segmental diseases in the anterior circulation. Patients can be included in the study if they meet all of the inclusion and none of the exclusion criteria and have provided written informed consent.","samplingMethod":"NON_PROBABILITY_SAMPLE"},"contactsLocationsModule":{"overallOfficials":[{"name":"Alain Bonafé, Prof. Dr.","affiliation":"Hôpital Gui de Chauliac (CHU de Montpellier), Montpellier, France","role":"PRINCIPAL_INVESTIGATOR"}],"locations":[{"facility":"Clínica La Sagrada Familia","city":"Buenos Aires","zip":"1642","country":"Argentina","geoPoint":{"lat":-34.61315,"lon":-58.37723}},{"facility":"Ziekenhuis Oost-Limburg","city":"Genk","zip":"3600","country":"Belgium","geoPoint":{"lat":50.965,"lon":5.50082}},{"facility":"St. Ivan Rilski Hospital","city":"Sofia","zip":"1431","country":"Bulgaria","geoPoint":{"lat":42.69751,"lon":23.32415}},{"facility":"Groupe Hospitalier Pellegrin","city":"Bordeaux","zip":"33000","country":"France","geoPoint":{"lat":44.84044,"lon":-0.5805}},{"facility":"Hôpital Pierre Wertheimer","city":"Bron","zip":"69500","country":"France","geoPoint":{"lat":45.73333,"lon":4.91667}},{"facility":"Hôpital Bicêtre","city":"Le Kremlin-Bicêtre Cedex","zip":"94275","country":"France","geoPoint":{"lat":48.81471,"lon":2.36073}},{"facility":"Hôpital Gui de Chauliac (CHU Montpellier)","city":"Montpellier","zip":"34295","country":"France","geoPoint":{"lat":43.61092,"lon":3.87723}},{"facility":"Hôpital Pitié Salpétrière","city":"Paris","country":"France","geoPoint":{"lat":48.85341,"lon":2.3488}},{"facility":"CHRU Hôpital Maison-Blanche","city":"Reims","country":"France","geoPoint":{"lat":49.25,"lon":4.03333}},{"facility":"Hôpital Bretonneau (CHRU de Tours)","city":"Tours cedex 9","zip":"37044","country":"France","geoPoint":{"lat":47.38333,"lon":0.68333}},{"facility":"Klinikum Augsburg","city":"Augsburg","zip":"86156","country":"Germany","geoPoint":{"lat":48.37154,"lon":10.89851}},{"facility":"Klinikum Bremen-Mitte","city":"Bremen","zip":"28205","country":"Germany","geoPoint":{"lat":53.07516,"lon":8.80777}},{"facility":"HELIOS Klinikum Erfurt","city":"Erfurt","country":"Germany","geoPoint":{"lat":50.9787,"lon":11.03283}},{"facility":"Knappschaftskrankenhaus Recklinghausen","city":"Recklinghausen","zip":"45657","country":"Germany","geoPoint":{"lat":51.61379,"lon":7.19738}},{"facility":"Universitätsklinikum Regensburg","city":"Regensburg","zip":"93053","country":"Germany","geoPoint":{"lat":49.01513,"lon":12.10161}},{"facility":"Klinikum Stuttgart Katharinenhospital","city":"Stuttgart","zip":"70174","country":"Germany","geoPoint":{"lat":48.78232,"lon":9.17702}},{"facility":"Ospedale Bellaria Carlo Alberto Pizzardi","city":"Bologna","country":"Italy","geoPoint":{"lat":44.49381,"lon":11.33875}},{"facility":"IRCCS Istituto Clinico Humanitas","city":"Rozzano","zip":"20089","country":"Italy","geoPoint":{"lat":45.38193,"lon":9.1559}},{"facility":"Regionalny Szpital Specjalistyczny","city":"Grudziądz","zip":"86-300","country":"Poland","geoPoint":{"lat":53.48411,"lon":18.75366}},{"facility":"Uniwersytecki Szpital Kliniczny we Wroclawiu","city":"Wrocław","zip":"50-556","country":"Poland","geoPoint":{"lat":51.1,"lon":17.03333}},{"facility":"Life Memorial Hospital","city":"Bucharest","zip":"010718","country":"Romania","geoPoint":{"lat":44.43225,"lon":26.10626}},{"facility":"NSI Burdenko, Moscow","city":"Moscow","country":"Russian Federation","geoPoint":{"lat":55.75222,"lon":37.61556}},{"facility":"Federal Almazov North-West Medical Research Centre","city":"Saint Petersburg","country":"Russian Federation","geoPoint":{"lat":59.93863,"lon":30.31413}},{"facility":"Western General Hospital","city":"Edinburgh","zip":"EH4 2XU","country":"United Kingdom","geoPoint":{"lat":55.95206,"lon":-3.19648}},{"facility":"Leeds Teaching Hospitals NHS TRUST","city":"Leeds","zip":"LS1 3EX","country":"United Kingdom","geoPoint":{"lat":53.79648,"lon":-1.54785}},{"facility":"St George's Hospital","city":"London","zip":"SW17 0QT","country":"United Kingdom","geoPoint":{"lat":51.50853,"lon":-0.12574}}]},"referencesModule":{"seeAlsoLinks":[{"label":"www.phenox.net","url":"http://phenox.net/"}]}},"derivedSection":{"miscInfoModule":{"versionHolder":"2024-02-14","removedCountries":["Hungary","Slovakia","Spain"]},"conditionBrowseModule":{"meshes":[{"id":"D000002532","term":"Intracranial Aneurysm"},{"id":"D000000783","term":"Aneurysm"}],"ancestors":[{"id":"D000014652","term":"Vascular Diseases"},{"id":"D000002318","term":"Cardiovascular Diseases"},{"id":"D000020765","term":"Intracranial Arterial Diseases"},{"id":"D000002561","term":"Cerebrovascular Disorders"},{"id":"D000001927","term":"Brain Diseases"},{"id":"D000002493","term":"Central Nervous System Diseases"},{"id":"D000009422","term":"Nervous System Diseases"}],"browseLeaves":[{"id":"M21996","name":"Stroke","relevance":"LOW"},{"id":"M3803","name":"Aneurysm","asFound":"Aneurysm","relevance":"HIGH"},{"id":"M5471","name":"Intracranial Aneurysm","asFound":"Intracranial Aneurysm","relevance":"HIGH"},{"id":"M17090","name":"Vascular Diseases","relevance":"LOW"},{"id":"M22211","name":"Intracranial Arterial Diseases","relevance":"LOW"},{"id":"M5500","name":"Cerebrovascular Disorders","relevance":"LOW"},{"id":"M4894","name":"Brain Diseases","relevance":"LOW"},{"id":"M5432","name":"Central Nervous System Diseases","relevance":"LOW"}],"browseBranches":[{"abbrev":"BC10","name":"Nervous System Diseases"},{"abbrev":"BC14","name":"Heart and Blood Diseases"},{"abbrev":"All","name":"All Conditions"}]}},"hasResults":false}