{"protocolSection":{"identificationModule":{"nctId":"NCT03309332","orgStudyIdInfo":{"id":"SJM-CIP-10187"},"organization":{"fullName":"Abbott Medical Devices","class":"INDUSTRY"},"briefTitle":"AMPLATZER PFO Occluder Post Approval Study","officialTitle":"OSB Lead-AMPLATZER PFO Occluder New Enrollment PAS","acronym":"PFO PAS"},"statusModule":{"statusVerifiedDate":"2023-10","overallStatus":"RECRUITING","expandedAccessInfo":{"hasExpandedAccess":false},"startDateStruct":{"date":"2018-01-31","type":"ACTUAL"},"primaryCompletionDateStruct":{"date":"2024-10-31","type":"ESTIMATED"},"completionDateStruct":{"date":"2030-04-30","type":"ESTIMATED"},"studyFirstSubmitDate":"2017-10-10","studyFirstSubmitQcDate":"2017-10-12","studyFirstPostDateStruct":{"date":"2017-10-13","type":"ACTUAL"},"lastUpdateSubmitDate":"2023-10-19","lastUpdatePostDateStruct":{"date":"2023-10-23","type":"ACTUAL"}},"sponsorCollaboratorsModule":{"responsibleParty":{"type":"SPONSOR"},"leadSponsor":{"name":"Abbott Medical Devices","class":"INDUSTRY"}},"oversightModule":{"oversightHasDmc":true,"isFdaRegulatedDrug":false,"isFdaRegulatedDevice":true,"isUsExport":false},"descriptionModule":{"briefSummary":"The purpose of this single arm, multi-center study is to confirm the safety and effectiveness of the AMPLATZER™ PFO Occluder in the post Approval Setting.","detailedDescription":"A maximum of 1214 adult subjects will be enrolled at up to 100 centers in the U.S. and Canada. Subjects will have follow-up at 1 month, 6 months, 12 months and annually thereafter through 5 years post implant."},"conditionsModule":{"conditions":["Stroke","Patent Foramen Ovale"]},"designModule":{"studyType":"INTERVENTIONAL","phases":["NA"],"designInfo":{"allocation":"NA","interventionModel":"SINGLE_GROUP","primaryPurpose":"PREVENTION","maskingInfo":{"masking":"NONE"}},"enrollmentInfo":{"count":1214,"type":"ESTIMATED"}},"armsInterventionsModule":{"armGroups":[{"label":"Device","type":"EXPERIMENTAL","description":"Subjects implanted with the AMPLATZER™ PFO Occluder.","interventionNames":["Device: AMPLATZER™ PFO Occluder"]}],"interventions":[{"type":"DEVICE","name":"AMPLATZER™ PFO Occluder","description":"Implantation of the AMPLATZER™ PFO Occluder in the PFO","armGroupLabels":["Device"]}]},"outcomesModule":{"primaryOutcomes":[{"measure":"Primary Effectiveness: 5 year rate of recurrent ischemic stroke","description":"5 year rate of recurrent ischemic stroke","timeFrame":"Through 5 years"},{"measure":"Primary Safety: Device or procedure related serious adverse events","description":"Device or procedure related serious adverse events through 30 days","timeFrame":"Through 30 days post implant"}]},"eligibilityModule":{"eligibilityCriteria":"Inclusion Criteria:\n\n• Subjects with a PFO who have had an ischemic stroke within the last 547 days\n\nExclusion Criteria:\n\n* Atherosclerosis or other arteriopathy of the intracranial and extracranial vessels associated with a ≥ 50% lumen diameter supplying the involved lesion\n* Intra-cardiac thrombus or tumor\n* Documented evidence of venous thrombus in the vessels through which access to the PFO is gained\n* Acute or recent (within 6 months prior to consent) myocardial infarction or unstable angina\n* Left ventricular aneurysm or akinesis\n* Mitral valve stenosis or severe mitral regurgitation requiring intervention irrespective of etiology\n* Aortic valve stenosis (mean gradient \\>40 mmHg) or severe aortic valve regurgitation\n* Mitral or aortic valve vegetation or prosthesis\n* Aortic arch plaques protruding greater than 4mm into the aortic lumen\n* Left ventricular dilated cardiomyopathy with depressed left ventricular ejection fraction (LVEF less than 35%)\n* Subjects with other source of right to left shunts, including an atrial septal defect and/or fenestrated septum\n* Chronic, persistent, or paroxysmal atrial fibrillation or atrial flutter\n* Pregnancy at the time of implant\n* Age less than 18 years or greater than 60 years at time of consent\n* Active endocarditis or other untreated infections\n* Organ failure (kidney, liver or lung) Kidney failure: Poor urine output of less than 1 cc/kg/hr with elevated BUN levels (above the normal reference range for the laboratory at the investigational site).\n\nLiver failure: Liver enzymes outside the normal reference range for the laboratory at the investigational site: poor liver function as assessed by elevated PT (above the normal reference range for the laboratory at the investigational site) and low total protein and albumin (below the normal reference range for the laboratory at the investigational site).\n\nLung failure: Respiratory failure is retention of carbon dioxide more than 60 mmHg, poor oxygenation with oxygen tension less than 40 mmHg in room air or the need for assisted ventilation.\n\n* Uncontrolled hypertension defined as sustained elevated systemic blood pressure to more than 160/90 mmHg with medications\n* Uncontrolled diabetes defined as continued elevated glucose levels in spite of administration of insulin/levels of more than 200 mg with presence of glucose in the urine\n* Diagnosis of lacunar infarct probably due to intrinsic small vessel as qualifying stroke event Definition: Ischemic stroke in the distribution of a single, small deep penetrating vessel in a patient with any of the following: 1) a history of hypertension (except in the first week post stroke); 2) history of diabetes mellitus; 3) Age \\>/= 50; or 4) MRI or CT shows leukoaraiosis greater than symmetric, well-defined periventricular caps or bands (European Task Force on Age-Related White Matter Changes rating scale score \\> 0)\n* Arterial dissection as cause of stroke\n* Subjects who test positive with one of the following hypercoagulable states; Anticardiolipin Ab of the IgG or IgM (≥30), Lupus anticoagulant, B2-glycoprotein-1 antibodies (≥30) or persistently elevated homocysteine (\\>20)\n* Unable to take antiplatelet therapy\n* Anatomy in which the AMPLATZERTM PFO Occluder device size required would interfere with intracardiac or intravascular structures such as valves or pulmonary veins\n* Vasculature, through which access to the PFO is gained, is inadequate to accommodate the appropriate sheath size\n* Malignancy or other illness where life expectancy is less than 2 years\n* Subjects who will not be available for follow-up for the duration of the trial\n* Inability to obtain Informed Consent from patient\n* Index stroke of poor outcome (modified Rankin score greater than 3)","healthyVolunteers":false,"sex":"ALL","minimumAge":"18 Years","maximumAge":"60 Years","stdAges":["ADULT"]},"contactsLocationsModule":{"centralContacts":[{"name":"Maren Wagner","role":"CONTACT","phone":"651 756 5585","email":"maren.wagner@abbott.com"}],"overallOfficials":[{"name":"Barathi Sethuraman, PhD","affiliation":"Abbott","role":"STUDY_DIRECTOR"}],"locations":[{"facility":"University of Alabama at Birmingham","status":"ENROLLING_BY_INVITATION","city":"Birmingham","state":"Alabama","zip":"35249","country":"United States","geoPoint":{"lat":33.52066,"lon":-86.80249}},{"facility":"Heart Center Research, LLC","status":"ENROLLING_BY_INVITATION","city":"Huntsville","state":"Alabama","zip":"35801","country":"United States","geoPoint":{"lat":34.7304,"lon":-86.58594}},{"facility":"Chandler Regional Medical Center","status":"ENROLLING_BY_INVITATION","city":"Chandler","state":"Arizona","zip":"85224","country":"United States","geoPoint":{"lat":33.30616,"lon":-111.84125}},{"facility":"St. Joseph's Hospital and Medical Center","status":"ACTIVE_NOT_RECRUITING","city":"Phoenix","state":"Arizona","zip":"85013","country":"United States","geoPoint":{"lat":33.44838,"lon":-112.07404}},{"facility":"Scottsdale Healthcare Shea","status":"ACTIVE_NOT_RECRUITING","city":"Scottsdale","state":"Arizona","zip":"85260","country":"United States","geoPoint":{"lat":33.50921,"lon":-111.89903}},{"facility":"Pima Heart Physicians, PC","status":"ENROLLING_BY_INVITATION","city":"Tucson","state":"Arizona","zip":"85712","country":"United States","geoPoint":{"lat":32.22174,"lon":-110.92648}},{"facility":"UAMS Medical Center","status":"COMPLETED","city":"Little Rock","state":"Arkansas","zip":"72205","country":"United States","geoPoint":{"lat":34.74648,"lon":-92.28959}},{"facility":"Kaiser Permanente Los Angeles Medical Center","status":"ENROLLING_BY_INVITATION","city":"Los Angeles","state":"California","zip":"90027","country":"United States","geoPoint":{"lat":34.05223,"lon":-118.24368}},{"facility":"USC University Hospital","status":"ENROLLING_BY_INVITATION","city":"Los Angeles","state":"California","zip":"90033","country":"United States","geoPoint":{"lat":34.05223,"lon":-118.24368}},{"facility":"Ronald Reagan UCLA Medical Center","status":"ACTIVE_NOT_RECRUITING","city":"Los Angeles","state":"California","zip":"90095","country":"United States","geoPoint":{"lat":34.05223,"lon":-118.24368}},{"facility":"Sutter Medical Center","status":"ACTIVE_NOT_RECRUITING","city":"Sacramento","state":"California","zip":"95816","country":"United States","geoPoint":{"lat":38.58157,"lon":-121.4944}},{"facility":"San Diego Cardiac Center","status":"ENROLLING_BY_INVITATION","city":"San Diego","state":"California","zip":"92123","country":"United States","geoPoint":{"lat":32.71533,"lon":-117.15726}},{"facility":"University of California at San Francisco","status":"ENROLLING_BY_INVITATION","city":"San Francisco","state":"California","zip":"94143","country":"United States","geoPoint":{"lat":37.77493,"lon":-122.41942}},{"facility":"Stanford University Medical Center","status":"ENROLLING_BY_INVITATION","city":"Stanford","state":"California","zip":"94305","country":"United States","geoPoint":{"lat":37.42411,"lon":-122.16608}},{"facility":"Los Robles Hospital and Medical Center","status":"ACTIVE_NOT_RECRUITING","city":"Thousand Oaks","state":"California","zip":"91360","country":"United States","geoPoint":{"lat":34.17056,"lon":-118.83759}},{"facility":"University of Colorado Hospital","status":"ENROLLING_BY_INVITATION","city":"Aurora","state":"Colorado","zip":"80045","country":"United States","geoPoint":{"lat":39.72943,"lon":-104.83192}},{"facility":"Memorial Hospital of Colorado Springs","status":"ENROLLING_BY_INVITATION","city":"Colorado Springs","state":"Colorado","zip":"80909","country":"United States","geoPoint":{"lat":38.83388,"lon":-104.82136}},{"facility":"Denver Heart","status":"ACTIVE_NOT_RECRUITING","city":"Denver","state":"Colorado","zip":"80031","country":"United States","geoPoint":{"lat":39.73915,"lon":-104.9847}},{"facility":"South Denver Cardiology Associates PC","status":"ENROLLING_BY_INVITATION","city":"Littleton","state":"Colorado","zip":"80120","country":"United States","geoPoint":{"lat":39.61332,"lon":-105.01665}},{"facility":"Washington Hospital Center","status":"ENROLLING_BY_INVITATION","city":"Washington","state":"District of Columbia","zip":"20010","country":"United States","geoPoint":{"lat":38.89511,"lon":-77.03637}},{"facility":"St. Vincent's Medical Center","status":"ACTIVE_NOT_RECRUITING","city":"Jacksonville","state":"Florida","zip":"32204","country":"United States","geoPoint":{"lat":30.33218,"lon":-81.65565}},{"facility":"Baptist Medical Center","status":"ENROLLING_BY_INVITATION","city":"Jacksonville","state":"Florida","zip":"32207","country":"United States","geoPoint":{"lat":30.33218,"lon":-81.65565}},{"facility":"First Coast Cardiovascular Institute","status":"ENROLLING_BY_INVITATION","city":"Jacksonville","state":"Florida","zip":"32256","country":"United States","geoPoint":{"lat":30.33218,"lon":-81.65565}},{"facility":"Baptist Hospital of Miami","status":"WITHDRAWN","city":"Miami","state":"Florida","zip":"33176","country":"United States","geoPoint":{"lat":25.77427,"lon":-80.19366}},{"facility":"Orlando Health","status":"ENROLLING_BY_INVITATION","city":"Orlando","state":"Florida","zip":"32806","country":"United States","geoPoint":{"lat":28.53834,"lon":-81.37924}},{"facility":"Cleveland Clinic Florida","status":"ENROLLING_BY_INVITATION","city":"Weston","state":"Florida","zip":"33331","country":"United States","geoPoint":{"lat":26.10037,"lon":-80.39977}},{"facility":"Emory University Hospital","status":"WITHDRAWN","city":"Atlanta","state":"Georgia","zip":"30322","country":"United States","geoPoint":{"lat":33.749,"lon":-84.38798}},{"facility":"Augusta University","status":"ACTIVE_NOT_RECRUITING","city":"Augusta","state":"Georgia","zip":"30912","country":"United States","geoPoint":{"lat":33.47097,"lon":-81.97484}},{"facility":"Northeast Georgia Medical Center","status":"ENROLLING_BY_INVITATION","city":"Gainesville","state":"Georgia","zip":"30501","country":"United States","geoPoint":{"lat":34.29788,"lon":-83.82407}},{"facility":"WellStar Kennestone Hospital","status":"ENROLLING_BY_INVITATION","city":"Marietta","state":"Georgia","zip":"98502","country":"United States","geoPoint":{"lat":33.9526,"lon":-84.54993}},{"facility":"Rush University Medical Center","status":"ACTIVE_NOT_RECRUITING","city":"Chicago","state":"Illinois","zip":"60612","country":"United States","geoPoint":{"lat":41.85003,"lon":-87.65005}},{"facility":"Prairie Education and Research Cooperative","status":"ACTIVE_NOT_RECRUITING","city":"Springfield","state":"Illinois","zip":"63146","country":"United States","geoPoint":{"lat":39.80172,"lon":-89.64371}},{"facility":"St. Vincent Hospital","status":"WITHDRAWN","city":"Indianapolis","state":"Indiana","zip":"46240","country":"United States","geoPoint":{"lat":39.76838,"lon":-86.15804}},{"facility":"HCA Midwest Division, Menorah Medical Center","status":"ENROLLING_BY_INVITATION","city":"Overland Park","state":"Kansas","zip":"66209","country":"United States","geoPoint":{"lat":38.98223,"lon":-94.67079}},{"facility":"Cardiovascular Research Institute of Kansas","status":"WITHDRAWN","city":"Wichita","state":"Kansas","zip":"67214","country":"United States","geoPoint":{"lat":37.69224,"lon":-97.33754}},{"facility":"University of Kentucky","status":"ACTIVE_NOT_RECRUITING","city":"Lexington","state":"Kentucky","zip":"40536","country":"United States","geoPoint":{"lat":37.98869,"lon":-84.47772}},{"facility":"Baptist Hospital East","status":"ENROLLING_BY_INVITATION","city":"Louisville","state":"Kentucky","zip":"40515","country":"United States","geoPoint":{"lat":38.25424,"lon":-85.75941}},{"facility":"Ochsner Medical Center","status":"ACTIVE_NOT_RECRUITING","city":"New Orleans","state":"Louisiana","zip":"70448","country":"United States","geoPoint":{"lat":29.95465,"lon":-90.07507}},{"facility":"Johns Hopkins University Hospital","status":"ENROLLING_BY_INVITATION","city":"Baltimore","state":"Maryland","zip":"21287","country":"United States","geoPoint":{"lat":39.29038,"lon":-76.61219}},{"facility":"Tufts Medical Center","status":"ENROLLING_BY_INVITATION","city":"Boston","state":"Massachusetts","zip":"02111","country":"United States","geoPoint":{"lat":42.35843,"lon":-71.05977}},{"facility":"Charlton Memorial Hospital","status":"ENROLLING_BY_INVITATION","city":"Fall River","state":"Massachusetts","zip":"02720","country":"United States","geoPoint":{"lat":41.70149,"lon":-71.15505}},{"facility":"University of Massachusetts Medical Center","status":"NOT_YET_RECRUITING","city":"Worcester","state":"Massachusetts","zip":"01655","country":"United States","contacts":[{"name":"Vaikom Mahadevan, MD","role":"PRINCIPAL_INVESTIGATOR"}],"geoPoint":{"lat":42.26259,"lon":-71.80229}},{"facility":"McLaren Health Care Corporation","status":"ENROLLING_BY_INVITATION","city":"Auburn Hills","state":"Michigan","zip":"48326","country":"United States","geoPoint":{"lat":42.68753,"lon":-83.2341}},{"facility":"Henry Ford Hospital","status":"ENROLLING_BY_INVITATION","city":"Detroit","state":"Michigan","zip":"48084","country":"United States","geoPoint":{"lat":42.33143,"lon":-83.04575}},{"facility":"Children's Hospital of Michigan","status":"COMPLETED","city":"Detroit","state":"Michigan","zip":"48201","country":"United States","geoPoint":{"lat":42.33143,"lon":-83.04575}},{"facility":"Sparrow Clinical Research Institute","status":"ENROLLING_BY_INVITATION","city":"Lansing","state":"Michigan","zip":"48912","country":"United States","geoPoint":{"lat":42.73253,"lon":-84.55553}},{"facility":"St. Mary's Hospital","status":"ACTIVE_NOT_RECRUITING","city":"Duluth","state":"Minnesota","zip":"55805","country":"United States","geoPoint":{"lat":46.78327,"lon":-92.10658}},{"facility":"Minneapolis Heart Institute","status":"ACTIVE_NOT_RECRUITING","city":"Minneapolis","state":"Minnesota","zip":"55407","country":"United States","geoPoint":{"lat":44.97997,"lon":-93.26384}},{"facility":"St. Cloud Hospital","status":"ENROLLING_BY_INVITATION","city":"Saint Cloud","state":"Minnesota","zip":"56303","country":"United States","geoPoint":{"lat":45.5608,"lon":-94.16249}},{"facility":"Washington University School of Medicine","status":"ENROLLING_BY_INVITATION","city":"Saint Louis","state":"Missouri","zip":"63110","country":"United States","geoPoint":{"lat":38.62727,"lon":-90.19789}},{"facility":"Mercy Hospital South","status":"ENROLLING_BY_INVITATION","city":"Saint Louis","state":"Missouri","zip":"63128","country":"United States","geoPoint":{"lat":38.62727,"lon":-90.19789}},{"facility":"St. Patrick Hospital","status":"ACTIVE_NOT_RECRUITING","city":"Missoula","state":"Montana","zip":"59802","country":"United States","geoPoint":{"lat":46.87215,"lon":-113.994}},{"facility":"University of Nebraska Medical Center","status":"ENROLLING_BY_INVITATION","city":"Omaha","state":"Nebraska","zip":"68198","country":"United States","geoPoint":{"lat":41.25626,"lon":-95.94043}},{"facility":"Newark Beth Israel Medical Center","status":"ENROLLING_BY_INVITATION","city":"Newark","state":"New Jersey","zip":"07112","country":"United States","geoPoint":{"lat":40.73566,"lon":-74.17237}},{"facility":"Mount Sinai Hospital","status":"ENROLLING_BY_INVITATION","city":"New York","state":"New York","zip":"10019","country":"United States","geoPoint":{"lat":40.71427,"lon":-74.00597}},{"facility":"New York Presbyterian Hospital/ Cornell University","status":"ENROLLING_BY_INVITATION","city":"New York","state":"New York","zip":"10021","country":"United States","geoPoint":{"lat":40.71427,"lon":-74.00597}},{"facility":"Stony Brook University Medical Center","status":"ENROLLING_BY_INVITATION","city":"Stony Brook","state":"New York","zip":"11790","country":"United States","geoPoint":{"lat":40.92565,"lon":-73.14094}},{"facility":"Novant Health Heart and Vascular Research","status":"ACTIVE_NOT_RECRUITING","city":"Charlotte","state":"North Carolina","zip":"28204","country":"United States","geoPoint":{"lat":35.22709,"lon":-80.84313}},{"facility":"Moses H Cone Memorial Hospital","status":"ENROLLING_BY_INVITATION","city":"Greensboro","state":"North Carolina","zip":"27358","country":"United States","geoPoint":{"lat":36.07264,"lon":-79.79198}},{"facility":"Forsyth Medical Center","status":"ENROLLING_BY_INVITATION","city":"Winston-Salem","state":"North Carolina","zip":"27358","country":"United States","geoPoint":{"lat":36.09986,"lon":-80.24422}},{"facility":"Jewish Hospital","status":"COMPLETED","city":"Cincinnati","state":"Ohio","zip":"45236","country":"United States","geoPoint":{"lat":39.12713,"lon":-84.51435}},{"facility":"TriHealth Bethesda North Hospital","status":"ENROLLING_BY_INVITATION","city":"Cincinnati","state":"Ohio","zip":"45242","country":"United States","geoPoint":{"lat":39.12713,"lon":-84.51435}},{"facility":"Ohio Health Research Institute","status":"ACTIVE_NOT_RECRUITING","city":"Columbus","state":"Ohio","zip":"43210","country":"United States","geoPoint":{"lat":39.96118,"lon":-82.99879}},{"facility":"Ohio State University","status":"ENROLLING_BY_INVITATION","city":"Columbus","state":"Ohio","zip":"43210","country":"United States","geoPoint":{"lat":39.96118,"lon":-82.99879}},{"facility":"Mt Carmel East","status":"ENROLLING_BY_INVITATION","city":"Columbus","state":"Ohio","zip":"43213","country":"United States","geoPoint":{"lat":39.96118,"lon":-82.99879}},{"facility":"Kaiser Sunnyside Medical Center","status":"ENROLLING_BY_INVITATION","city":"Clackamas","state":"Oregon","zip":"97015","country":"United States","geoPoint":{"lat":45.40762,"lon":-122.57037}},{"facility":"Providence Heart and Vascular Institute","status":"ENROLLING_BY_INVITATION","city":"Portland","state":"Oregon","zip":"97225","country":"United States","geoPoint":{"lat":45.52345,"lon":-122.67621}},{"facility":"Legacy Emanuel Hospital and Health Center","status":"WITHDRAWN","city":"Portland","state":"Oregon","zip":"97227","country":"United States","geoPoint":{"lat":45.52345,"lon":-122.67621}},{"facility":"Geisinger Medical Center","status":"ACTIVE_NOT_RECRUITING","city":"Danville","state":"Pennsylvania","zip":"17822","country":"United States","geoPoint":{"lat":40.96342,"lon":-76.61273}},{"facility":"Penn State Milton S Hershey Medical Center","status":"ENROLLING_BY_INVITATION","city":"Hershey","state":"Pennsylvania","zip":"17033","country":"United States","geoPoint":{"lat":40.28592,"lon":-76.65025}},{"facility":"Allegheny Singer Research Institute","status":"ENROLLING_BY_INVITATION","city":"Pittsburgh","state":"Pennsylvania","zip":"15212","country":"United States","geoPoint":{"lat":40.44062,"lon":-79.99589}},{"facility":"Lexington Medical Center","status":"ENROLLING_BY_INVITATION","city":"West Columbia","state":"South Carolina","zip":"29169","country":"United States","geoPoint":{"lat":33.99349,"lon":-81.07398}},{"facility":"Sanford USD Medical Center","status":"ENROLLING_BY_INVITATION","city":"Sioux Falls","state":"South Dakota","zip":"57117","country":"United States","geoPoint":{"lat":43.54997,"lon":-96.70033}},{"facility":"Erlanger Medical Center","status":"ACTIVE_NOT_RECRUITING","city":"Chattanooga","state":"Tennessee","zip":"37922","country":"United States","geoPoint":{"lat":35.04563,"lon":-85.30968}},{"facility":"Tennova Healthcare - Turkey Creek Medical Center","status":"ACTIVE_NOT_RECRUITING","city":"Knoxville","state":"Tennessee","zip":"37920","country":"United States","geoPoint":{"lat":35.96064,"lon":-83.92074}},{"facility":"Seton Medical Center","status":"ENROLLING_BY_INVITATION","city":"Austin","state":"Texas","zip":"78705","country":"United States","geoPoint":{"lat":30.26715,"lon":-97.74306}},{"facility":"Park Plaza Hospital","status":"ENROLLING_BY_INVITATION","city":"Houston","state":"Texas","zip":"77004","country":"United States","geoPoint":{"lat":29.76328,"lon":-95.36327}},{"facility":"University of Texas Health Science Center at Houston","status":"ENROLLING_BY_INVITATION","city":"Houston","state":"Texas","zip":"77074","country":"United States","geoPoint":{"lat":29.76328,"lon":-95.36327}},{"facility":"The Heart Hospital Baylor Plano","status":"ENROLLING_BY_INVITATION","city":"Plano","state":"Texas","zip":"75093","country":"United States","geoPoint":{"lat":33.01984,"lon":-96.69889}},{"facility":"Sentara Norfolk General Hospital","status":"ENROLLING_BY_INVITATION","city":"Norfolk","state":"Virginia","zip":"23112","country":"United States","geoPoint":{"lat":36.84681,"lon":-76.28522}},{"facility":"Bayview Physicians Services, PC","status":"WITHDRAWN","city":"Virginia Beach","state":"Virginia","zip":"23454","country":"United States","geoPoint":{"lat":36.85293,"lon":-75.97799}},{"facility":"Swedish Medical Center - Heart & Vascular","status":"ACTIVE_NOT_RECRUITING","city":"Seattle","state":"Washington","zip":"98122","country":"United States","geoPoint":{"lat":47.60621,"lon":-122.33207}},{"facility":"University of Washington Medical Center","status":"ENROLLING_BY_INVITATION","city":"Seattle","state":"Washington","zip":"98195","country":"United States","geoPoint":{"lat":47.60621,"lon":-122.33207}},{"facility":"University of Wisconsin Hospital","status":"ENROLLING_BY_INVITATION","city":"Madison","state":"Wisconsin","zip":"53792","country":"United States","geoPoint":{"lat":43.07305,"lon":-89.40123}},{"facility":"Marshfield Clinic","status":"WITHDRAWN","city":"Marshfield","state":"Wisconsin","zip":"54449","country":"United States","geoPoint":{"lat":44.66885,"lon":-90.1718}},{"facility":"Aurora Medical Group","status":"ENROLLING_BY_INVITATION","city":"Milwaukee","state":"Wisconsin","zip":"53215","country":"United States","geoPoint":{"lat":43.0389,"lon":-87.90647}},{"facility":"Medical College of Wisconsin","status":"WITHDRAWN","city":"Milwaukee","state":"Wisconsin","zip":"53226","country":"United States","geoPoint":{"lat":43.0389,"lon":-87.90647}},{"facility":"Foothills Medical Centre","status":"ACTIVE_NOT_RECRUITING","city":"Calgary","state":"Alberta","zip":"T2N 2T9","country":"Canada","geoPoint":{"lat":51.05011,"lon":-114.08529}},{"facility":"Vancouver General Hospital","status":"ENROLLING_BY_INVITATION","city":"Vancouver","state":"British Columbia","zip":"V5Z 1M9","country":"Canada","geoPoint":{"lat":49.24966,"lon":-123.11934}},{"facility":"Toronto General Hospital","status":"ENROLLING_BY_INVITATION","city":"Toronto","state":"Ontario","zip":"M5G 2C4","country":"Canada","geoPoint":{"lat":43.70011,"lon":-79.4163}},{"facility":"Institut de Cardiologie de Montreal (Montreal Heart Inst.)","status":"ENROLLING_BY_INVITATION","city":"Montréal","state":"Quebec","zip":"H1T 1C8","country":"Canada","geoPoint":{"lat":45.50884,"lon":-73.58781}},{"facility":"Deutsches Herzzentrum München des Freistaates Bayern","status":"RECRUITING","city":"München","state":"Bavaria","zip":"80636","country":"Germany","contacts":[{"name":"Stanimir Georgiev, MD","role":"PRINCIPAL_INVESTIGATOR"}],"geoPoint":{"lat":48.13743,"lon":11.57549}},{"facility":"Deutsches Herzzentrum Berlin","status":"ENROLLING_BY_INVITATION","city":"Berlin","zip":"13353","country":"Germany","geoPoint":{"lat":52.52437,"lon":13.41053}},{"facility":"Centro Cardiologico Monzino","status":"ENROLLING_BY_INVITATION","city":"Milano","state":"Lombard","country":"Italy","geoPoint":{"lat":45.46427,"lon":9.18951}},{"facility":"Santa Maria Hospital","status":"ENROLLING_BY_INVITATION","city":"Lisboa","state":"Lisbon","zip":"1649-035","country":"Portugal","geoPoint":{"lat":38.71667,"lon":-9.13333}},{"facility":"Kantonsspital St.Gallen","status":"ENROLLING_BY_INVITATION","city":"Saint Gallen","state":"Stgalln","zip":"9007","country":"Switzerland","geoPoint":{"lat":47.42391,"lon":9.37477}},{"facility":"St. Thomas Hospital","status":"RECRUITING","city":"London","zip":"SE1 7EH","country":"United Kingdom","contacts":[{"name":"Brian Clapp, MD","role":"PRINCIPAL_INVESTIGATOR"}],"geoPoint":{"lat":51.50853,"lon":-0.12574}}]}},"derivedSection":{"miscInfoModule":{"versionHolder":"2024-02-14"},"conditionBrowseModule":{"meshes":[{"id":"D000054092","term":"Foramen Ovale, Patent"}],"ancestors":[{"id":"D000006344","term":"Heart Septal Defects, Atrial"},{"id":"D000006343","term":"Heart Septal Defects"},{"id":"D000006330","term":"Heart Defects, Congenital"},{"id":"D000018376","term":"Cardiovascular Abnormalities"},{"id":"D000002318","term":"Cardiovascular Diseases"},{"id":"D000006331","term":"Heart Diseases"},{"id":"D000000013","term":"Congenital Abnormalities"}],"browseLeaves":[{"id":"M21996","name":"Stroke","relevance":"LOW"},{"id":"M27260","name":"Foramen Ovale, Patent","asFound":"Patent Foramen Ovale","relevance":"HIGH"},{"id":"M9122","name":"Heart Septal Defects, Atrial","relevance":"LOW"},{"id":"M9121","name":"Heart Septal Defects","relevance":"LOW"},{"id":"M9108","name":"Heart Defects, Congenital","relevance":"LOW"},{"id":"M12","name":"Congenital Abnormalities","relevance":"LOW"},{"id":"M20193","name":"Cardiovascular Abnormalities","relevance":"LOW"},{"id":"M9109","name":"Heart Diseases","relevance":"LOW"}],"browseBranches":[{"abbrev":"BC10","name":"Nervous System Diseases"},{"abbrev":"BC14","name":"Heart and Blood Diseases"},{"abbrev":"All","name":"All Conditions"},{"abbrev":"BC16","name":"Diseases and Abnormalities at or Before Birth"}]}},"hasResults":false}