{"protocolSection":{"identificationModule":{"nctId":"NCT01120301","orgStudyIdInfo":{"id":"NTS-INT08-009"},"organization":{"fullName":"PhotoThera, Inc","class":"INDUSTRY"},"briefTitle":"Efficacy and Safety Trial of Transcranial Laser Therapy Within 24 Hours From Stroke Onset (NEST-3)","officialTitle":"NeuroThera® Efficacy and Safety Trial - 3 (NEST-3) A Double-blind, Randomized, Sham-controlled, Parallel Group, Multicenter, Pivotal Study to Assess the Safety and Efficacy of Transcranial Laser Therapy With the NeuroThera® Laser System for the Treatment of Acute Ischemic Stroke Within 24 Hours of Stroke Onset","acronym":"NEST-3"},"statusModule":{"statusVerifiedDate":"2012-10","overallStatus":"COMPLETED","expandedAccessInfo":{"hasExpandedAccess":false},"startDateStruct":{"date":"2010-09"},"primaryCompletionDateStruct":{"date":"2012-09","type":"ACTUAL"},"studyFirstSubmitDate":"2010-05-05","studyFirstSubmitQcDate":"2010-05-06","studyFirstPostDateStruct":{"date":"2010-05-10","type":"ESTIMATED"},"lastUpdateSubmitDate":"2013-11-14","lastUpdatePostDateStruct":{"date":"2013-11-15","type":"ESTIMATED"}},"sponsorCollaboratorsModule":{"responsibleParty":{"type":"SPONSOR"},"leadSponsor":{"name":"PhotoThera, Inc","class":"INDUSTRY"}},"oversightModule":{"oversightHasDmc":true},"descriptionModule":{"briefSummary":"The purpose of this pivotal study is to demonstrate safety and efficacy of transcranial laser therapy (TLT) with the NeuroThera® Laser System in the treatment of subjects diagnosed with acute ischemic stroke. The initiation of the TLT procedure must be feasible for each subject between 4.5 and 24 hours of stroke onset."},"conditionsModule":{"conditions":["Acute Ischemic Stroke"],"keywords":["stroke"]},"designModule":{"studyType":"INTERVENTIONAL","phases":["PHASE3"],"designInfo":{"allocation":"RANDOMIZED","interventionModel":"PARALLEL","primaryPurpose":"TREATMENT","maskingInfo":{"masking":"QUADRUPLE","whoMasked":["PARTICIPANT","CARE_PROVIDER","INVESTIGATOR","OUTCOMES_ASSESSOR"]}},"enrollmentInfo":{"count":1000,"type":"ESTIMATED"}},"armsInterventionsModule":{"armGroups":[{"label":"Transcranial Laser Therapy","type":"EXPERIMENTAL","interventionNames":["Device: NeuroThera® Laser System"]},{"label":"Sham control procedure","type":"SHAM_COMPARATOR","interventionNames":["Device: NeuroThera® Laser System"]}],"interventions":[{"type":"DEVICE","name":"NeuroThera® Laser System","description":"Transcranial delivery of laser therapy or sham (no laser therapy) to the scalp","armGroupLabels":["Sham control procedure","Transcranial Laser Therapy"]}]},"outcomesModule":{"primaryOutcomes":[{"measure":"Disability assessed using the dichotomous modified Rankin Scale (mRS)","timeFrame":"Day 90"},{"measure":"Adverse event differences between transcranial laser therapy and sham","timeFrame":"Day 90"}],"secondaryOutcomes":[{"measure":"Distribution of scores across the ordinal mRS","timeFrame":"Day 90"},{"measure":"Binary outcome measure of the National Institute of Health Stroke Scale (bNIH)","timeFrame":"Day 90"}]},"eligibilityModule":{"eligibilityCriteria":"Inclusion Criteria:\n\n1. Clinical diagnosis of acute ischemic stroke\n2. Subject is not a candidate for treatment with neurothrombectomy\n3. Initiation of the TLT procedure begins between 4.5 and 24 hours\n4. Baseline NIHSS score range: 7-17\n5. Full functional independence just prior to the present stroke episode\n6. Negative pregnancy test in females of childbearing potential\n7. Subject Informed Consent obtained prior to enrollment into this study\n\nExclusion Criteria:\n\n1. Evidence of an intracranial, subdural, or subarachnoid hemorrhage\n2. Acute ischemic strokes located exclusively in the brainstem, or cerebellum, or small deep infarctions, or massive hemispheric strokes\n3. Seizure at stroke onset or within the 7 days prior to stroke onset\n4. Sustained blood glucose \\>300 or \\<60 mg/dl\n5. Sustained hypertension (SBP \\>220 mmHg or DBP \\>140 mmHg)\n6. Sustained hypotension (SBP \\<80 mmHg or DBP \\<50 mmHg)\n7. A presumed and/or confirmed septic embolus\n8. History of CNS vascular disease (e.g. aneurysm, AVM) or history of CNS disease or damage (e.g. neoplasm or dementia) which may influence the subject's outcome assessment.\n9. Head implant of any kind\n10. Significant skin condition of the scalp (eg. psoriasis)\n11. Use of any intravenous or intra-arterial thrombolytic medication\n12. Use of any diagnostic or therapeutic interventional neurovascular procedure\n13. Female who is pregnant or lactating or who is of childbearing potential and not using a medically acceptable method of birth control.","healthyVolunteers":false,"sex":"ALL","minimumAge":"40 Years","maximumAge":"80 Years","stdAges":["ADULT","OLDER_ADULT"]},"contactsLocationsModule":{"overallOfficials":[{"name":"Werner Hacke, MD PhD","affiliation":"Heidelberg University","role":"STUDY_CHAIR"},{"name":"Justin Zivin, MD PhD","affiliation":"University of California, San Diego","role":"STUDY_CHAIR"}],"locations":[{"facility":"University of Alabama Birmingham","city":"Birmingham","state":"Alabama","zip":"35294","country":"United States","geoPoint":{"lat":33.52066,"lon":-86.80249}},{"facility":"Sparks Regional Medical Center","city":"Fort Smith","state":"Arkansas","zip":"72901","country":"United States","geoPoint":{"lat":35.38592,"lon":-94.39855}},{"facility":"Scripps Encinitas Hospital","city":"Encinitas","state":"California","zip":"92024","country":"United States","geoPoint":{"lat":33.03699,"lon":-117.29198}},{"facility":"Hoag Memorial Hospital Presbyterian","city":"Newport Beach","state":"California","zip":"92658","country":"United States","geoPoint":{"lat":33.61891,"lon":-117.92895}},{"facility":"Stanford Stroke Center","city":"Palo Alto","state":"California","zip":"94304","country":"United States","geoPoint":{"lat":37.44188,"lon":-122.14302}},{"facility":"Munroe Regional Medical Center","city":"Ocala","state":"Florida","zip":"34474","country":"United States","geoPoint":{"lat":29.1872,"lon":-82.14009}},{"facility":"Gwinnett Medical Center","city":"Duluth","state":"Georgia","zip":"30096","country":"United States","geoPoint":{"lat":34.00288,"lon":-84.14464}},{"facility":"Gwinnett Medical Center","city":"Lawrenceville","state":"Georgia","zip":"30045","country":"United States","geoPoint":{"lat":33.95621,"lon":-83.98796}},{"facility":"Parkview Hospital","city":"Fort Wayne","state":"Indiana","zip":"46805","country":"United States","geoPoint":{"lat":41.1306,"lon":-85.12886}},{"facility":"Massachusetts General Hospital","city":"Boston","state":"Massachusetts","zip":"02114","country":"United States","geoPoint":{"lat":42.35843,"lon":-71.05977}},{"facility":"UMass Memorial Medical Center","city":"Worcester","state":"Massachusetts","zip":"01655","country":"United States","geoPoint":{"lat":42.26259,"lon":-71.80229}},{"facility":"Minneapolis Clinic of Neurology","city":"Robbinsdale","state":"Minnesota","zip":"55422","country":"United States","geoPoint":{"lat":45.03219,"lon":-93.33856}},{"facility":"Saint Lukes Hospital","city":"Kansas City","state":"Missouri","zip":"64111","country":"United States","geoPoint":{"lat":39.09973,"lon":-94.57857}},{"facility":"University of Washington St. Louis","city":"St. Louis","state":"Missouri","zip":"63110","country":"United States","geoPoint":{"lat":38.62727,"lon":-90.19789}},{"facility":"Mission Hospital/Mission Neurology Services","city":"Asheville","state":"North Carolina","zip":"28801","country":"United States","geoPoint":{"lat":35.60095,"lon":-82.55402}},{"facility":"University of North Carolina Healthcare","city":"Chapel Hill","state":"North Carolina","zip":"27514","country":"United States","geoPoint":{"lat":35.9132,"lon":-79.05584}},{"facility":"Guilford Neuro/The Moses H. Cone Memorial Hospital","city":"Greensboro","state":"North Carolina","zip":"27401","country":"United States","geoPoint":{"lat":36.07264,"lon":-79.79198}},{"facility":"Cleveland Clinic","city":"Cleveland","state":"Ohio","zip":"44195","country":"United States","geoPoint":{"lat":41.4995,"lon":-81.69541}},{"facility":"Oregon Health Sciences University","city":"Portland","state":"Oregon","zip":"97239","country":"United States","geoPoint":{"lat":45.52345,"lon":-122.67621}},{"facility":"Erlanger Health System","city":"Chattanooga","state":"Tennessee","zip":"37403","country":"United States","geoPoint":{"lat":35.04563,"lon":-85.30968}},{"facility":"The Methodist Hospital","city":"Houston","state":"Texas","zip":"77030","country":"United States","geoPoint":{"lat":29.76328,"lon":-95.36327}},{"facility":"INOVA Hospital","city":"Falls Church","state":"Virginia","zip":"22042","country":"United States","geoPoint":{"lat":38.88233,"lon":-77.17109}},{"facility":"Sentara Norfolk General Hospital","city":"Norfolk","state":"Virginia","zip":"23507","country":"United States","geoPoint":{"lat":36.84681,"lon":-76.28522}},{"facility":"Carilion Roanoke Memorial Hospital","city":"Roanoke","state":"Virginia","zip":"24014","country":"United States","geoPoint":{"lat":37.27097,"lon":-79.94143}},{"facility":"Winchester Medical Center","city":"Winchester","state":"Virginia","zip":"22601","country":"United States","geoPoint":{"lat":39.18566,"lon":-78.16333}},{"facility":"Harborview Medical Center","city":"Seattle","state":"Washington","zip":"98104","country":"United States","geoPoint":{"lat":47.60621,"lon":-122.33207}},{"facility":"AKH Linz","city":"Linz","zip":"A-4021","country":"Austria","geoPoint":{"lat":48.30639,"lon":14.28611}},{"facility":"University of Alberta Hospital - Walter C Mackenzie Health Science Center","city":"Edmonton","state":"Alberta","zip":"T6G 2B7","country":"Canada","geoPoint":{"lat":53.55014,"lon":-113.46871}},{"facility":"Grey Nuns Community Hospital","city":"Edmonton","state":"Alberta","zip":"T6L 5X8","country":"Canada","geoPoint":{"lat":53.55014,"lon":-113.46871}},{"facility":"Trillium Health Centre","city":"Mississauga","state":"Ontario","zip":"L5B 1B8","country":"Canada","geoPoint":{"lat":43.5789,"lon":-79.6583}},{"facility":"Helsinki University Central Hospital","city":"Helsinki","zip":"FI 00029","country":"Finland","geoPoint":{"lat":60.16952,"lon":24.93545}},{"facility":"CHRU Lille-Hôpital Salengro","city":"Lille","zip":"F-59037","country":"France","geoPoint":{"lat":50.63297,"lon":3.05858}},{"facility":"Neurologische Universitätsklinik Aachen","city":"Aachen","zip":"D-52074","country":"Germany","geoPoint":{"lat":50.77664,"lon":6.08342}},{"facility":"Neurologische Klinik Bad Neustadt","city":"Bad Neustadt","zip":"D-97616","country":"Germany"},{"facility":"Charité Campus Berlin Mitte (CCM)","city":"Berlin","zip":"D-10117","country":"Germany","geoPoint":{"lat":52.52437,"lon":13.41053}},{"facility":"Evangelisches Krankenhaus Bielefeld","city":"Bielefeld","zip":"D-33617","country":"Germany","geoPoint":{"lat":52.03333,"lon":8.53333}},{"facility":"Heinrich-Heine-University of Düsseldorf","city":"Düsseldorf","zip":"D-40225","country":"Germany","geoPoint":{"lat":51.22172,"lon":6.77616}},{"facility":"Neurologische Universitätsklinik Erlangen","city":"Erlangen","zip":"D-91054","country":"Germany","geoPoint":{"lat":49.59099,"lon":11.00783}},{"facility":"Universitätsklinikum Essen","city":"Essen","zip":"D-45122","country":"Germany","geoPoint":{"lat":51.45657,"lon":7.01228}},{"facility":"Johann Wolfgang Goethe-University","city":"Frankfurt am Main","zip":"D-60528","country":"Germany","geoPoint":{"lat":50.11552,"lon":8.68417}},{"facility":"Klinikum Frankfurt-Hochst","city":"Frankfurt-Main","zip":"D-65929","country":"Germany","geoPoint":{"lat":50.11552,"lon":8.68417}},{"facility":"Universitätsklinikum Hamburg-Eppendorf","city":"Hamburg","zip":"D-20246","country":"Germany","geoPoint":{"lat":53.57532,"lon":10.01534}},{"facility":"Universitätsklinikum Heidelberg","city":"Heidelberg","zip":"D-69120","country":"Germany","geoPoint":{"lat":49.40768,"lon":8.69079}},{"facility":"Klinik und Poliklinik für Neurologie Leipzig","city":"Leipzig","zip":"D-04103","country":"Germany","geoPoint":{"lat":51.33962,"lon":12.37129}},{"facility":"Klinikum der Stadt Ludwigshafen am Rhein","city":"Ludwigshafen","zip":"D-67063","country":"Germany","geoPoint":{"lat":49.48121,"lon":8.44641}},{"facility":"Johannes Wesling Klinikum Minden","city":"Minden","zip":"D-32429","country":"Germany","geoPoint":{"lat":52.28953,"lon":8.91455}},{"facility":"Technische Universität München","city":"München","zip":"D-81675","country":"Germany","geoPoint":{"lat":48.13743,"lon":11.57549}},{"facility":"Universitätsklinikum Münster","city":"Münster","zip":"D-48149","country":"Germany","geoPoint":{"lat":51.96236,"lon":7.62571}},{"facility":"Kreisklinikum Siegen GmbH","city":"Siegen","zip":"D-57076","country":"Germany","geoPoint":{"lat":50.87481,"lon":8.02431}},{"facility":"HSK, Dr. Horst Schmidt Klinik GmbH","city":"Wiesbaden","zip":"D-65199","country":"Germany","geoPoint":{"lat":50.08258,"lon":8.24932}},{"facility":"Hospital Nacional Dos de Mayo","city":"Lima","country":"Peru","geoPoint":{"lat":-12.04318,"lon":-77.02824}},{"facility":"Complejo Hospitalario Universitario Albacete","city":"Albacete","zip":"ES-02006","country":"Spain","geoPoint":{"lat":38.99424,"lon":-1.85643}},{"facility":"University Hospital Vall D'Hebron","city":"Barcelona","zip":"08035","country":"Spain","geoPoint":{"lat":41.38879,"lon":2.15899}},{"facility":"Hospital Universitari Dr Josep Trueta","city":"Girona","zip":"ES-17007","country":"Spain","geoPoint":{"lat":41.98311,"lon":2.82493}},{"facility":"Sahlgrenska University Hospital","city":"Goteborg","zip":"SE-405 30","country":"Sweden","geoPoint":{"lat":57.70716,"lon":11.96679}},{"facility":"Sjukhuset i Lidköping","city":"Lidköping","zip":"SE-531 85","country":"Sweden","geoPoint":{"lat":58.50517,"lon":13.15765}},{"facility":"Kärnsjukhuset Skövde","city":"Skövde","zip":"SE-541 85","country":"Sweden","geoPoint":{"lat":58.39118,"lon":13.84506}},{"facility":"Universitätsspital Basel","city":"Basel","zip":"CH-4031","country":"Switzerland","geoPoint":{"lat":47.55839,"lon":7.57327}},{"facility":"Centre Hospitalier Universitaire Vaudois","city":"Lausanne","zip":"CH-1011","country":"Switzerland","geoPoint":{"lat":46.516,"lon":6.63282}},{"facility":"University Hospital Zürich","city":"Zürich","zip":"CH-8091","country":"Switzerland","geoPoint":{"lat":47.36667,"lon":8.54999}}]},"referencesModule":{"references":[{"pmid":"25293665","type":"DERIVED","citation":"Hacke W, Schellinger PD, Albers GW, Bornstein NM, Dahlof BL, Fulton R, Kasner SE, Shuaib A, Richieri SP, Dilly SG, Zivin J, Lees KR; NEST 3 Committees and Investigators. Transcranial laser therapy in acute stroke treatment: results of neurothera effectiveness and safety trial 3, a phase III clinical end point device trial. Stroke. 2014 Nov;45(11):3187-93. doi: 10.1161/STROKEAHA.114.005795. Epub 2014 Oct 7."}]}},"derivedSection":{"miscInfoModule":{"versionHolder":"2024-02-14"},"conditionBrowseModule":{"meshes":[{"id":"D000020521","term":"Stroke"},{"id":"D000083242","term":"Ischemic Stroke"}],"ancestors":[{"id":"D000002561","term":"Cerebrovascular Disorders"},{"id":"D000001927","term":"Brain Diseases"},{"id":"D000002493","term":"Central Nervous System Diseases"},{"id":"D000009422","term":"Nervous System Diseases"},{"id":"D000014652","term":"Vascular Diseases"},{"id":"D000002318","term":"Cardiovascular Diseases"}],"browseLeaves":[{"id":"M21996","name":"Stroke","asFound":"Stroke","relevance":"HIGH"},{"id":"M10233","name":"Ischemia","relevance":"LOW"},{"id":"M2401","name":"Ischemic Stroke","asFound":"Ischemic Stroke","relevance":"HIGH"},{"id":"M5500","name":"Cerebrovascular Disorders","relevance":"LOW"},{"id":"M4894","name":"Brain Diseases","relevance":"LOW"},{"id":"M5432","name":"Central Nervous System Diseases","relevance":"LOW"},{"id":"M17090","name":"Vascular Diseases","relevance":"LOW"},{"id":"T170","name":"Acute Graft Versus Host Disease","relevance":"LOW"}],"browseBranches":[{"abbrev":"BC10","name":"Nervous System Diseases"},{"abbrev":"BC14","name":"Heart and Blood Diseases"},{"abbrev":"All","name":"All Conditions"},{"abbrev":"BC23","name":"Symptoms and General Pathology"},{"abbrev":"Rare","name":"Rare Diseases"}]}},"hasResults":false}