{"protocolSection":{"identificationModule":{"nctId":"NCT02239640","orgStudyIdInfo":{"id":"NV-SFR005"},"organization":{"fullName":"Medtronic Neurovascular Clinical Affairs","class":"INDUSTRY"},"briefTitle":"Systematic Evaluation of Patients Treated With Stroke Devices for Acute Ischemic Stroke (STRATIS) Registry","officialTitle":"Systematic Evaluation of Patients Treated With Stroke Devices for Acute Ischemic Stroke (STRATIS) Registry"},"statusModule":{"statusVerifiedDate":"2019-03","overallStatus":"COMPLETED","expandedAccessInfo":{"hasExpandedAccess":false},"startDateStruct":{"date":"2014-08-21","type":"ACTUAL"},"primaryCompletionDateStruct":{"date":"2016-10-07","type":"ACTUAL"},"completionDateStruct":{"date":"2016-10-07","type":"ACTUAL"},"studyFirstSubmitDate":"2014-09-08","studyFirstSubmitQcDate":"2014-09-11","studyFirstPostDateStruct":{"date":"2014-09-15","type":"ESTIMATED"},"resultsFirstSubmitDate":"2017-11-10","resultsFirstSubmitQcDate":"2019-03-05","resultsFirstPostDateStruct":{"date":"2019-06-07","type":"ACTUAL"},"lastUpdateSubmitDate":"2019-03-05","lastUpdatePostDateStruct":{"date":"2019-06-07","type":"ACTUAL"}},"sponsorCollaboratorsModule":{"responsibleParty":{"type":"SPONSOR"},"leadSponsor":{"name":"Medtronic Neurovascular Clinical Affairs","class":"INDUSTRY"}},"oversightModule":{"oversightHasDmc":false},"descriptionModule":{"briefSummary":"The purpose of this registry is to assess clinical outcomes, and different factors that may affect these clinical outcomes such as systems of care, associated with the use of Covidien market-released neurothrombectomy devices intended to restore blood flow in patients experiencing acute ischemic stroke due to large intracranial vessel occlusion.","detailedDescription":"This is a prospective, multi-center, non-randomized, observational registry of acute ischemic stroke patients that have or will undergo treatment with the use of a Covidien market-released neurothrombectomy device (as the initial device used to remove the thrombus) within 8 hours of stroke symptom onset, at the discretion of the investigator and independent of participation in this registry. This registry may enroll up to 1000 patients."},"conditionsModule":{"conditions":["Ischemic Stroke"]},"designModule":{"studyType":"OBSERVATIONAL","patientRegistry":true,"targetDuration":"90 Days","designInfo":{"observationalModel":"COHORT","timePerspective":"PROSPECTIVE"},"enrollmentInfo":{"count":984,"type":"ACTUAL"}},"armsInterventionsModule":{"armGroups":[{"label":"Medtronic NV market-released device","description":"Patients experiencing an acute ischemic stroke due to a large vessel occlusion treated with a Medtronic Neurovascular market-released neurothrombectomy device."}]},"outcomesModule":{"primaryOutcomes":[{"measure":"Number of Participants Assessed for Revascularization With mTICI Grades 2b-3","description":"Assess revascularization using modified Thrombolysis in Cerebral Infarction (mTICI) score at the end of the procedure. This scale determines the response of therapy for ischemic stroke based on angiographic appearances of the treated occluded vessel and the distal branches.\n\nClassification:\n\ngrade 0: no perfusion grade 1: antegrade reperfusion past the initial occlusion, but limited distal branch filling with little or slow distal reperfusion grade 2a: antegrade reperfusion of less than half of the occluded target artery previously ischemic territory grade 2b: antegrade reperfusion of more than half of the previously occluded target artery ischemic territory grade 3: complete antegrade reperfusion of the previously occluded target artery ischemic territory, with absence of visualized occlusion in all distal branches (higher values represent better outcomes)","timeFrame":"Day 0-At the completion of the thrombectomy procedure"}],"secondaryOutcomes":[{"measure":"Incidence of Neurological Events of Interest","description":"Evaluate events causing neurological deterioration (defined as ≥ 4 worsening points from baseline on the NIHSS scale)","timeFrame":"up to 90 days post index procedure"}],"otherOutcomes":[{"measure":"All-cause Mortality","timeFrame":"up to 90 days post index procedure"},{"measure":"Number of Participants With Good Functional Outcome (mRS 0-2)","description":"Score based on modified Rankin Scale (mRS). The modified Rankin Scale (mRS) is a scale used to measure the degree of disability or dependence in daily activities of people who has had a stroke.\n\nClasiffication:\n\n0 - No symptoms.\n\n1. - No significant disability. Able to carry out all usual activities, despite some symptoms.\n2. - Slight disability. Able to look after own affairs without assistance, but unable to carry out all previous activities.\n3. - Moderate disability. Requires some help, but able to walk unassisted.\n4. - Moderately severe disability. Unable to attend to own bodily needs without assistance, and unable to walk unassisted.\n5. - Severe disability. Requires constant nursing care and attention, bedridden, incontinent.\n6. - Dead. (lower values represent less disability)","timeFrame":"90 days post index procedure"},{"measure":"Incidence of Device Related Serious Adverse Events","description":"Any device-related serious adverse events associated with the use of a Covidien/Medtronic market-released neurothrombectomy device during the index stroke procedure up to 90 days post index stroke procedure.","timeFrame":"up to 90 days post index procedure"},{"measure":"Time to Revascularization","description":"Arterial access puncture to revascularization measured in minutes. Lower values indicate shorter time to revascularization and vice versa.","timeFrame":"Day 0-At the completion of the thrombectomy procedure"},{"measure":"Incidence of Procedure Related Serious Adverse Events","description":"Any procedure related serious adverse events occurring upon insertion of a Covidien/Medtronic market-released neurothrombectomy device during the index stroke procedure up to 90 days post index stroke procedure.","timeFrame":"up to 90 days post index procedure"}]},"eligibilityModule":{"eligibilityCriteria":"Inclusion Criteria:\n\n* Patient or patient's legally authorized representative has given Informed Consent according to Good Clinical Practices (GCP) and/or IRB and/or local or institutional policies.\n* Patient has experienced an acute ischemic stroke due to large intracranial vessel occlusion (with associated symptoms) and has been or will be treated with a Covidien market-released neurothrombectomy device, as the initial device used to remove the thrombus.\n* Treatment within 8 hours of stroke onset.\n* Pre-Stroke Modified Rankin Scale (mRS) score ≤ 1 (immediately) prior to stroke onset.\n* Pre-treatment National Institutes of Health Stroke Scale (NIHSS) ≥ 8 and ≤ 30.\n\nExclusion Criteria:\n\n* Concurrent participation in a multicenter randomized study.","healthyVolunteers":false,"sex":"ALL","stdAges":["CHILD","ADULT","OLDER_ADULT"],"studyPopulation":"Acute Ischemic Stroke Patients","samplingMethod":"NON_PROBABILITY_SAMPLE"},"contactsLocationsModule":{"overallOfficials":[{"name":"Nils Mueller-Kronast, M.D.","affiliation":"Advanced Neuroscience Network/Tenet South Florida","role":"PRINCIPAL_INVESTIGATOR"}],"locations":[{"facility":"Banner University Medical Center","city":"Phoenix","state":"Arizona","zip":"85006","country":"United States","geoPoint":{"lat":33.44838,"lon":-112.07404}},{"facility":"University of Arizona Medical Center","city":"Tucson","state":"Arizona","zip":"85724","country":"United States","geoPoint":{"lat":32.22174,"lon":-110.92648}},{"facility":"University of California Irvine","city":"Irvine","state":"California","zip":"92697","country":"United States","geoPoint":{"lat":33.66946,"lon":-117.82311}},{"facility":"University of California Los Angeles","city":"Los Angeles","state":"California","zip":"90095","country":"United States","geoPoint":{"lat":34.05223,"lon":-118.24368}},{"facility":"Mercy San Juan Medical Center/ Mercy General","city":"Sacramento","state":"California","zip":"95816","country":"United States","geoPoint":{"lat":38.58157,"lon":-121.4944}},{"facility":"California Pacific Medical Center","city":"San Francisco","state":"California","zip":"94115","country":"United States","geoPoint":{"lat":37.77493,"lon":-122.41942}},{"facility":"Los Robles Medical Center","city":"Thousand Oaks","state":"California","zip":"91360","country":"United States","geoPoint":{"lat":34.17056,"lon":-118.83759}},{"facility":"Advanced Neuroscience Network/Tenet South Florida","city":"Delray Beach","state":"Florida","zip":"33484","country":"United States","geoPoint":{"lat":26.46146,"lon":-80.07282}},{"facility":"South Broward Hospital","city":"Hollywood","state":"Florida","zip":"33021","country":"United States","geoPoint":{"lat":26.0112,"lon":-80.14949}},{"facility":"Baptist Medical Center - Jacksonville","city":"Jacksonville","state":"Florida","zip":"32207","country":"United States","geoPoint":{"lat":30.33218,"lon":-81.65565}},{"facility":"University of Miami Hospital","city":"Miami","state":"Florida","zip":"33136","country":"United States","geoPoint":{"lat":25.77427,"lon":-80.19366}},{"facility":"Baptist Hospital of Miami","city":"Miami","state":"Florida","zip":"33176","country":"United States","geoPoint":{"lat":25.77427,"lon":-80.19366}},{"facility":"Florida Hospital","city":"Orlando","state":"Florida","zip":"32803","country":"United States","geoPoint":{"lat":28.53834,"lon":-81.37924}},{"facility":"Grady Memorial Hospital","city":"Atlanta","state":"Georgia","zip":"30303","country":"United States","geoPoint":{"lat":33.749,"lon":-84.38798}},{"facility":"WellStar Kennestone Regional Medical Center","city":"Marietta","state":"Georgia","zip":"30060","country":"United States","geoPoint":{"lat":33.9526,"lon":-84.54993}},{"facility":"Presence St. Joseph Medical Center","city":"Joliet","state":"Illinois","zip":"60435","country":"United States","geoPoint":{"lat":41.52519,"lon":-88.0834}},{"facility":"Advocate Christ Medical Center","city":"Oak Lawn","state":"Illinois","zip":"60453","country":"United States","geoPoint":{"lat":41.71087,"lon":-87.75811}},{"facility":"Baptist Health Lexington/Central Baptist","city":"Lexington","state":"Kentucky","zip":"40503","country":"United States","geoPoint":{"lat":37.98869,"lon":-84.47772}},{"facility":"University of Kentucky Hospital","city":"Lexington","state":"Kentucky","zip":"40536","country":"United States","geoPoint":{"lat":37.98869,"lon":-84.47772}},{"facility":"Baptist Hospital Louisville","city":"Louisville","state":"Kentucky","zip":"40207","country":"United States","geoPoint":{"lat":38.25424,"lon":-85.75941}},{"facility":"Norton Healthcare","city":"Louisville","state":"Kentucky","zip":"40241","country":"United States","geoPoint":{"lat":38.25424,"lon":-85.75941}},{"facility":"Maine Medical Center","city":"Portland","state":"Maine","zip":"04102","country":"United States","geoPoint":{"lat":43.66147,"lon":-70.25533}},{"facility":"University of Maryland Medical Center","city":"Baltimore","state":"Maryland","zip":"21201","country":"United States","geoPoint":{"lat":39.29038,"lon":-76.61219}},{"facility":"Brigham and Women's Hospital","city":"Boston","state":"Massachusetts","zip":"02115","country":"United States","geoPoint":{"lat":42.35843,"lon":-71.05977}},{"facility":"University of Massachusetts Memorial Medical Center","city":"Worcester","state":"Massachusetts","zip":"01655","country":"United States","geoPoint":{"lat":42.26259,"lon":-71.80229}},{"facility":"St. John Providence Hospital, Detroit","city":"Detroit","state":"Michigan","zip":"48236","country":"United States","geoPoint":{"lat":42.33143,"lon":-83.04575}},{"facility":"McLaren Flint","city":"Flint","state":"Michigan","zip":"48532","country":"United States","geoPoint":{"lat":43.01253,"lon":-83.68746}},{"facility":"Abbott Northwestern Hospital","city":"Minneapolis","state":"Minnesota","zip":"55407","country":"United States","geoPoint":{"lat":44.97997,"lon":-93.26384}},{"facility":"Mayo Clinic, Rochester","city":"Rochester","state":"Minnesota","zip":"55905","country":"United States","geoPoint":{"lat":44.02163,"lon":-92.4699}},{"facility":"St. Dominic's - Jackson Memorial Hospital","city":"Jackson","state":"Mississippi","zip":"39216","country":"United States","geoPoint":{"lat":32.29876,"lon":-90.18481}},{"facility":"St. Luke's Hospital of Kansas City","city":"Kansas City","state":"Missouri","zip":"64111","country":"United States","geoPoint":{"lat":39.09973,"lon":-94.57857}},{"facility":"Barnes Jewish Hospital","city":"Saint Louis","state":"Missouri","zip":"63110","country":"United States","geoPoint":{"lat":38.62727,"lon":-90.19789}},{"facility":"Albany Medical Center","city":"Albany","state":"New York","zip":"12208","country":"United States","geoPoint":{"lat":42.65258,"lon":-73.75623}},{"facility":"Buffalo General Medical Center","city":"Buffalo","state":"New York","zip":"14203","country":"United States","geoPoint":{"lat":42.88645,"lon":-78.87837}},{"facility":"Crouse Hospital","city":"Syracuse","state":"New York","zip":"13210","country":"United States","geoPoint":{"lat":43.04812,"lon":-76.14742}},{"facility":"Carolinas Medical Center","city":"Charlotte","state":"North Carolina","zip":"28207","country":"United States","geoPoint":{"lat":35.22709,"lon":-80.84313}},{"facility":"Cleveland Clinic","city":"Cleveland","state":"Ohio","zip":"44195","country":"United States","geoPoint":{"lat":41.4995,"lon":-81.69541}},{"facility":"OhioHealth Riverside Methodist Hospital","city":"Columbus","state":"Ohio","zip":"43214","country":"United States","geoPoint":{"lat":39.96118,"lon":-82.99879}},{"facility":"ProMedica Toledo Hospital","city":"Toledo","state":"Ohio","zip":"43606","country":"United States","geoPoint":{"lat":41.66394,"lon":-83.55521}},{"facility":"Providence St. Vincent Medical Center","city":"Portland","state":"Oregon","zip":"97225","country":"United States","geoPoint":{"lat":45.52345,"lon":-122.67621}},{"facility":"Oregon Health and Science University Hospital","city":"Portland","state":"Oregon","zip":"97239","country":"United States","geoPoint":{"lat":45.52345,"lon":-122.67621}},{"facility":"Geisinger Clinic","city":"Danville","state":"Pennsylvania","zip":"17822","country":"United States","geoPoint":{"lat":40.96342,"lon":-76.61273}},{"facility":"University of Pittsburgh Medical Center","city":"Pittsburgh","state":"Pennsylvania","zip":"15213","country":"United States","geoPoint":{"lat":40.44062,"lon":-79.99589}},{"facility":"Erlanger Medical Center","city":"Chattanooga","state":"Tennessee","zip":"37403","country":"United States","geoPoint":{"lat":35.04563,"lon":-85.30968}},{"facility":"University of Tennessee Medical Center","city":"Knoxville","state":"Tennessee","zip":"37920","country":"United States","geoPoint":{"lat":35.96064,"lon":-83.92074}},{"facility":"Vanderbilt University Medical Center","city":"Nashville","state":"Tennessee","zip":"37212","country":"United States","geoPoint":{"lat":36.16589,"lon":-86.78444}},{"facility":"Baylor University Medical Center","city":"Dallas","state":"Texas","zip":"75246","country":"United States","geoPoint":{"lat":32.78306,"lon":-96.80667}},{"facility":"Valley Baptist Medical Center","city":"Harlingen","state":"Texas","zip":"78550","country":"United States","geoPoint":{"lat":26.19063,"lon":-97.6961}},{"facility":"Memorial Hermann Texas Medical Center","city":"Houston","state":"Texas","zip":"77030","country":"United States","geoPoint":{"lat":29.76328,"lon":-95.36327}},{"facility":"Methodist Hospital, Houston","city":"Houston","state":"Texas","zip":"77030","country":"United States","geoPoint":{"lat":29.76328,"lon":-95.36327}},{"facility":"Virginia Mason Medical Center","city":"Seattle","state":"Washington","zip":"98111","country":"United States","geoPoint":{"lat":47.60621,"lon":-122.33207}},{"facility":"Swedish Medical Center","city":"Seattle","state":"Washington","zip":"98122","country":"United States","geoPoint":{"lat":47.60621,"lon":-122.33207}},{"facility":"West Virginia University/ Ruby Memorial","city":"Morgantown","state":"West Virginia","zip":"26506","country":"United States","geoPoint":{"lat":39.62953,"lon":-79.9559}},{"facility":"Aurora Hospital, Milwaukee","city":"Milwaukee","state":"Wisconsin","zip":"53215","country":"United States","geoPoint":{"lat":43.0389,"lon":-87.90647}},{"facility":"Froedtert Hospital","city":"Milwaukee","state":"Wisconsin","zip":"53226","country":"United States","geoPoint":{"lat":43.0389,"lon":-87.90647}}]},"referencesModule":{"references":[{"pmid":"34504469","type":"DERIVED","citation":"Jahan R, Liebeskind DS, Zaidat OO, Mueller-Kronast NH, Froehler MT, Saver JL. Stent Retriever Thrombectomy for Anterior vs. Posterior Circulation Ischemic Stroke: Analysis of the STRATIS Registry. Front Neurol. 2021 Aug 23;12:706130. doi: 10.3389/fneur.2021.706130. eCollection 2021."},{"pmid":"34311566","type":"DERIVED","citation":"Jumaa MA, Castonguay AC, Salahuddin H, Jadhav AP, Limaye K, Farooqui M, Zaidi SF, Mueller-Kronast N, Liebeskind DS, Zaidat OO, Ortega-Gutierrez S. Middle Cerebral Artery M2 Thrombectomy in the STRATIS Registry. Stroke. 2021 Nov;52(11):3490-3496. doi: 10.1161/STROKEAHA.120.033951. Epub 2021 Jul 27."},{"pmid":"34078106","type":"DERIVED","citation":"Zaidat OO, Liebeskind DS, Jadhav AP, Ortega-Gutierrez S, Nguyen TN, Haussen DC, Yavagal DR, Froehler MT, Jahan R, Nogueira RG, Yao TL, Alenzi BA, Bushnaq S, Mueller-Kronast NH. Impact of Age and Alberta Stroke Program Early Computed Tomography Score 0 to 5 on Mechanical Thrombectomy Outcomes: Analysis From the STRATIS Registry. Stroke. 2021 Jul;52(7):2220-2228. doi: 10.1161/STROKEAHA.120.032430. Epub 2021 Jun 3."},{"pmid":"32385089","type":"DERIVED","citation":"Mueller-Kronast N, Froehler MT, Jahan R, Zaidat O, Liebeskind D, Saver JL; STRATIS Investigators. Impact of EMS bypass to endovascular capable hospitals: geospatial modeling analysis of the US STRATIS registry. J Neurointerv Surg. 2020 Nov;12(11):1058-1063. doi: 10.1136/neurintsurg-2019-015593. Epub 2020 May 8."},{"pmid":"30776994","type":"DERIVED","citation":"Zaidat OO, Mueller-Kronast NH, Hassan AE, Haussen DC, Jadhav AP, Froehler MT, Jahan R, Ali Aziz-Sultan M, Klucznik RP, Saver JL, Hellinger FR Jr, Yavagal DR, Yao TL, Gupta R, Martin CO, Bozorgchami H, Kaushal R, Nogueira RG, Gandhi RH, Peterson EC, Dashti S, Given CA 2nd, Mehta BP, Deshmukh V, Starkman S, Linfante I, McPherson SH, Kvamme P, Grobelny TJ, Hussain MS, Thacker I, Vora N, Chen PR, Monteith SJ, Ecker RD, Schirmer CM, Sauvageau E, Chebl AB, Derdeyn CP, Maidan L, Badruddin A, Siddiqui AH, Dumont TM, Alhajeri A, Taqi MA, Asi K, Carpenter J, Boulos A, Jindal G, Puri AS, Chitale R, Deshaies EM, Robinson D, Kallmes DF, Baxter BW, Jumaa M, Sunenshine P, Majjhoo A, English JD, Suzuki S, Fessler RD, Delgado-Almandoz J, Martin JC, Liebeskind DS; STRATIS Investigators. Impact of Balloon Guide Catheter Use on Clinical and Angiographic Outcomes in the STRATIS Stroke Thrombectomy Registry. Stroke. 2019 Mar;50(3):697-704. doi: 10.1161/STROKEAHA.118.021126."},{"pmid":"30626287","type":"DERIVED","citation":"Zaidat OO, Haussen DC, Hassan AE, Jadhav AP, Mehta BP, Mokin M, Mueller-Kronast NH, Froehler MT. Impact of Stent Retriever Size on Clinical and Angiographic Outcomes in the STRATIS Stroke Thrombectomy Registry. Stroke. 2019 Feb;50(2):441-447. doi: 10.1161/STROKEAHA.118.022987."},{"pmid":"28943516","type":"DERIVED","citation":"Froehler MT, Saver JL, Zaidat OO, Jahan R, Aziz-Sultan MA, Klucznik RP, Haussen DC, Hellinger FR Jr, Yavagal DR, Yao TL, Liebeskind DS, Jadhav AP, Gupta R, Hassan AE, Martin CO, Bozorgchami H, Kaushal R, Nogueira RG, Gandhi RH, Peterson EC, Dashti SR, Given CA 2nd, Mehta BP, Deshmukh V, Starkman S, Linfante I, McPherson SH, Kvamme P, Grobelny TJ, Hussain MS, Thacker I, Vora N, Chen PR, Monteith SJ, Ecker RD, Schirmer CM, Sauvageau E, Abou-Chebl A, Derdeyn CP, Maidan L, Badruddin A, Siddiqui AH, Dumont TM, Alhajeri A, Taqi MA, Asi K, Carpenter J, Boulos A, Jindal G, Puri AS, Chitale R, Deshaies EM, Robinson DH, Kallmes DF, Baxter BW, Jumaa MA, Sunenshine P, Majjhoo A, English JD, Suzuki S, Fessler RD, Delgado Almandoz JE, Martin JC, Mueller-Kronast NH; STRATIS Investigators. Interhospital Transfer Before Thrombectomy Is Associated With Delayed Treatment and Worse Outcome in the STRATIS Registry (Systematic Evaluation of Patients Treated With Neurothrombectomy Devices for Acute Ischemic Stroke). Circulation. 2017 Dec 12;136(24):2311-2321. doi: 10.1161/CIRCULATIONAHA.117.028920. Epub 2017 Sep 24."},{"pmid":"28830971","type":"DERIVED","citation":"Mueller-Kronast NH, Zaidat OO, Froehler MT, Jahan R, Aziz-Sultan MA, Klucznik RP, Saver JL, Hellinger FR Jr, Yavagal DR, Yao TL, Liebeskind DS, Jadhav AP, Gupta R, Hassan AE, Martin CO, Bozorgchami H, Kaushal R, Nogueira RG, Gandhi RH, Peterson EC, Dashti SR, Given CA 2nd, Mehta BP, Deshmukh V, Starkman S, Linfante I, McPherson SH, Kvamme P, Grobelny TJ, Hussain MS, Thacker I, Vora N, Chen PR, Monteith SJ, Ecker RD, Schirmer CM, Sauvageau E, Abou-Chebl A, Derdeyn CP, Maidan L, Badruddin A, Siddiqui AH, Dumont TM, Alhajeri A, Taqi MA, Asi K, Carpenter J, Boulos A, Jindal G, Puri AS, Chitale R, Deshaies EM, Robinson DH, Kallmes DF, Baxter BW, Jumaa MA, Sunenshine P, Majjhoo A, English JD, Suzuki S, Fessler RD, Delgado Almandoz JE, Martin JC, Haussen DC; STRATIS Investigators. Systematic Evaluation of Patients Treated With Neurothrombectomy Devices for Acute Ischemic Stroke: Primary Results of the STRATIS Registry. Stroke. 2017 Oct;48(10):2760-2768. doi: 10.1161/STROKEAHA.117.016456. Epub 2017 Aug 22."}]},"ipdSharingStatementModule":{"ipdSharing":"NO","description":"Only multi center data will be available"}},"resultsSection":{"participantFlowModule":{"groups":[{"id":"FG000","title":"Non-Randomized","description":"Observation registry."}],"periods":[{"title":"Overall Study","milestones":[{"type":"STARTED","achievements":[{"groupId":"FG000","numSubjects":"984"}]},{"type":"COMPLETED","achievements":[{"groupId":"FG000","numSubjects":"767"}]},{"type":"NOT COMPLETED","achievements":[{"groupId":"FG000","numSubjects":"217"}]}],"dropWithdraws":[{"type":"Withdrawal by Subject","reasons":[{"groupId":"FG000","numSubjects":"3"}]},{"type":"Lost to Follow-up","reasons":[{"groupId":"FG000","numSubjects":"72"}]},{"type":"Death","reasons":[{"groupId":"FG000","numSubjects":"142"}]}]}]},"baselineCharacteristicsModule":{"groups":[{"id":"BG000","title":"Overall Study","description":"Subjects enrolled"}],"denoms":[{"units":"Participants","counts":[{"groupId":"BG000","value":"984"}]}],"measures":[{"title":"Age, Continuous","paramType":"MEAN","dispersionType":"STANDARD_DEVIATION","unitOfMeasure":"years","classes":[{"denoms":[{"units":"Participants","counts":[{"groupId":"BG000","value":"984"}]}],"categories":[{"measurements":[{"groupId":"BG000","value":"67.8","spread":"14.73"}]}]}]},{"title":"Sex: Female, Male","paramType":"COUNT_OF_PARTICIPANTS","unitOfMeasure":"Participants","classes":[{"denoms":[{"units":"Participants","counts":[{"groupId":"BG000","value":"984"}]}],"categories":[{"title":"Female","measurements":[{"groupId":"BG000","value":"451"}]},{"title":"Male","measurements":[{"groupId":"BG000","value":"533"}]}]}]},{"title":"Race and Ethnicity Not Collected","populationDescription":"Race and Ethnicity were not collected from any participant.","paramType":"COUNT_OF_PARTICIPANTS","unitOfMeasure":"Participants","classes":[{"denoms":[{"units":"Participants","counts":[{"groupId":"BG000","value":"0"}]}]}]}]},"outcomeMeasuresModule":{"outcomeMeasures":[{"type":"PRIMARY","title":"Number of Participants Assessed for Revascularization With mTICI Grades 2b-3","description":"Assess revascularization using modified Thrombolysis in Cerebral Infarction (mTICI) score at the end of the procedure. This scale determines the response of therapy for ischemic stroke based on angiographic appearances of the treated occluded vessel and the distal branches.\n\nClassification:\n\ngrade 0: no perfusion grade 1: antegrade reperfusion past the initial occlusion, but limited distal branch filling with little or slow distal reperfusion grade 2a: antegrade reperfusion of less than half of the occluded target artery previously ischemic territory grade 2b: antegrade reperfusion of more than half of the previously occluded target artery ischemic territory grade 3: complete antegrade reperfusion of the previously occluded target artery ischemic territory, with absence of visualized occlusion in all distal branches (higher values represent better outcomes)","populationDescription":"824 participants contributed to this analysis","reportingStatus":"POSTED","paramType":"COUNT_OF_PARTICIPANTS","unitOfMeasure":"Participants","timeFrame":"Day 0-At the completion of the thrombectomy procedure","groups":[{"id":"OG000","title":"Successful Revascularization","description":"Successful reperfusion (mTICI 2b-3) per imaging core lab"}],"denoms":[{"units":"Participants","counts":[{"groupId":"OG000","value":"824"}]}],"classes":[{"categories":[{"measurements":[{"groupId":"OG000","value":"724"}]}]}]},{"type":"SECONDARY","title":"Incidence of Neurological Events of Interest","description":"Evaluate events causing neurological deterioration (defined as ≥ 4 worsening points from baseline on the NIHSS scale)","reportingStatus":"POSTED","paramType":"COUNT_OF_PARTICIPANTS","unitOfMeasure":"Participants","timeFrame":"up to 90 days post index procedure","groups":[{"id":"OG000","title":"Neurological Deterioration","description":"Neurological Deterioration up to 90 days (any event causing neurological deterioration; defined as ≥ 4 points worsening from baseline on the NIHSS scale)."}],"denoms":[{"units":"Participants","counts":[{"groupId":"OG000","value":"984"}]}],"classes":[{"categories":[{"measurements":[{"groupId":"OG000","value":"91"}]}]}]},{"type":"OTHER_PRE_SPECIFIED","title":"All-cause Mortality","reportingStatus":"POSTED","paramType":"COUNT_OF_PARTICIPANTS","unitOfMeasure":"Participants","timeFrame":"up to 90 days post index procedure","groups":[{"id":"OG000","title":"All-cause Mortality","description":"All cause mortality up to 90 days post index stroke procedure"}],"denoms":[{"units":"Participants","counts":[{"groupId":"OG000","value":"984"}]}],"classes":[{"categories":[{"measurements":[{"groupId":"OG000","value":"142"}]}]}]},{"type":"OTHER_PRE_SPECIFIED","title":"Number of Participants With Good Functional Outcome (mRS 0-2)","description":"Score based on modified Rankin Scale (mRS). The modified Rankin Scale (mRS) is a scale used to measure the degree of disability or dependence in daily activities of people who has had a stroke.\n\nClasiffication:\n\n0 - No symptoms.\n\n1. - No significant disability. Able to carry out all usual activities, despite some symptoms.\n2. - Slight disability. Able to look after own affairs without assistance, but unable to carry out all previous activities.\n3. - Moderate disability. Requires some help, but able to walk unassisted.\n4. - Moderately severe disability. Unable to attend to own bodily needs without assistance, and unable to walk unassisted.\n5. - Severe disability. Requires constant nursing care and attention, bedridden, incontinent.\n6. - Dead. (lower values represent less disability)","populationDescription":"906 participants contributed to this analysis","reportingStatus":"POSTED","paramType":"COUNT_OF_PARTICIPANTS","unitOfMeasure":"Participants","timeFrame":"90 days post index procedure","groups":[{"id":"OG000","title":"mRS at 90 Days","description":"mRS (0-2) at 90 Days"}],"denoms":[{"units":"Participants","counts":[{"groupId":"OG000","value":"906"}]}],"classes":[{"categories":[{"measurements":[{"groupId":"OG000","value":"512"}]}]}]},{"type":"OTHER_PRE_SPECIFIED","title":"Incidence of Device Related Serious Adverse Events","description":"Any device-related serious adverse events associated with the use of a Covidien/Medtronic market-released neurothrombectomy device during the index stroke procedure up to 90 days post index stroke procedure.","reportingStatus":"POSTED","paramType":"COUNT_OF_PARTICIPANTS","unitOfMeasure":"Participants","timeFrame":"up to 90 days post index procedure","groups":[{"id":"OG000","title":"Study Device-related SAEs (Site Reported)","description":"Incidence of study device-related SAEs \\<= 90 days post procedure"}],"denoms":[{"units":"Participants","counts":[{"groupId":"OG000","value":"984"}]}],"classes":[{"categories":[{"measurements":[{"groupId":"OG000","value":"2"}]}]}]},{"type":"OTHER_PRE_SPECIFIED","title":"Time to Revascularization","description":"Arterial access puncture to revascularization measured in minutes. Lower values indicate shorter time to revascularization and vice versa.","populationDescription":"939 patients were analyzed","reportingStatus":"POSTED","paramType":"MEAN","dispersionType":"Standard Deviation","unitOfMeasure":"minutes","timeFrame":"Day 0-At the completion of the thrombectomy procedure","groups":[{"id":"OG000","title":"Time to Revascularization","description":"Puncture to TICI 2b-3 or completion"}],"denoms":[{"units":"Participants","counts":[{"groupId":"OG000","value":"939"}]}],"classes":[{"categories":[{"measurements":[{"groupId":"OG000","value":"45.6","spread":"29.0"}]}]}]},{"type":"OTHER_PRE_SPECIFIED","title":"Incidence of Procedure Related Serious Adverse Events","description":"Any procedure related serious adverse events occurring upon insertion of a Covidien/Medtronic market-released neurothrombectomy device during the index stroke procedure up to 90 days post index stroke procedure.","reportingStatus":"POSTED","paramType":"COUNT_OF_PARTICIPANTS","unitOfMeasure":"Participants","timeFrame":"up to 90 days post index procedure","groups":[{"id":"OG000","title":"Procedure-related SAEs (Site Reported)","description":"Incidence of procedure-related SAEs \\<= 90 days post procedure"}],"denoms":[{"units":"Participants","counts":[{"groupId":"OG000","value":"984"}]}],"classes":[{"categories":[{"measurements":[{"groupId":"OG000","value":"17"}]}]}]}]},"adverseEventsModule":{"frequencyThreshold":"0","timeFrame":"Up to 90 days post index stroke procedure","description":"Per protocol SAEs were collected up to 90 days post index stroke procedure: all-cause mortality, device-related SAE associated with the use of Covidien/Medtronic market-released neurothrombectomy device during the index stroke procedure and procedure related SAE occurring upon insertion of Covidien/Medtronic market-released neurothrombectomy device during the index stroke procedure. Non-SAEs were not required to be collected per protocol.","eventGroups":[{"id":"EG000","title":"Adverse Events","description":"Serious adverse events reported per protocol during the study","deathsNumAffected":142,"deathsNumAtRisk":984,"seriousNumAffected":19,"seriousNumAtRisk":984,"otherNumAffected":0,"otherNumAtRisk":0}],"seriousEvents":[{"term":"Cartotid Artery Dissection","organSystem":"Nervous system disorders","assessmentType":"NON_SYSTEMATIC_ASSESSMENT","notes":"Study device-related SAE","stats":[{"groupId":"EG000","numEvents":1,"numAffected":1,"numAtRisk":984}]},{"term":"Subarachnoid haemorrhage","organSystem":"Nervous system disorders","assessmentType":"NON_SYSTEMATIC_ASSESSMENT","notes":"Study device-related SAE","stats":[{"groupId":"EG000","numEvents":1,"numAffected":1,"numAtRisk":984}]},{"term":"Arteriovenous fistula","organSystem":"Vascular disorders","assessmentType":"NON_SYSTEMATIC_ASSESSMENT","notes":"Index procedure-related SAE","stats":[{"groupId":"EG000","numEvents":1,"numAffected":1,"numAtRisk":984}]},{"term":"Carotid artery dissection","organSystem":"Nervous system disorders","assessmentType":"NON_SYSTEMATIC_ASSESSMENT","notes":"Index procedure-related SAE","stats":[{"groupId":"EG000","numEvents":2,"numAffected":2,"numAtRisk":984}]},{"term":"Cerebral haemorrhage","organSystem":"Nervous system disorders","assessmentType":"NON_SYSTEMATIC_ASSESSMENT","notes":"Index procedure-related SAE","stats":[{"groupId":"EG000","numEvents":3,"numAffected":3,"numAtRisk":984}]},{"term":"Femoral artery dissection","organSystem":"Vascular disorders","assessmentType":"NON_SYSTEMATIC_ASSESSMENT","notes":"Index procedure-related SAE","stats":[{"groupId":"EG000","numEvents":1,"numAffected":1,"numAtRisk":984}]},{"term":"Headache","organSystem":"Nervous system disorders","assessmentType":"NON_SYSTEMATIC_ASSESSMENT","notes":"Index procedure-related SAE","stats":[{"groupId":"EG000","numEvents":1,"numAffected":1,"numAtRisk":984}]},{"term":"Hypotension","organSystem":"Vascular disorders","assessmentType":"NON_SYSTEMATIC_ASSESSMENT","notes":"Index procedure-related SAE","stats":[{"groupId":"EG000","numEvents":1,"numAffected":1,"numAtRisk":984}]},{"term":"Neurological decompensation","organSystem":"Nervous system disorders","assessmentType":"NON_SYSTEMATIC_ASSESSMENT","notes":"Index procedure-related SAE","stats":[{"groupId":"EG000","numEvents":1,"numAffected":1,"numAtRisk":984}]},{"term":"Peripheral artery thrombosis","organSystem":"Vascular disorders","assessmentType":"NON_SYSTEMATIC_ASSESSMENT","notes":"Index procedure-related SAE","stats":[{"groupId":"EG000","numEvents":1,"numAffected":1,"numAtRisk":984}]},{"term":"Peripheral vascular disorder","organSystem":"Vascular disorders","assessmentType":"NON_SYSTEMATIC_ASSESSMENT","notes":"Index procedure-related SAE","stats":[{"groupId":"EG000","numEvents":1,"numAffected":1,"numAtRisk":984}]},{"term":"Stroke in evolution","organSystem":"Nervous system disorders","assessmentType":"NON_SYSTEMATIC_ASSESSMENT","notes":"Index procedure-related SAE","stats":[{"groupId":"EG000","numEvents":3,"numAffected":3,"numAtRisk":984}]},{"term":"Subarachnoid haemorrhage","organSystem":"Nervous system disorders","assessmentType":"NON_SYSTEMATIC_ASSESSMENT","notes":"Index procedure-related SAE","stats":[{"groupId":"EG000","numEvents":5,"numAffected":5,"numAtRisk":984}]},{"term":"Unresponsive to stimuli","organSystem":"Nervous system disorders","assessmentType":"NON_SYSTEMATIC_ASSESSMENT","notes":"Index procedure-related SAE","stats":[{"groupId":"EG000","numEvents":1,"numAffected":1,"numAtRisk":984}]},{"term":"Vasospasm","organSystem":"Vascular disorders","assessmentType":"NON_SYSTEMATIC_ASSESSMENT","notes":"Index procedure-related SAE","stats":[{"groupId":"EG000","numEvents":1,"numAffected":1,"numAtRisk":984}]},{"term":"Vessel perforation","organSystem":"Vascular disorders","assessmentType":"NON_SYSTEMATIC_ASSESSMENT","notes":"Index procedure-related SAE","stats":[{"groupId":"EG000","numEvents":1,"numAffected":1,"numAtRisk":984}]}]},"moreInfoModule":{"certainAgreement":{"piSponsorEmployee":false,"restrictionType":"OTHER","restrictiveAgreement":true,"otherDetails":"Researchers may Publish their individual site experience, but Sponsor reserves the exclusive right to Publish (or coordinate the Publication of) the complete accumulated results of the Registry, and to establish authorship criteria for such Publications for the Registry group based on Registry conduct and compliance, contribution to the Registry's design, management or enrollment and willingness to accept the rights and responsibilities of an author."},"pointOfContact":{"title":"Oscar Bolanos","organization":"Medtronic","email":"Oscar.bolanos@medtronic.com","phone":"949-527-0822"}}},"derivedSection":{"miscInfoModule":{"versionHolder":"2024-02-14"},"conditionBrowseModule":{"meshes":[{"id":"D000020521","term":"Stroke"},{"id":"D000083242","term":"Ischemic Stroke"},{"id":"D000002544","term":"Cerebral Infarction"},{"id":"D000007511","term":"Ischemia"}],"ancestors":[{"id":"D000002561","term":"Cerebrovascular Disorders"},{"id":"D000001927","term":"Brain Diseases"},{"id":"D000002493","term":"Central Nervous System Diseases"},{"id":"D000009422","term":"Nervous System Diseases"},{"id":"D000014652","term":"Vascular Diseases"},{"id":"D000002318","term":"Cardiovascular Diseases"},{"id":"D000010335","term":"Pathologic Processes"},{"id":"D000020520","term":"Brain Infarction"},{"id":"D000002545","term":"Brain Ischemia"},{"id":"D000007238","term":"Infarction"},{"id":"D000009336","term":"Necrosis"}],"browseLeaves":[{"id":"M21996","name":"Stroke","asFound":"Stroke","relevance":"HIGH"},{"id":"M10233","name":"Ischemia","asFound":"Ischemic","relevance":"HIGH"},{"id":"M2401","name":"Ischemic Stroke","asFound":"Ischemic Stroke","relevance":"HIGH"},{"id":"M9972","name":"Infarction","relevance":"LOW"},{"id":"M5483","name":"Cerebral Infarction","asFound":"Ischemic Stroke","relevance":"HIGH"},{"id":"M5500","name":"Cerebrovascular Disorders","relevance":"LOW"},{"id":"M4894","name":"Brain Diseases","relevance":"LOW"},{"id":"M5432","name":"Central Nervous System Diseases","relevance":"LOW"},{"id":"M17090","name":"Vascular Diseases","relevance":"LOW"},{"id":"M21995","name":"Brain Infarction","relevance":"LOW"},{"id":"M5484","name":"Brain Ischemia","relevance":"LOW"},{"id":"M11974","name":"Necrosis","relevance":"LOW"},{"id":"T170","name":"Acute Graft Versus Host Disease","relevance":"LOW"}],"browseBranches":[{"abbrev":"BC10","name":"Nervous System Diseases"},{"abbrev":"BC14","name":"Heart and Blood Diseases"},{"abbrev":"All","name":"All Conditions"},{"abbrev":"BC23","name":"Symptoms and General Pathology"},{"abbrev":"Rare","name":"Rare Diseases"}]}},"hasResults":true}