{"protocolSection":{"identificationModule":{"nctId":"NCT03812653","orgStudyIdInfo":{"id":"HUM00147316"},"secondaryIdInfos":[{"id":"1U01NS099043-01A1","type":"NIH","link":"https://reporter.nih.gov/quickSearch/1U01NS099043-01A1"}],"organization":{"fullName":"University of Michigan","class":"OTHER"},"briefTitle":"Sleep for Stroke Management and Recovery Trial","officialTitle":"Sleep for Stroke Management and Recovery Trial","acronym":"Sleep SMART"},"statusModule":{"statusVerifiedDate":"2023-12","overallStatus":"RECRUITING","expandedAccessInfo":{"hasExpandedAccess":false},"startDateStruct":{"date":"2019-05-09","type":"ACTUAL"},"primaryCompletionDateStruct":{"date":"2026-11","type":"ESTIMATED"},"completionDateStruct":{"date":"2026-11","type":"ESTIMATED"},"studyFirstSubmitDate":"2019-01-18","studyFirstSubmitQcDate":"2019-01-18","studyFirstPostDateStruct":{"date":"2019-01-23","type":"ACTUAL"},"lastUpdateSubmitDate":"2023-12-19","lastUpdatePostDateStruct":{"date":"2023-12-21","type":"ACTUAL"}},"sponsorCollaboratorsModule":{"responsibleParty":{"type":"PRINCIPAL_INVESTIGATOR","investigatorFullName":"Devin L. Brown, MD","investigatorTitle":"Professor of Neurology","investigatorAffiliation":"University of Michigan"},"leadSponsor":{"name":"University of Michigan","class":"OTHER"},"collaborators":[{"name":"National Institute of Neurological Disorders and Stroke (NINDS)","class":"NIH"},{"name":"FusionHealth LLC","class":"UNKNOWN"},{"name":"Medical University of South Carolina","class":"OTHER"},{"name":"University of Cincinnati","class":"OTHER"}]},"oversightModule":{"oversightHasDmc":true,"isFdaRegulatedDrug":false,"isFdaRegulatedDevice":true,"isUsExport":false},"descriptionModule":{"briefSummary":"The purpose of this study is to determine whether treatment of obstructive sleep apnea (OSA) with positive airway pressure starting shortly after acute ischemic stroke or high risk TIA (1) reduces recurrent stroke, acute coronary syndrome, and all-cause mortality 6 months after the event, and (2) improves stroke outcomes at 3 months in patients who experienced an ischemic stroke.","detailedDescription":"Sleep SMART has a prospective, randomized, open-label, blinded-endpoint (PROBE) design. It is a multi-site, parallel-group superiority trial that compares 6 months of OSA treatment to usual care. The study includes two trials: a prevention study with an embedded recovery trial. 3062 subjects will be randomized over 5 years at 110 sites within the NINDS-funded StrokeNet clinical trials network."},"conditionsModule":{"conditions":["Ischemic Stroke","Sleep Apnea","Sleep Apnea, Obstructive","TIA","Stroke","CPAP","Telemedicine","Home Sleep Apnea Test","Randomized Clinical Trial","Multicenter Trial"]},"designModule":{"studyType":"INTERVENTIONAL","phases":["NA"],"designInfo":{"allocation":"RANDOMIZED","interventionModel":"PARALLEL","interventionModelDescription":"Intervention group receives automatically adjusting continuous positive airway pressure (CPAP) plus usual care.The control group receives usual care.","primaryPurpose":"PREVENTION","maskingInfo":{"masking":"SINGLE","maskingDescription":"Eligible participants will be allocated in a 1:1 fashion to CPAP or no CPAP using a randomization method to protect subject treatment allocation and prevent potential selection biases.","whoMasked":["OUTCOMES_ASSESSOR"]}},"enrollmentInfo":{"count":3062,"type":"ESTIMATED"}},"armsInterventionsModule":{"armGroups":[{"label":"Intervention Arm: CPAP with Usual Care.","type":"EXPERIMENTAL","description":"6 months of CPAP plus usual medical therapy.","interventionNames":["Device: CPAP"]},{"label":"Control Arm: Usual Care.","type":"NO_INTERVENTION","description":"6 months of usual medical therapy alone."}],"interventions":[{"type":"DEVICE","name":"CPAP","description":"Automatically-adjusting continuous positive airway pressure (CPAP) delivered using a study supplied device.","armGroupLabels":["Intervention Arm: CPAP with Usual Care."]}]},"outcomesModule":{"primaryOutcomes":[{"measure":"Time to Event Combined Outcome: new ischemic stroke, acute coronary syndrome, or all-cause mortality","description":"The primary outcome is a time-to-event outcome defined as a participant having at least one of the following events within 6-months from randomization: new ischemic stroke, acute coronary syndrome or all-cause mortality","timeFrame":"6 months post randomization"},{"measure":"Modified Rankin Scale Score","description":"Functional outcome as measured by the 9 question modified Rankin Scale (mRS-9Q). The mRS-9Q has 9 questions related to level of function. Outcomes range from 0 (no symptoms) to 6 (death).","timeFrame":"3 months post randomization"}],"secondaryOutcomes":[{"measure":"NIH Stroke Score (NIHSS)","description":"Neurological outcome is measured by the NIHSS. The NIHSS scale ranges from 0 (no deficits) to 42.","timeFrame":"3 months post randomization"},{"measure":"Short Montreal Cognitive Assessment (MoCA) Score","description":"Cognitive outcome is measured by the Short MoCA. The short MoCA is a 5 minute short version of the Montreal Cognitive Assessment (MoCA). This instrument tests phonemic verbal fluency (1 point), delayed recall (5 points), and orientation (6 points) with a score ranging from 0-12.","timeFrame":"3 months post randomization"},{"measure":"Quality of Life outcome","description":"Quality of life outcome is measured by the shortened Stroke Specific Quality of Life Scale (SS-QOL). The short SS-QOL has 7 domains that include physical function, language, vision, thinking, energy, mood, and role function. There is 1 question from each domain. The 12 item SS-QOL is calculated by averaging the scores of these 12 questions.","timeFrame":"3 months post randomization"}]},"eligibilityModule":{"eligibilityCriteria":"Inclusion Criteria:\n\n1. TIA with ABCD2 â‰¥4 or ischemic stroke, within the prior 14 days.\n\nExclusion Criteria:\n\n1. pre-event inability to perform all of own basic ADLs\n2. unable to obtain informed consent from subject or legally authorized representative\n3. incarcerated\n4. known pregnancy\n5. current mechanical ventilation (can enroll later if this resolves) or tracheostomy\n6. current use of positive airway pressure, or use within one month prior to stroke\n7. anatomical or dermatologic anomaly that makes use of CPAP interface unfeasible\n8. severe bullous lung disease\n9. history of prior spontaneous pneumothorax or current pneumothorax\n10. hypotension requiring current treatment with pressors (can enroll later if this resolves)\n11. other specific medical circumstances that conceivably, in the opinion of the site PI, could render the patient at risk of harm from use of CPAP\n12. massive epistaxis or previous history of massive epistaxis\n13. cranial surgery or head trauma within the past 6 months, with known or possible CSF leak or pneumocephalus\n14. recent hemicraniectomy or suboccipital craniectomy (i.e. those whose bone has not yet been replaced), or any other recent bone removal procedure for relief of intracranial pressure\n15. current receipt of oxygen supplementation \\>4 liters per minute\n16. current contact, droplet, respiratory/airborne precautions","healthyVolunteers":false,"sex":"ALL","minimumAge":"18 Years","stdAges":["ADULT","OLDER_ADULT"]},"contactsLocationsModule":{"centralContacts":[{"name":"Kayla Novitski, MPH, CCRP","role":"CONTACT","phone":"734-615-2006","email":"kcgossel@med.umich.edu"},{"name":"Joelle Sickler, MSN, CCRC, CCRA","role":"CONTACT","email":"sicklejb@ucmail.uc.edu"}],"overallOfficials":[{"name":"Devin Brown, MD, MS","affiliation":"University of Michigan","role":"PRINCIPAL_INVESTIGATOR"},{"name":"Ronald Chervin, MD, MS","affiliation":"University of Michigan","role":"PRINCIPAL_INVESTIGATOR"}],"locations":[{"facility":"University of Alabama Hospital","status":"RECRUITING","city":"Birmingham","state":"Alabama","zip":"35294","country":"United States","contacts":[{"name":"Tammy Davis","role":"CONTACT","email":"trdavis@uabmc.edu"},{"name":"Soo Young Kwon, MD","role":"PRINCIPAL_INVESTIGATOR"}],"geoPoint":{"lat":33.52066,"lon":-86.80249}},{"facility":"Chandler Regional Medical Center","status":"RECRUITING","city":"Chandler","state":"Arizona","zip":"85224","country":"United States","contacts":[{"name":"Allegra Sahelian","role":"CONTACT","email":"allegra.sahelian900@commonspirit.org"},{"name":"Dan Joseph Capampangan, MD","role":"PRINCIPAL_INVESTIGATOR"}],"geoPoint":{"lat":33.30616,"lon":-111.84125}},{"facility":"Banner University Medical Center Phoenix","status":"RECRUITING","city":"Phoenix","state":"Arizona","zip":"85006","country":"United States","contacts":[{"name":"Carmen Galaz","role":"CONTACT","email":"cgalaz@arizona.edu"},{"name":"Joyce Lee Lannotti, MD","role":"PRINCIPAL_INVESTIGATOR"}],"geoPoint":{"lat":33.44838,"lon":-112.07404}},{"facility":"Dignity Health - St. Joseph's Hospital and Medical Center","status":"RECRUITING","city":"Phoenix","state":"Arizona","zip":"85013","country":"United States","contacts":[{"name":"Liz Campbell","role":"CONTACT","email":"Liz.Campbell@commonspirit.org"},{"name":"Supreet Kaur, MD","role":"PRINCIPAL_INVESTIGATOR"}],"geoPoint":{"lat":33.44838,"lon":-112.07404}},{"facility":"Mayo Clinic Arizona","status":"RECRUITING","city":"Phoenix","state":"Arizona","zip":"85054","country":"United States","contacts":[{"name":"Stephanie Ruiz Morales","role":"CONTACT","email":"RuizMorales.Stephanie@mayo.edu"},{"name":"Oana Dumitrascu, MD","role":"PRINCIPAL_INVESTIGATOR"}],"geoPoint":{"lat":33.44838,"lon":-112.07404}},{"facility":"TMC Healthcare","status":"RECRUITING","city":"Tucson","state":"Arizona","zip":"85712","country":"United States","contacts":[{"name":"Mary Marsh","role":"CONTACT","email":"mary.marsh@tmcaz.com"},{"name":"David Teeple, MD","role":"PRINCIPAL_INVESTIGATOR"}],"geoPoint":{"lat":32.22174,"lon":-110.92648}},{"facility":"Banner- University Medical Center Tucson","status":"RECRUITING","city":"Tucson","state":"Arizona","zip":"85719","country":"United States","contacts":[{"name":"Shriya Kavathia","role":"CONTACT","email":"shriyakavathia@arizona.edu"},{"name":"Firas Kaddouh, MD","role":"PRINCIPAL_INVESTIGATOR"}],"geoPoint":{"lat":32.22174,"lon":-110.92648}},{"facility":"Mercy San Juan Medical Center","status":"RECRUITING","city":"Carmichael","state":"California","zip":"95608","country":"United States","contacts":[{"name":"Danielle Hornbuckle","role":"CONTACT","email":"danielle.hornbuckle@commonspirit.org"},{"name":"Lucian Maidan, MD","role":"PRINCIPAL_INVESTIGATOR"}],"geoPoint":{"lat":38.61713,"lon":-121.32828}},{"facility":"Rancho Los Amigos National Rehabilitation Center","status":"RECRUITING","city":"Downey","state":"California","zip":"90242","country":"United States","contacts":[{"name":"Marielena Meza","role":"CONTACT","email":"marielenam@ranchoresearch.org"},{"name":"Susan Shaw, MD","role":"PRINCIPAL_INVESTIGATOR"}],"geoPoint":{"lat":33.94001,"lon":-118.13257}},{"facility":"Scripps Memorial","status":"NOT_YET_RECRUITING","city":"La Jolla","state":"California","zip":"92037","country":"United States","contacts":[{"name":"Sandra Sanchez","role":"CONTACT","email":"Sanchez.Sandra2@scrippshealth.org"},{"name":"Mary Kalafut, MD","role":"PRINCIPAL_INVESTIGATOR"}],"geoPoint":{"lat":32.84727,"lon":-117.2742}},{"facility":"UCSD Health La Jolla","status":"RECRUITING","city":"La Jolla","state":"California","zip":"92103","country":"United States","contacts":[{"name":"Theresa McQuaid","role":"CONTACT","email":"tmcquaid@ucsd.edu"},{"name":"Dawn Meyer, PhD","role":"PRINCIPAL_INVESTIGATOR"}],"geoPoint":{"lat":32.84727,"lon":-117.2742}},{"facility":"Cedars-Sinai Medical Center","status":"RECRUITING","city":"Los Angeles","state":"California","zip":"90048","country":"United States","contacts":[{"name":"Vicki Manoukian","role":"CONTACT","email":"vicki.manoukian@cshs.org"},{"name":"Konrad Schlick, MD","role":"PRINCIPAL_INVESTIGATOR"}],"geoPoint":{"lat":34.05223,"lon":-118.24368}},{"facility":"Ronald Reagan UCLA Medical Center","status":"RECRUITING","city":"Los Angeles","state":"California","zip":"90095","country":"United States","contacts":[{"name":"Sucheta Waghmare","role":"CONTACT","email":"SWaghmare@mednet.ucla.edu"},{"name":"Alon Avidan, MD","role":"PRINCIPAL_INVESTIGATOR"}],"geoPoint":{"lat":34.05223,"lon":-118.24368}},{"facility":"Kaiser Permanente Los Angeles","status":"RECRUITING","city":"Los Angeles","state":"California","zip":"94612","country":"United States","contacts":[{"name":"Ashima Sharma","role":"CONTACT","email":"Ashima.X.Sharma@kp.org"},{"name":"Prasanth Manthena, MD","role":"PRINCIPAL_INVESTIGATOR"}],"geoPoint":{"lat":34.05223,"lon":-118.24368}},{"facility":"Doctors Medical Center of Modesto","status":"RECRUITING","city":"Modesto","state":"California","zip":"95355","country":"United States","contacts":[{"name":"Dharati Trivedi","role":"CONTACT","email":"Dharati.trivedi@tenethealth.com"},{"name":"James Jaffe, MD","role":"PRINCIPAL_INVESTIGATOR"}],"geoPoint":{"lat":37.6391,"lon":-120.99688}},{"facility":"UCLA Kaiser Fontana","status":"RECRUITING","city":"Ontario","state":"California","zip":"91761","country":"United States","contacts":[{"name":"Vanessa Audea","role":"CONTACT","email":"vanessa@audea@kp.org"},{"name":"Conrad Liang, MD","role":"PRINCIPAL_INVESTIGATOR"}],"geoPoint":{"lat":34.06334,"lon":-117.65089}},{"facility":"UC Irvine","status":"RECRUITING","city":"Orange","state":"California","zip":"92868","country":"United States","contacts":[{"name":"Josue Prado","role":"CONTACT","email":"josuep2@hs.uci.edu"},{"name":"Masaki Nagamine, MD","role":"PRINCIPAL_INVESTIGATOR"}],"geoPoint":{"lat":33.78779,"lon":-117.85311}},{"facility":"Casa Colina","status":"RECRUITING","city":"Pomona","state":"California","zip":"91767","country":"United States","contacts":[{"name":"Jeanette Gumarang","role":"CONTACT","email":"jgumarang@casacolina.org"},{"name":"Caroline Schnakers, PhD","role":"PRINCIPAL_INVESTIGATOR"}],"geoPoint":{"lat":34.05529,"lon":-117.75228}},{"facility":"UC Davis Medical Center","status":"RECRUITING","city":"Sacramento","state":"California","zip":"95817","country":"United States","contacts":[{"name":"Andrea Sevilla","role":"CONTACT","email":"amdiazsevilla@ucdavis.edu"},{"name":"Kwan Ng, MD","role":"PRINCIPAL_INVESTIGATOR"}],"geoPoint":{"lat":38.58157,"lon":-121.4944}},{"facility":"UCSD Medical Center - Hillcrest Hospital","status":"RECRUITING","city":"San Diego","state":"California","zip":"92103","country":"United States","contacts":[{"name":"Theresa McQuaid","role":"CONTACT","email":"tmcquaid@ucsd.edu"},{"name":"Dawn Meyer, PhD","role":"PRINCIPAL_INVESTIGATOR"}],"geoPoint":{"lat":32.71533,"lon":-117.15726}},{"facility":"UCSF Helen Diller Medical Center at Parnassus Heights","status":"RECRUITING","city":"San Francisco","state":"California","zip":"94143","country":"United States","contacts":[{"name":"Eliot Lee","role":"CONTACT","email":"Eliot.Lee@ucsf.edu"},{"name":"Wade Smith, MD, PhD","role":"PRINCIPAL_INVESTIGATOR"}],"geoPoint":{"lat":37.77493,"lon":-122.41942}},{"facility":"Orange County Global Medical Center","status":"RECRUITING","city":"Santa Ana","state":"California","zip":"92705","country":"United States","contacts":[{"name":"Marylinn Torres","role":"CONTACT","email":"Marylinntorres@kpchealth.com"},{"name":"John Chen, MD","role":"PRINCIPAL_INVESTIGATOR"}],"geoPoint":{"lat":33.74557,"lon":-117.86783}},{"facility":"Olive View- UCLA Medical Center","status":"NOT_YET_RECRUITING","city":"Sylmar","state":"California","zip":"91342","country":"United States","contacts":[{"name":"Molly Misuraca","role":"CONTACT","email":"mmisuraca@dhs.lacounty.gov"},{"name":"Neal Rao, MD","role":"PRINCIPAL_INVESTIGATOR"}],"geoPoint":{"lat":34.30778,"lon":-118.44925}},{"facility":"John Muir Medical Center- Walnut Creek Campus","status":"RECRUITING","city":"Walnut Creek","state":"California","zip":"94598","country":"United States","contacts":[{"name":"Melenie Aaron","role":"CONTACT","email":"Melenie.aaron@johnmuirhealth.com"},{"name":"Ok-Kyung Kim, MD","role":"PRINCIPAL_INVESTIGATOR"}],"geoPoint":{"lat":37.90631,"lon":-122.06496}},{"facility":"St. Mary's Hospital and Medical Center","status":"RECRUITING","city":"Grand Junction","state":"Colorado","zip":"81501","country":"United States","contacts":[{"name":"Lisa Bertrand","role":"CONTACT","email":"Lisa.Bertrand@sclhealth.org"},{"name":"Logan Mcdaneld, MD","role":"PRINCIPAL_INVESTIGATOR"}],"geoPoint":{"lat":39.06387,"lon":-108.55065}},{"facility":"Hartford Hospital","status":"RECRUITING","city":"Hartford","state":"Connecticut","zip":"06102","country":"United States","contacts":[{"name":"Laura Grenier","role":"CONTACT","email":"laura.grenier@hhchealth.org"},{"name":"Francoise Roux, MD","role":"PRINCIPAL_INVESTIGATOR"}],"geoPoint":{"lat":41.76371,"lon":-72.68509}},{"facility":"Yale-New Haven Hospital","status":"RECRUITING","city":"New Haven","state":"Connecticut","zip":"06510","country":"United States","contacts":[{"name":"Radu Radulescu","role":"CONTACT","email":"radu.radulescu@yale.edu"},{"name":"Klar Yaggi, MD","role":"PRINCIPAL_INVESTIGATOR"}],"geoPoint":{"lat":41.30815,"lon":-72.92816}},{"facility":"George Washington University Hospital","status":"RECRUITING","city":"Washington","state":"District of Columbia","zip":"20037","country":"United States","contacts":[{"name":"Preethy Feit","role":"CONTACT","email":"pfeit@mfa.gwu.edu"},{"name":"Fernando Mayor Basto, MD","role":"PRINCIPAL_INVESTIGATOR"}],"geoPoint":{"lat":38.89511,"lon":-77.03637}},{"facility":"UF Health Shands Hospital","status":"RECRUITING","city":"Gainesville","state":"Florida","zip":"32611","country":"United States","contacts":[{"name":"Neringa May","role":"CONTACT","email":"neringa.may@neurology.ufl.edu"},{"name":"Anna Khanna, MD","role":"PRINCIPAL_INVESTIGATOR"}],"geoPoint":{"lat":29.65163,"lon":-82.32483}},{"facility":"Brooks Rehabilitation Hospital","status":"RECRUITING","city":"Jacksonville","state":"Florida","zip":"32216","country":"United States","contacts":[{"name":"Taisiya Matev","role":"CONTACT","email":"Taisiya.Matev@Brooksrehab.org"},{"name":"Kenneth Ngo, MD","role":"PRINCIPAL_INVESTIGATOR"}],"geoPoint":{"lat":30.33218,"lon":-81.65565}},{"facility":"Mayo Clinic Jacksonville","status":"RECRUITING","city":"Jacksonville","state":"Florida","zip":"32224","country":"United States","contacts":[{"name":"Joanna Serat","role":"CONTACT","email":"serat.joanna@mayo.edu"},{"name":"Brynn Dredla, MD","role":"PRINCIPAL_INVESTIGATOR"}],"geoPoint":{"lat":30.33218,"lon":-81.65565}},{"facility":"Jackson Memorial Hospital","status":"RECRUITING","city":"Miami","state":"Florida","zip":"33136","country":"United States","contacts":[{"name":"Andrea Escobar","role":"CONTACT","email":"a.escobar1@med.miami.edu"},{"name":"Jose Romano, MD","role":"PRINCIPAL_INVESTIGATOR"}],"geoPoint":{"lat":25.77427,"lon":-80.19366}},{"facility":"University of Miami Hospital","status":"RECRUITING","city":"Miami","state":"Florida","zip":"33136","country":"United States","contacts":[{"name":"Andrea Escobar","role":"CONTACT","email":"a.escobar1@med.miami.edu"},{"name":"Jose Romano, MD","role":"PRINCIPAL_INVESTIGATOR"}],"geoPoint":{"lat":25.77427,"lon":-80.19366}},{"facility":"Baptist Hospital of Miami","status":"RECRUITING","city":"Miami","state":"Florida","zip":"33176","country":"United States","contacts":[{"name":"Josette Elysee","role":"CONTACT","email":"JosetteE@baptisthealth.net"},{"name":"Felipe De Los Rios La Rosa, MD","role":"PRINCIPAL_INVESTIGATOR"}],"geoPoint":{"lat":25.77427,"lon":-80.19366}},{"facility":"Sarasota Memorial Hospital","status":"RECRUITING","city":"Sarasota","state":"Florida","zip":"34239","country":"United States","contacts":[{"name":"Flora Arevalo","role":"CONTACT","email":"farevalo@intercoastalmedical.com"},{"name":"Mauricio Concha, MD","role":"PRINCIPAL_INVESTIGATOR"}],"geoPoint":{"lat":27.33643,"lon":-82.53065}},{"facility":"Tampa General Hospital","status":"RECRUITING","city":"Tampa","state":"Florida","zip":"33606","country":"United States","contacts":[{"name":"Marla Hairson","role":"CONTACT","email":"hairston@usf.edu"},{"name":"William Scott Burgin, MD","role":"PRINCIPAL_INVESTIGATOR"}],"geoPoint":{"lat":27.94752,"lon":-82.45843}},{"facility":"Rush University Medical Center","status":"RECRUITING","city":"Chicago","state":"Illinois","zip":"60612","country":"United States","contacts":[{"name":"Henna McCoy","role":"CONTACT","email":"Henna_R_McCoy@rush.edu"},{"name":"Laurel Cherian, MD","role":"PRINCIPAL_INVESTIGATOR"}],"geoPoint":{"lat":41.85003,"lon":-87.65005}},{"facility":"University of Illinois Hospital and Health Sciences System","status":"RECRUITING","city":"Chicago","state":"Illinois","zip":"60612","country":"United States","contacts":[{"name":"Maureen Hillmann","role":"CONTACT","email":"hillmann@uic.edu"},{"name":"Gabriela Trifan, MD","role":"PRINCIPAL_INVESTIGATOR"}],"geoPoint":{"lat":41.85003,"lon":-87.65005}},{"facility":"University of Chicago","status":"RECRUITING","city":"Chicago","state":"Illinois","zip":"60637","country":"United States","contacts":[{"name":"Samantha Jankowski","role":"CONTACT","email":"sjankowski@bsd.uchicago.edu"},{"name":"Kenneth Lee, MD","role":"PRINCIPAL_INVESTIGATOR"}],"geoPoint":{"lat":41.85003,"lon":-87.65005}},{"facility":"Loyola University Medical Center","status":"RECRUITING","city":"Maywood","state":"Illinois","zip":"60513","country":"United States","contacts":[{"name":"Maria Chavez","role":"CONTACT","email":"mchavez11@luc.edu"},{"name":"Michael Schneck, MD","role":"PRINCIPAL_INVESTIGATOR"}],"geoPoint":{"lat":41.8792,"lon":-87.84312}},{"facility":"OSF Saint Francis Medical Center","status":"RECRUITING","city":"Peoria","state":"Illinois","zip":"61603","country":"United States","contacts":[{"name":"Ashwath Ravisankar","role":"CONTACT","email":"Ashwath.R.Ravisankar@osfhealthcare.org"},{"name":"Arun Talkad, MD","role":"PRINCIPAL_INVESTIGATOR"}],"geoPoint":{"lat":40.69365,"lon":-89.58899}},{"facility":"Memorial Medical Center","status":"RECRUITING","city":"Springfield","state":"Illinois","zip":"62702","country":"United States","contacts":[{"name":"Barbara Lokaitis","role":"CONTACT","email":"blokaitis@siumed.edu"},{"name":"Hesham Allam, MD","role":"PRINCIPAL_INVESTIGATOR"}],"geoPoint":{"lat":39.80172,"lon":-89.64371}},{"facility":"University of Iowa Hospitals and Clinics","status":"RECRUITING","city":"Iowa City","state":"Iowa","zip":"52242","country":"United States","contacts":[{"name":"Heena Olade","role":"CONTACT","email":"heena-olalde@uiowa.edu"},{"name":"Mark Dyken, MD","role":"PRINCIPAL_INVESTIGATOR"}],"geoPoint":{"lat":41.66113,"lon":-91.53017}},{"facility":"Norton HealthCare","status":"RECRUITING","city":"Louisville","state":"Kentucky","zip":"40218","country":"United States","contacts":[{"name":"Debbie Cobb","role":"CONTACT","email":"Debbie.Cobb@nortonhealthcare.org"},{"name":"David Hasselbacher, MD","role":"PRINCIPAL_INVESTIGATOR"}],"geoPoint":{"lat":38.25424,"lon":-85.75941}},{"facility":"Ochsner Medical Center - Main Campus","status":"RECRUITING","city":"New Orleans","state":"Louisiana","zip":"70121","country":"United States","contacts":[{"name":"Mariah Delaune","role":"CONTACT","email":"mariah.delaune@ochsner.org"},{"name":"Richard Zweifler, MD","role":"PRINCIPAL_INVESTIGATOR"}],"geoPoint":{"lat":29.95465,"lon":-90.07507}},{"facility":"University Health Shreveport","status":"RECRUITING","city":"Shreveport","state":"Louisiana","zip":"71103","country":"United States","contacts":[{"name":"Norma Phillips","role":"CONTACT","email":"nphil1@lsuhsc.edu"},{"name":"Oleg Chernyshev, MD, PhD","role":"PRINCIPAL_INVESTIGATOR"}],"geoPoint":{"lat":32.52515,"lon":-93.75018}},{"facility":"University of Maryland","status":"RECRUITING","city":"Baltimore","state":"Maryland","zip":"21201","country":"United States","contacts":[{"name":"Delaram Doorandish","role":"CONTACT","email":"DDoorandish@som.umaryland.edu"},{"name":"Seemant Chaturvedi, MD","role":"PRINCIPAL_INVESTIGATOR"}],"geoPoint":{"lat":39.29038,"lon":-76.61219}},{"facility":"Tufts Medical Center","status":"RECRUITING","city":"Boston","state":"Massachusetts","zip":"02111","country":"United States","contacts":[{"name":"Sina Azimi","role":"CONTACT","email":"Sina.Azimi@tuftsmedicine.org"},{"name":"Lester Y Young, MD","role":"PRINCIPAL_INVESTIGATOR"}],"geoPoint":{"lat":42.35843,"lon":-71.05977}},{"facility":"Massachusetts General Hospital","status":"RECRUITING","city":"Boston","state":"Massachusetts","zip":"02114","country":"United States","contacts":[{"name":"Rhiana Carr","role":"CONTACT","email":"racarr@mgh.harvard.edu"},{"name":"Aneesh Singhal, MD","role":"PRINCIPAL_INVESTIGATOR"}],"geoPoint":{"lat":42.35843,"lon":-71.05977}},{"facility":"Brigham and Women's Hospital","status":"RECRUITING","city":"Boston","state":"Massachusetts","zip":"02115","country":"United States","contacts":[{"name":"Elizabeth Sugg","role":"CONTACT","email":"esugg@bwh.harvard.edu"},{"name":"Milena Pavlova, MD","role":"PRINCIPAL_INVESTIGATOR"}],"geoPoint":{"lat":42.35843,"lon":-71.05977}},{"facility":"Beth Israel Deaconess Medical Center","status":"RECRUITING","city":"Boston","state":"Massachusetts","zip":"02215","country":"United States","contacts":[{"name":"Sarah Marchina","role":"CONTACT","email":"smarchin@bidmc.harvard.edu"},{"name":"Jennifer Dearborn-Tomazos, MD","role":"PRINCIPAL_INVESTIGATOR"}],"geoPoint":{"lat":42.35843,"lon":-71.05977}},{"facility":"Baystate Health","status":"NOT_YET_RECRUITING","city":"Springfield","state":"Massachusetts","zip":"01199","country":"United States","contacts":[{"name":"Sirisha Nouduri","role":"CONTACT","email":"sirisha.nouduri@baystatehealth.org"},{"name":"Gottfried Schlaug, MD","role":"PRINCIPAL_INVESTIGATOR"}],"geoPoint":{"lat":42.10148,"lon":-72.58981}},{"facility":"Henry Ford Hospital","status":"RECRUITING","city":"Detroit","state":"Michigan","zip":"48202","country":"United States","contacts":[{"name":"Teresa Wiegand","role":"CONTACT","email":"TWIEGAN1@hfhs.org"},{"name":"Angelos Katramados, MD","role":"PRINCIPAL_INVESTIGATOR"}],"geoPoint":{"lat":42.33143,"lon":-83.04575}},{"facility":"McLaren Flint","status":"RECRUITING","city":"Flint","state":"Michigan","zip":"48532","country":"United States","contacts":[{"name":"Kiona Graham","role":"CONTACT","email":"kiona.graham@mclaren.org"},{"name":"Mahmoud Rayes, MD","role":"PRINCIPAL_INVESTIGATOR"}],"geoPoint":{"lat":43.01253,"lon":-83.68746}},{"facility":"Bronson Methodist Hospital","status":"RECRUITING","city":"Kalamazoo","state":"Michigan","zip":"49008","country":"United States","contacts":[{"name":"Emily Philipp Petrick","role":"CONTACT","email":"Emily.Petrick@wmed.edu"},{"name":"Mark Goetting, MD","role":"PRINCIPAL_INVESTIGATOR"}],"geoPoint":{"lat":42.29171,"lon":-85.58723}},{"facility":"Mayo Clinic Saint Marys Campus","status":"RECRUITING","city":"Rochester","state":"Minnesota","zip":"55905","country":"United States","contacts":[{"name":"Tim Ledbetter","role":"CONTACT","email":"Ledbetter.Timothy@mayo.edu"},{"name":"Eugene Scharf, MD","role":"PRINCIPAL_INVESTIGATOR"}],"geoPoint":{"lat":44.02163,"lon":-92.4699}},{"facility":"Saint Cloud/Centracare Health","status":"RECRUITING","city":"Saint Cloud","state":"Minnesota","zip":"56303","country":"United States","contacts":[{"name":"Dawn Bauerly-Pieper","role":"CONTACT","email":"dawn.bauerly-pieper@centracare.com"},{"name":"Muhammad Fareed K Suri, MD","role":"PRINCIPAL_INVESTIGATOR"}],"geoPoint":{"lat":45.5608,"lon":-94.16249}},{"facility":"University of Mississippi Medical Center","status":"RECRUITING","city":"Jackson","state":"Mississippi","zip":"39216","country":"United States","contacts":[{"name":"Thomas Hudson","role":"CONTACT","email":"tmhudson@umc.edu"},{"name":"Kunal Bhatia, MD","role":"PRINCIPAL_INVESTIGATOR"}],"geoPoint":{"lat":32.29876,"lon":-90.18481}},{"facility":"Saint Luke's Hospital of Kansas City","status":"RECRUITING","city":"Kansas City","state":"Missouri","zip":"64111","country":"United States","contacts":[{"name":"Christine Kennish","role":"CONTACT","email":"ckennish@saint-lukes.org"},{"name":"Karin Olds, MD","role":"PRINCIPAL_INVESTIGATOR"}],"geoPoint":{"lat":39.09973,"lon":-94.57857}},{"facility":"Barnes-Jewish Hospital","status":"RECRUITING","city":"Saint Louis","state":"Missouri","zip":"63110","country":"United States","contacts":[{"name":"Angela Wolford","role":"CONTACT","email":"angelaw@wustl.edu"},{"name":"Eric Landsness, MD","role":"PRINCIPAL_INVESTIGATOR"}],"geoPoint":{"lat":38.62727,"lon":-90.19789}},{"facility":"Cox Medical Center","status":"RECRUITING","city":"Springfield","state":"Missouri","zip":"65807","country":"United States","contacts":[{"name":"Jessica Ratcliff","role":"CONTACT","email":"jessica.ratcliff@coxhealth.com"},{"name":"Benjamin Lisle, MD","role":"PRINCIPAL_INVESTIGATOR"}],"geoPoint":{"lat":37.21533,"lon":-93.29824}},{"facility":"University of Nebraska Medical Center","status":"RECRUITING","city":"Omaha","state":"Nebraska","zip":"68198","country":"United States","contacts":[{"name":"Jeanne Welte","role":"CONTACT","email":"jewelte@unmc.edu"},{"name":"Pierre Fayad, MD","role":"PRINCIPAL_INVESTIGATOR"}],"geoPoint":{"lat":41.25626,"lon":-95.94043}},{"facility":"University of New Mexico Hospital","status":"NOT_YET_RECRUITING","city":"Albuquerque","state":"New Mexico","zip":"87106","country":"United States","contacts":[{"name":"Erin Rael","role":"CONTACT","email":"ecrael@salud.unm.edu"},{"name":"Omar Hussein, MD","role":"PRINCIPAL_INVESTIGATOR"}],"geoPoint":{"lat":35.08449,"lon":-106.65114}},{"facility":"Montefiore Medical Center","status":"RECRUITING","city":"Bronx","state":"New York","zip":"10467","country":"United States","contacts":[{"name":"Daniella Clark","role":"CONTACT","email":"daclarke@montefiore.org"},{"name":"Kathryn Kirchoff-Torres, MD","role":"PRINCIPAL_INVESTIGATOR"}],"geoPoint":{"lat":40.84985,"lon":-73.86641}},{"facility":"Maimonides Medical Center","status":"RECRUITING","city":"Brooklyn","state":"New York","zip":"11219","country":"United States","contacts":[{"name":"Maryna Mootoo","role":"CONTACT","email":"mmootoo@maimonidesmed.org"},{"name":"Qingliang Wang, MD","role":"PRINCIPAL_INVESTIGATOR"}],"geoPoint":{"lat":40.6501,"lon":-73.94958}},{"facility":"NYU Langone Brooklyn","status":"RECRUITING","city":"Brooklyn","state":"New York","zip":"11220","country":"United States","contacts":[{"name":"Maria Cotrina","role":"CONTACT","email":"Maria.Cotrina@nyulangone.org"},{"name":"Aaron Lord, MD","role":"PRINCIPAL_INVESTIGATOR"}],"geoPoint":{"lat":40.6501,"lon":-73.94958}},{"facility":"Buffalo General Medical Center","status":"RECRUITING","city":"Buffalo","state":"New York","zip":"14203","country":"United States","contacts":[{"name":"Annemarie Crumlish","role":"CONTACT","email":"ac35@buffalo.edu"},{"name":"Amit Kandal, MD","role":"PRINCIPAL_INVESTIGATOR"}],"geoPoint":{"lat":42.88645,"lon":-78.87837}},{"facility":"North Shore University Hospital","status":"RECRUITING","city":"Manhasset","state":"New York","zip":"11030","country":"United States","contacts":[{"name":"Kirendra Pasram","role":"CONTACT","email":"kpasram1@northwell.edu"},{"name":"Rohan Arora, MD","role":"PRINCIPAL_INVESTIGATOR"}],"geoPoint":{"lat":40.79788,"lon":-73.69957}},{"facility":"NYU Langone -Tish Hospital Medical Center","status":"RECRUITING","city":"New York","state":"New York","zip":"10016","country":"United States","contacts":[{"name":"Yasmeen Mahady","role":"CONTACT","email":"Yasmeen.Mahady@nyulangone.org"},{"name":"Koto Ishida, MD","role":"PRINCIPAL_INVESTIGATOR"}],"geoPoint":{"lat":40.71427,"lon":-74.00597}},{"facility":"NYP Columbia University Medical Center","status":"RECRUITING","city":"New York","state":"New York","zip":"10032","country":"United States","contacts":[{"name":"Angela Velazquez","role":"CONTACT","email":"agv2113@columbia.edu"},{"name":"Joshua Willey, MD, MS","role":"PRINCIPAL_INVESTIGATOR"}],"geoPoint":{"lat":40.71427,"lon":-74.00597}},{"facility":"Strong Memorial Hospital","status":"RECRUITING","city":"Rochester","state":"New York","zip":"14642","country":"United States","contacts":[{"name":"Joseph Barone","role":"CONTACT","email":"Joseph_Barone@URMC.Rochester.edu"},{"name":"Curtis Benesch, MD","role":"PRINCIPAL_INVESTIGATOR"}],"geoPoint":{"lat":43.15478,"lon":-77.61556}},{"facility":"Staten Island University Hospital","status":"RECRUITING","city":"Staten Island","state":"New York","zip":"10305","country":"United States","contacts":[{"name":"Vincent De Souza","role":"CONTACT","email":"VDesouza1@northwell.edu"},{"name":"Umran Ugur, MD","role":"PRINCIPAL_INVESTIGATOR"}],"geoPoint":{"lat":40.56233,"lon":-74.13986}},{"facility":"Suny Upstate Medical University","status":"RECRUITING","city":"Syracuse","state":"New York","zip":"13210","country":"United States","contacts":[{"name":"Lena Deb","role":"CONTACT","email":"debl@upstate.edu"},{"name":"Julius Gene Latorre, MD","role":"PRINCIPAL_INVESTIGATOR"}],"geoPoint":{"lat":43.04812,"lon":-76.14742}},{"facility":"Carolinas Medical Center Atrium Health","status":"RECRUITING","city":"Charlotte","state":"North Carolina","zip":"28203","country":"United States","contacts":[{"name":"Maria Helms","role":"CONTACT","email":"Anna.M.Helms@atriumhealth.org"},{"name":"Rahul Karamchandani, MD","role":"PRINCIPAL_INVESTIGATOR"}],"geoPoint":{"lat":35.22709,"lon":-80.84313}},{"facility":"Carolinas Rehab Northeast","status":"RECRUITING","city":"Concord","state":"North Carolina","zip":"28025","country":"United States","contacts":[{"name":"Kimberly Thompson","role":"CONTACT","email":"Kimberley.Thompson@atriumhealth.org"},{"name":"Nicole Rup, MD","role":"PRINCIPAL_INVESTIGATOR"}],"geoPoint":{"lat":35.40888,"lon":-80.58158}},{"facility":"Guilford Neurologic Associates, Inc","status":"RECRUITING","city":"Greensboro","state":"North Carolina","zip":"27401","country":"United States","contacts":[{"name":"Jamil Admed","role":"CONTACT","email":"jamil.ahmed@gnr.clinic"},{"name":"Pramod Sethi, MD","role":"PRINCIPAL_INVESTIGATOR"}],"geoPoint":{"lat":36.07264,"lon":-79.79198}},{"facility":"Wake Forest University Baptist Medical Center","status":"RECRUITING","city":"Winston-Salem","state":"North Carolina","zip":"27157","country":"United States","contacts":[{"name":"Krystal Schmidt","role":"CONTACT","email":"kschmidt@wakehealth.edu"},{"name":"Cheryl Bushnell, MD","role":"PRINCIPAL_INVESTIGATOR"}],"geoPoint":{"lat":36.09986,"lon":-80.24422}},{"facility":"Christ Hospital","status":"RECRUITING","city":"Cincinnati","state":"Ohio","zip":"45219","country":"United States","contacts":[{"name":"Ranjaka Gunawardena","role":"CONTACT","email":"gunawad@ucmail.uc.edu"},{"name":"Karthik Kanagarajan, MD","role":"PRINCIPAL_INVESTIGATOR"}],"geoPoint":{"lat":39.12713,"lon":-84.51435}},{"facility":"University of Cincinnati Medical Center","status":"RECRUITING","city":"Cincinnati","state":"Ohio","zip":"45219","country":"United States","contacts":[{"name":"Ranjaka Gunawardena","role":"CONTACT","email":"gunawad@ucmail.uc.edu"},{"name":"Natalie Kreitzer, MD","role":"PRINCIPAL_INVESTIGATOR"}],"geoPoint":{"lat":39.12713,"lon":-84.51435}},{"facility":"UH Cleveland Medical Center","status":"RECRUITING","city":"Cleveland","state":"Ohio","zip":"11100","country":"United States","contacts":[{"name":"Mary Andrews","role":"CONTACT","email":"Mary.Andrews@UHhospitals.org"},{"name":"Sophia Sundararajan, MD","role":"PRINCIPAL_INVESTIGATOR"}],"geoPoint":{"lat":41.4995,"lon":-81.69541}},{"facility":"Cleveland Clinic","status":"RECRUITING","city":"Cleveland","state":"Ohio","zip":"44195","country":"United States","contacts":[{"name":"Cameron Fornwald","role":"CONTACT","email":"FORNWAC2@ccf.org"},{"name":"Zeshaun Khawaja, MD","role":"PRINCIPAL_INVESTIGATOR"}],"geoPoint":{"lat":41.4995,"lon":-81.69541}},{"facility":"OSU Wexner Medical Center","status":"RECRUITING","city":"Columbus","state":"Ohio","zip":"43210","country":"United States","contacts":[{"name":"Luke Herren","role":"CONTACT","email":"luke.herren@osumc.edu"},{"name":"Sushil Lakhani, MD","role":"PRINCIPAL_INVESTIGATOR"}],"geoPoint":{"lat":39.96118,"lon":-82.99879}},{"facility":"Promedica Toledo Hospital","status":"RECRUITING","city":"Toledo","state":"Ohio","zip":"43606","country":"United States","contacts":[{"name":"Nathan Singlar","role":"CONTACT","email":"nathan.singlar@promedica.org"},{"name":"Mouhammad Jumaa, MD","role":"PRINCIPAL_INVESTIGATOR"}],"geoPoint":{"lat":41.66394,"lon":-83.55521}},{"facility":"West Chester Hospital","status":"RECRUITING","city":"West Chester","state":"Ohio","zip":"45069","country":"United States","contacts":[{"name":"Ranjaka Gunawardena","role":"CONTACT","email":"gunawad@ucmail.uc.edu"},{"name":"Natalie Kreitzer, MD","role":"PRINCIPAL_INVESTIGATOR"}],"geoPoint":{"lat":40.23368,"lon":-81.34428}},{"facility":"St. John Health System","status":"RECRUITING","city":"Tulsa","state":"Oklahoma","zip":"74104","country":"United States","contacts":[{"name":"Elvis Tamo","role":"CONTACT","email":"elvis.tamo@ascension.org"},{"name":"Rahul Rahangdale, MD","role":"PRINCIPAL_INVESTIGATOR"}],"geoPoint":{"lat":36.15398,"lon":-95.99277}},{"facility":"Providence St. Vincent Medical Center","status":"RECRUITING","city":"Portland","state":"Oregon","zip":"97225","country":"United States","contacts":[{"name":"Sudha Mekala","role":"CONTACT","email":"sudha.mekala@providence.org"},{"name":"Biggya Sapkota, MD","role":"PRINCIPAL_INVESTIGATOR"}],"geoPoint":{"lat":45.52345,"lon":-122.67621}},{"facility":"Oregon Health & Science University Hospital","status":"RECRUITING","city":"Portland","state":"Oregon","zip":"97239","country":"United States","contacts":[{"name":"Olivia Rohret","role":"CONTACT","email":"rohret@ohsu.edu"},{"name":"Wayne Clark, MD","role":"PRINCIPAL_INVESTIGATOR"}],"geoPoint":{"lat":45.52345,"lon":-122.67621}},{"facility":"St. Luke's University Hospital Bethlehem Campus","status":"RECRUITING","city":"Bethlehem","state":"Pennsylvania","zip":"18015","country":"United States","contacts":[{"name":"Danielle Schneider","role":"CONTACT","email":"Danielle.Schneider@sluhn.org"},{"name":"Daniel Ackerman, MD","role":"PRINCIPAL_INVESTIGATOR"}],"geoPoint":{"lat":40.62593,"lon":-75.37046}},{"facility":"Geisinger Clinic","status":"RECRUITING","city":"Danville","state":"Pennsylvania","zip":"17822","country":"United States","contacts":[{"name":"Angela Blockus","role":"CONTACT","email":"alblockus@geisinger.edu"},{"name":"Clemens Schirmer, MD","role":"PRINCIPAL_INVESTIGATOR"}],"geoPoint":{"lat":40.96342,"lon":-76.61273}},{"facility":"Penn State Milton S. Hershey Center","status":"RECRUITING","city":"Hershey","state":"Pennsylvania","zip":"17033","country":"United States","contacts":[{"name":"Olivia Christman","role":"CONTACT","email":"ochristman@pennstatehealth.psu.edu"},{"name":"Raymond Reichwein, MD","role":"PRINCIPAL_INVESTIGATOR"}],"geoPoint":{"lat":40.28592,"lon":-76.65025}},{"facility":"Hospital of the University of Pennsylvania","status":"RECRUITING","city":"Philadelphia","state":"Pennsylvania","zip":"19104","country":"United States","contacts":[{"name":"Nichole Gallatti","role":"CONTACT","email":"Nichole.gallatti@uphs.upenn.edu"},{"name":"Steven Messe, MD","role":"PRINCIPAL_INVESTIGATOR"}],"geoPoint":{"lat":39.95233,"lon":-75.16379}},{"facility":"Temple University Hospital","status":"RECRUITING","city":"Philadelphia","state":"Pennsylvania","zip":"19122","country":"United States","contacts":[{"name":"Sandra Combs","role":"CONTACT","email":"Sandra.combs@tuhs.temple.edu"},{"name":"Michael Mullen, MD","role":"PRINCIPAL_INVESTIGATOR"}],"geoPoint":{"lat":39.95233,"lon":-75.16379}},{"facility":"UPMC Presbyterian Hospital","status":"RECRUITING","city":"Pittsburgh","state":"Pennsylvania","zip":"15213","country":"United States","contacts":[{"name":"Jason Weimer","role":"CONTACT","email":"weimerjm@upmc.edu"},{"name":"Sarah Wondisford, MD","role":"PRINCIPAL_INVESTIGATOR"}],"geoPoint":{"lat":40.44062,"lon":-79.99589}},{"facility":"Palmetto Health Richland","status":"RECRUITING","city":"Columbia","state":"South Carolina","zip":"29203","country":"United States","contacts":[{"name":"Phil Fleming","role":"CONTACT","email":"Phil.Fleming2@prismahealth.org"},{"name":"Souvik Sen, MD","role":"PRINCIPAL_INVESTIGATOR"}],"geoPoint":{"lat":34.00071,"lon":-81.03481}},{"facility":"Greenville Memorial Hospital","status":"RECRUITING","city":"Greenville","state":"South Carolina","zip":"29605","country":"United States","contacts":[{"name":"Reilly Leonard","role":"CONTACT","email":"Reilly.Leonard@PrismaHealth.org"},{"name":"Neel Shah, MD","role":"PRINCIPAL_INVESTIGATOR"}],"geoPoint":{"lat":34.85262,"lon":-82.39401}},{"facility":"Avera Research Institute","status":"RECRUITING","city":"Sioux Falls","state":"South Dakota","zip":"57108","country":"United States","contacts":[{"name":"Cassidy Kaiser","role":"CONTACT","email":"Cassidy.Kaiser@avera.org"},{"name":"William Rossing, MD","role":"PRINCIPAL_INVESTIGATOR"}],"geoPoint":{"lat":43.54997,"lon":-96.70033}},{"facility":"Methodist University","status":"RECRUITING","city":"Memphis","state":"Tennessee","zip":"38105","country":"United States","contacts":[{"name":"Quentin Thacker","role":"CONTACT","email":"qthacker@uthsc.edu"},{"name":"Balaji Krishnaiah, MD","role":"PRINCIPAL_INVESTIGATOR"}],"geoPoint":{"lat":35.14953,"lon":-90.04898}},{"facility":"Baylor Scott & White Institute of Rehabilitation","status":"RECRUITING","city":"Dallas","state":"Texas","zip":"75246","country":"United States","contacts":[{"name":"Sara Baltz","role":"CONTACT","email":"Sara.Baltz@BSWHealth.org"},{"name":"Chad Swank, MD","role":"PRINCIPAL_INVESTIGATOR"}],"geoPoint":{"lat":32.78306,"lon":-96.80667}},{"facility":"Memorial Hermann Texas Medical Center","status":"RECRUITING","city":"Houston","state":"Texas","zip":"77030","country":"United States","contacts":[{"name":"Ariana Hernandez","role":"CONTACT","email":"Ariana.Victoria.AquinoHernandez@uth.tmc.edu"},{"name":"Anjail Sharrief, MD","role":"PRINCIPAL_INVESTIGATOR"}],"geoPoint":{"lat":29.76328,"lon":-95.36327}},{"facility":"Intermountain Medical Center","status":"RECRUITING","city":"Murray","state":"Utah","zip":"84107","country":"United States","contacts":[{"name":"Lindsay Bosh","role":"CONTACT","email":"lindsay.bosh@imail.org"},{"name":"Paul Johnson, MD","role":"PRINCIPAL_INVESTIGATOR"}],"geoPoint":{"lat":40.66689,"lon":-111.88799}},{"facility":"University of Utah Healthcare","status":"RECRUITING","city":"Salt Lake City","state":"Utah","zip":"84132","country":"United States","contacts":[{"name":"Julia Darling","role":"CONTACT","email":"julia.darling@hsc.utah.edu"},{"name":"Jana Wold, MD","role":"PRINCIPAL_INVESTIGATOR"}],"geoPoint":{"lat":40.76078,"lon":-111.89105}},{"facility":"The University of Vermont Medical Center Main Campus","status":"RECRUITING","city":"Burlington","state":"Vermont","zip":"05401","country":"United States","contacts":[{"name":"Susanna Pratt","role":"CONTACT","email":"susanna.pratt@med.uvm.edu"},{"name":"Christopher Commichau, MD","role":"PRINCIPAL_INVESTIGATOR"}],"geoPoint":{"lat":44.47588,"lon":-73.21207}},{"facility":"UVA Medical Center","status":"RECRUITING","city":"Charlottesville","state":"Virginia","zip":"22908","country":"United States","contacts":[{"name":"Allison Ramsey","role":"CONTACT","email":"agr5nj@uvahealth.org"},{"name":"Nina Solenski, MD","role":"PRINCIPAL_INVESTIGATOR"}],"geoPoint":{"lat":38.02931,"lon":-78.47668}},{"facility":"Inova Fairfax","status":"RECRUITING","city":"Falls Church","state":"Virginia","zip":"22042","country":"United States","contacts":[{"name":"Laura Madarasz","role":"CONTACT","email":"Laura.madarasz@inova.org"},{"name":"Saqib Chaudhry, MD","role":"PRINCIPAL_INVESTIGATOR"}],"geoPoint":{"lat":38.88233,"lon":-77.17109}},{"facility":"Virginia Mason Medical Center","status":"RECRUITING","city":"Seattle","state":"Washington","zip":"98101","country":"United States","contacts":[{"name":"Daniel Machuca","role":"CONTACT","email":"daniel.machuca@virginiamason.org"},{"name":"Fatima Milfred, MD","role":"PRINCIPAL_INVESTIGATOR"}],"geoPoint":{"lat":47.60621,"lon":-122.33207}},{"facility":"Harborview Medical Center","status":"RECRUITING","city":"Seattle","state":"Washington","zip":"98195","country":"United States","contacts":[{"name":"Brooke Haines","role":"CONTACT","email":"bmh32@uw.edu"},{"name":"Sandeep Khot, MD","role":"PRINCIPAL_INVESTIGATOR"}],"geoPoint":{"lat":47.60621,"lon":-122.33207}},{"facility":"Ruby Memorial Hospital","status":"RECRUITING","city":"Morgantown","state":"West Virginia","zip":"26506","country":"United States","contacts":[{"name":"Jay Sherman","role":"CONTACT","email":"shermanj@wvumedicine.org"},{"name":"Mouhannad Azzouz, MD","role":"PRINCIPAL_INVESTIGATOR"}],"geoPoint":{"lat":39.62953,"lon":-79.9559}},{"facility":"Gundersen Lutheran Medical Foundation","status":"RECRUITING","city":"La Crosse","state":"Wisconsin","zip":"54601","country":"United States","contacts":[{"name":"Kim Halverson","role":"CONTACT","email":"kehalver@gundersenhealth.org"},{"name":"Mark Domroese, MD","role":"PRINCIPAL_INVESTIGATOR"}],"geoPoint":{"lat":43.80136,"lon":-91.23958}},{"facility":"University of Wisconsin University Hospital","status":"RECRUITING","city":"Madison","state":"Wisconsin","zip":"53715","country":"United States","contacts":[{"name":"Sima Sayyahmelli","role":"CONTACT","email":"sayyahmelli@neurosurgery.wisc.edu"},{"name":"Robert Dempsey, MD","role":"PRINCIPAL_INVESTIGATOR"}],"geoPoint":{"lat":43.07305,"lon":-89.40123}}]},"ipdSharingStatementModule":{"ipdSharing":"YES","description":"We will comply with the NIH Data Sharing Policy, Policy on the Dissemination of NIH-Funded Clinical Trial Information, the Clinical Trials Registration and Results Information Submission rule, and StrokeNet SOP on Network Data Sharing Policy. NDMC statisticians will generate data files from each data table and in compliance with HIPAA regulations each table will be de-identified. A minimum number of derived variables necessary to reproduce the primary analysis will be created. Within a year from acceptance of the primary manuscript or no later than two years from database lock, the public-use data sets will be submitted to the NINDS data repository along with final version of the study protocol, data dictionary and a user guide. Data along with signals from sleep apnea recordings will be submitted to the NHLBI National Sleep Research Resource."}},"derivedSection":{"miscInfoModule":{"versionHolder":"2024-02-14"},"conditionBrowseModule":{"meshes":[{"id":"D000001049","term":"Apnea"},{"id":"D000012891","term":"Sleep Apnea Syndromes"},{"id":"D000020181","term":"Sleep Apnea, Obstructive"},{"id":"D000020521","term":"Stroke"},{"id":"D000083242","term":"Ischemic Stroke"}],"ancestors":[{"id":"D000002561","term":"Cerebrovascular Disorders"},{"id":"D000001927","term":"Brain Diseases"},{"id":"D000002493","term":"Central Nervous System Diseases"},{"id":"D000009422","term":"Nervous System Diseases"},{"id":"D000014652","term":"Vascular Diseases"},{"id":"D000002318","term":"Cardiovascular Diseases"},{"id":"D000012120","term":"Respiration Disorders"},{"id":"D000012140","term":"Respiratory Tract Diseases"},{"id":"D000012818","term":"Signs and Symptoms, Respiratory"},{"id":"D000020919","term":"Sleep Disorders, Intrinsic"},{"id":"D000020920","term":"Dyssomnias"},{"id":"D000012893","term":"Sleep Wake Disorders"}],"browseLeaves":[{"id":"M21996","name":"Stroke","asFound":"Stroke","relevance":"HIGH"},{"id":"M4051","name":"Apnea","asFound":"Apnea","relevance":"HIGH"},{"id":"M15384","name":"Sleep Apnea Syndromes","asFound":"Sleep Apnea","relevance":"HIGH"},{"id":"M21700","name":"Sleep Apnea, Obstructive","asFound":"Sleep Apnea, Obstructive","relevance":"HIGH"},{"id":"M10233","name":"Ischemia","relevance":"LOW"},{"id":"M2401","name":"Ischemic Stroke","asFound":"Ischemic Stroke","relevance":"HIGH"},{"id":"M16045","name":"Syndrome","relevance":"LOW"},{"id":"M5500","name":"Cerebrovascular Disorders","relevance":"LOW"},{"id":"M4894","name":"Brain Diseases","relevance":"LOW"},{"id":"M5432","name":"Central Nervous System Diseases","relevance":"LOW"},{"id":"M17090","name":"Vascular Diseases","relevance":"LOW"},{"id":"M14647","name":"Respiration Disorders","relevance":"LOW"},{"id":"M14667","name":"Respiratory Tract Diseases","relevance":"LOW"},{"id":"M15313","name":"Signs and Symptoms, Respiratory","relevance":"LOW"},{"id":"M21932","name":"Parasomnias","relevance":"LOW"},{"id":"M22344","name":"Sleep Disorders, Intrinsic","relevance":"LOW"},{"id":"M22345","name":"Dyssomnias","relevance":"LOW"},{"id":"M15386","name":"Sleep Wake Disorders","relevance":"LOW"}],"browseBranches":[{"abbrev":"BC10","name":"Nervous System Diseases"},{"abbrev":"BC14","name":"Heart and Blood Diseases"},{"abbrev":"All","name":"All Conditions"},{"abbrev":"BC08","name":"Respiratory Tract (Lung and Bronchial) Diseases"},{"abbrev":"BC23","name":"Symptoms and General Pathology"},{"abbrev":"BXM","name":"Behaviors and Mental Disorders"}]}},"hasResults":false}