{"protocolSection":{"identificationModule":{"nctId":"NCT01677208","orgStudyIdInfo":{"id":"DH20120423"},"organization":{"fullName":"China Academy of Chinese Medical Sciences","class":"OTHER"},"briefTitle":"Danhong Injection in the Treatment of Acute Ischemic Stroke","officialTitle":"A Randomized, Multi-center, Double-blind, Placebo-controlled Trial of Danhong Injection in the Treatment of Acute Ischemic Stroke"},"statusModule":{"statusVerifiedDate":"2022-06","overallStatus":"COMPLETED","expandedAccessInfo":{"hasExpandedAccess":false},"startDateStruct":{"date":"2013-03-13","type":"ACTUAL"},"primaryCompletionDateStruct":{"date":"2019-03-10","type":"ACTUAL"},"completionDateStruct":{"date":"2019-03-27","type":"ACTUAL"},"studyFirstSubmitDate":"2012-08-29","studyFirstSubmitQcDate":"2012-08-29","studyFirstPostDateStruct":{"date":"2012-08-31","type":"ESTIMATED"},"lastUpdateSubmitDate":"2022-06-06","lastUpdatePostDateStruct":{"date":"2022-06-08","type":"ACTUAL"}},"sponsorCollaboratorsModule":{"responsibleParty":{"type":"PRINCIPAL_INVESTIGATOR","investigatorFullName":"Zhong Wang","investigatorTitle":"Professor","investigatorAffiliation":"China Academy of Chinese Medical Sciences"},"leadSponsor":{"name":"China Academy of Chinese Medical Sciences","class":"OTHER"},"collaborators":[{"name":"China Food and Drug Administration","class":"OTHER_GOV"}]},"oversightModule":{"oversightHasDmc":true},"descriptionModule":{"briefSummary":"The purpose of this study is to determine whether Danhong injection is effective in the treatment of acute ischemic stroke."},"conditionsModule":{"conditions":["Acute Stroke"],"keywords":["Acute Ischemic Stroke","Randomized Controlled Trial","Traditional Chinese Medicine"]},"designModule":{"studyType":"INTERVENTIONAL","phases":["PHASE4"],"designInfo":{"allocation":"RANDOMIZED","interventionModel":"PARALLEL","primaryPurpose":"TREATMENT","maskingInfo":{"masking":"QUADRUPLE","whoMasked":["PARTICIPANT","CARE_PROVIDER","INVESTIGATOR","OUTCOMES_ASSESSOR"]}},"enrollmentInfo":{"count":1503,"type":"ACTUAL"}},"armsInterventionsModule":{"armGroups":[{"label":"Danhong injection","type":"EXPERIMENTAL","description":"Based on the standard medical care, 40ml of Danhong injection, added into 250ml of 0.9% saline, given by continuous IV infusion at 2.5ml/min within 2 hours.","interventionNames":["Drug: Danhong injection","Procedure: Standard medical care"]},{"label":"placebo","type":"PLACEBO_COMPARATOR","description":"Based on the standard medical care, 40ml of 0.9% saline as the placebo, added into 250ml of 0.9% saline, given by continuous IV infusion at 2.5ml/min within 2 hours.","interventionNames":["Procedure: Standard medical care","Drug: placebo"]}],"interventions":[{"type":"DRUG","name":"Danhong injection","description":"A kind of injection made from two kind of Chinese herbs: Salvia miltiorrhiza and Safflower. 40ml Danhong injection added into 250ml 0.9% saline by an independent research nurse, sealed with brown bag in order to make the investigators and patients blinded, using brown infusion tube for infusion","armGroupLabels":["Danhong injection"]},{"type":"PROCEDURE","name":"Standard medical care","description":"Standard medical care is in accordance with China Guideline for the diagnosis and treatment of acute ischemic stroke (2010), including medical care for vital signs, control of temperature, blood pressure and glucose, improving cerebral blood circulation, antiplatelet treatment and nutritional supportive care.","armGroupLabels":["Danhong injection","placebo"]},{"type":"DRUG","name":"placebo","description":"0.9% saline added into 250ml 0.9% saline by an independent research nurse, sealed with brown bag in order to make the investigators and patients blinded, using brown infusion tube for infusion.","armGroupLabels":["placebo"]}]},"outcomesModule":{"primaryOutcomes":[{"measure":"Modified Rankin Scale 0-1 (favourable outcome) at Day 90","timeFrame":"Day 90"}],"secondaryOutcomes":[{"measure":"The Score of effect on symptoms of \"Xueyue Zheng\"(Blood Stasis syndrome)","timeFrame":"Day 0, Day7, Day 14, Day 30, Day 60, Day 90"},{"measure":"Barthel Index score ≥90","timeFrame":"Day 0, Day7, Day 14, Day 30, Day 60, Day 90"},{"measure":"NIH stroke scale(NIHSS)","description":"The improvement of the NIHSS score ≥4 or the NIHSS score of 0 to 1","timeFrame":"Day 0, Day7, Day 14, Day 30, Day 60, Day 90"},{"measure":"EQ-5D scale","timeFrame":"Day 0, Day 7, Day 14, Day 30, Day 60, Day 90"},{"measure":"Global disability on mRS at Day 90.","description":"The proportion of patients with mRS ≥3 at Day 90.","timeFrame":"Day 90"},{"measure":"Incidence of new-onset major vascular events in 90 days","description":"Major adverse vascular events include ischemic stroke, hemorrhagic stroke, TIA, myocardial infarction and vascular-related death.","timeFrame":"Day 90"},{"measure":"Overall mortality at day 90","timeFrame":"Day 90"},{"measure":"Incidence of severe hemorrhages in 90 days","description":"The definition of \"Severe hemorrhages\" is in accordance with the GUSTO bleeding criteria, including fatal intracranial hemorrhage (ICH), symptomatic intracerebral hemorrhage (sICH) or which could result in substantial hemodynamic compromise requiring treatment.","timeFrame":"Day 90"},{"measure":"Incidence of moderate hemorrhages in 90 days","description":"The definition of \"moderate hemorrhages\" is in accordance with the GUSTO bleeding criteria, which requires blood transfusion but not results in hemodynamic compromise.","timeFrame":"Day 90"},{"measure":"Documentation of adverse events (AEs) and serious AEs","timeFrame":"90 days"}],"otherOutcomes":[{"measure":"The changes on the profiles of micro-RNA in 96 patients selected from certain centers","timeFrame":"Day 0, Day 14, Day 90"},{"measure":"The changes on the expression profiles of mRNA in 96 patients selected from certain centers","timeFrame":"Day 0, Day 14, Day 90"}]},"eligibilityModule":{"eligibilityCriteria":"Inclusion Criteria:\n\n* Female or male inpatients\n* Age: 18 - 70 years.\n* Clinical diagnosis of ischemic stroke causing a measurable neurological deficit defined as impairment of language, motor function, cognition and/or gaze, vision or neglect. Ischemic stroke is defined as an event characterized by the sudden onset of an acute focal neurologic deficit presumed to be due to cerebral ischemia after CT scan excludes hemorrhage.\n* Clinical diagnosis of \"Xueyu Zheng\" (Blood Stasis Syndrome) as the scores of Chinese medicine symptoms scales of \"Xueyu Zheng\" in ischemic stroke ≥ 20. The Chinese medicine symptoms scales of \"Xueyu Zheng\" is defined as following (1)hemiplegia-10,(2)numbness of limbs-10，(3) dark face-9,(4)purple or dark lip-8,(5)Roughness of skin-4, (6) pain with fixed point-5, (7) purple or dark tongue-10,(8)ecchymosis on tongue-10,(9)purple sublingual vessel-10,(10)varicose sublingual vessel-8,(11)unsmooth pulse-8,(12)intermittent pulse-1.\n* Onset of symptoms in 1 week prior to initiation of administration of study drug.\n* Clinical diagnosis of cerebral anterior circulation obstruction.\n* 4≤NIHSS\\<20.\n* Patient is willing to participate voluntarily and to sign a written patient informed consent. Informed consent will be obtained from each patient or the subject's legally authorized representative or relatives, or deferred where applicable, according to the regulatory and legal requirements of the participating centers.\n\nExclusion Criteria:\n\n* Evidence of intracranial hemorrhage (ICH) or other cerebral diseases (eg.vascular malformation, tumor, abscess or multiple sclerosis etc.)on the CT-or MRI-scan.\n* Patients with thrombolysis or endovascular treatment.\n* Known history of allergy or suspected allergic to the drug.\n* Blood glucose 2.8 or \\> 16.8 mmol / l under the treatment of diabetes or with severe complications due to diabetes (eg. peripheral neuropathy, diabetic gangrene).\n* Liver function impairment with the value of ALT or AST over 1.5-fold of normal value.\n* Renal dysfunction with the value of serum creatinine over 1.5-fold of normal value.\n* Severe cardiac dysfunction on echocardiogram or the grade of heart function over Ⅲ grade.\n* History of prior stroke with mRS ≥2.\n* Complicated with atrial fibrillation.\n* Severe stroke as assessed by appropriate imaging techniques (eg. massive cerebral infarction including more than one lobe of brain or over 1/3 of blood-supply area of middle cerebral artery).\n* Prior disable patients.\n* Hemorrhagic tendency or recent severe or dangerous bleeding in 3 months.\n* Suspected addicted into alcohol or drug abuse.\n* With severe complications that would make the condition more complicated assessed by the investigator.\n* Woman with pregnancy, lactation or positive result of pregnancy test, or women who want to be pregnant in recent 6 months.\n* Woman who is under menstrual period.\n* Patient who is participating in other trials or has been participated in other trials in recent 3 months.","healthyVolunteers":false,"sex":"ALL","minimumAge":"18 Years","maximumAge":"70 Years","stdAges":["ADULT","OLDER_ADULT"]},"contactsLocationsModule":{"overallOfficials":[{"name":"Zhong Wang, Professor","affiliation":"Institute of Basic Research in Clinical Medicine, China Academy of Chinese Medical Sciences","role":"PRINCIPAL_INVESTIGATOR"},{"name":"Xing-quan Zhao, Professor","affiliation":"Beijing Tiantan Hospital","role":"PRINCIPAL_INVESTIGATOR"},{"name":"Yong-yan Wang, Professor","affiliation":"Institute of Basic Research in Clinical Medicine, China Academy of Chinese Medical Sciences","role":"STUDY_CHAIR"},{"name":"Xiao-xi Du, Professor","affiliation":"China Food and Drug Administration","role":"STUDY_DIRECTOR"}],"locations":[{"facility":"The Second Artillery General Hospital of Chinese People's Liberation Army","city":"Beijing","state":"Beijing","zip":"100088","country":"China","geoPoint":{"lat":39.9075,"lon":116.39723}},{"facility":"Xinqiao Hospital of Third Military Medical University","city":"Chongqing","state":"Chongqing","zip":"400037","country":"China","geoPoint":{"lat":29.56278,"lon":106.55278}},{"facility":"Chongqing Three Gorges Central Hospital","city":"Chongqing","state":"Chongqing","zip":"404000","country":"China","geoPoint":{"lat":29.56278,"lon":106.55278}},{"facility":"Guangdong No.2 Provincial People's Hospital","city":"Guangzhou","state":"Guangdong","zip":"510317","country":"China","geoPoint":{"lat":23.11667,"lon":113.25}},{"facility":"Guangzhou hospital of integrated Chinese and Western medicine","city":"Guangzhou","state":"Guangdong","zip":"510813","country":"China","geoPoint":{"lat":23.11667,"lon":113.25}},{"facility":"The Second People's Hospital of Shenzhen","city":"Shenzhen","state":"Guangdong","zip":"518028","country":"China","geoPoint":{"lat":22.54554,"lon":114.0683}},{"facility":"The Second Central Hospital of Baoding City","city":"Baoding","state":"Hebei","zip":"072750","country":"China","geoPoint":{"lat":38.85111,"lon":115.49028}},{"facility":"Affiliated Hospital of Chengde Medical University","city":"Chengde","state":"Hebei","zip":"067000","country":"China","geoPoint":{"lat":40.9519,"lon":117.95883}},{"facility":"Handan Central Hospital","city":"Handan","state":"Hebei","zip":"056001","country":"China","geoPoint":{"lat":36.60056,"lon":114.46778}},{"facility":"The Second Affiliated Hopital of Harbin Medical University","city":"Harbin","state":"Helongjiang","zip":"150001","country":"China","geoPoint":{"lat":45.75,"lon":126.65}},{"facility":"The Second Chinese Medical Hospital of Luoyang City","city":"Luoyang","state":"Henan","zip":"471003","country":"China","geoPoint":{"lat":34.68361,"lon":112.45361}},{"facility":"Nanyang T.C.M. Hospital","city":"Nanyang","state":"Henan","zip":"473007","country":"China","geoPoint":{"lat":32.99472,"lon":112.53278}},{"facility":"Nanshi Hospital of Nanyang","city":"Nanyang","state":"Henan","zip":"473065","country":"China","geoPoint":{"lat":32.99472,"lon":112.53278}},{"facility":"The First Affiliated Hospital of Henan University of T.C.M.","city":"Zhengzhou","state":"Henan","zip":"450000","country":"China","geoPoint":{"lat":34.75778,"lon":113.64861}},{"facility":"People's Hospital of Zhengzhou","city":"Zhengzhou","state":"Henan","zip":"450003","country":"China","geoPoint":{"lat":34.75778,"lon":113.64861}},{"facility":"Zhengzhou NO.7 People's Hospital","city":"Zhengzhou","state":"Henan","zip":"450006","country":"China","geoPoint":{"lat":34.75778,"lon":113.64861}},{"facility":"Zhoukou Hospital of T.C.M.","city":"Zhoukou","state":"Henan","zip":"466099","country":"China","geoPoint":{"lat":33.63333,"lon":114.63333}},{"facility":"The Central Hospital of Wuhan","city":"Wuhan","state":"Hubei","zip":"430014","country":"China","geoPoint":{"lat":30.58333,"lon":114.26667}},{"facility":"Zhongnan Hospital of Wuhan University","city":"Wuhan","state":"Hubei","zip":"430030","country":"China","geoPoint":{"lat":30.58333,"lon":114.26667}},{"facility":"Zhongshan Hospital of Hubei Province","city":"Wuhan","state":"Hubei","zip":"430033","country":"China","geoPoint":{"lat":30.58333,"lon":114.26667}},{"facility":"Fifth Hospital in Wuhan","city":"Wuhan","state":"Hubei","zip":"430050","country":"China","geoPoint":{"lat":30.58333,"lon":114.26667}},{"facility":"Renmin Hospital of Wuhan University","city":"Wuhan","state":"Hubei","zip":"430060","country":"China","geoPoint":{"lat":30.58333,"lon":114.26667}},{"facility":"Tianyou Hospital Affiliated to Wuhan University of Science & Technology","city":"Wuhan","state":"Hubei","zip":"430064","country":"China","geoPoint":{"lat":30.58333,"lon":114.26667}},{"facility":"Huangpi District Hospital of T.C.M.","city":"Wuhan","state":"Hubei","zip":"430399","country":"China","geoPoint":{"lat":30.58333,"lon":114.26667}},{"facility":"Changsha Central Hospital","city":"Changsha","state":"Hunan","zip":"410004","country":"China","geoPoint":{"lat":28.19874,"lon":112.97087}},{"facility":"The First Hospital of Changsha","city":"Changsha","state":"Hunan","zip":"410005","country":"China","geoPoint":{"lat":28.19874,"lon":112.97087}},{"facility":"The second people's hospital of Hunan Province","city":"Changsha","state":"Hunan","zip":"410007","country":"China","geoPoint":{"lat":28.19874,"lon":112.97087}},{"facility":"Xiangya Hospital Central-south University","city":"Changsha","state":"Hunan","zip":"410008","country":"China","geoPoint":{"lat":28.19874,"lon":112.97087}},{"facility":"Nanjing Hospital of T.C.M.","city":"Nanjing","state":"Jiangsu","zip":"210001","country":"China","geoPoint":{"lat":32.06167,"lon":118.77778}},{"facility":"The Second Affiliated Hospital of Nanjing Medical University","city":"Nanjing","state":"Jiangsu","zip":"210003","country":"China","geoPoint":{"lat":32.06167,"lon":118.77778}},{"facility":"Nanjing Drum Tower Hospital","city":"Nanjing","state":"Jiangsu","zip":"210008","country":"China","geoPoint":{"lat":32.06167,"lon":118.77778}},{"facility":"Jilin Province People's Hospital","city":"Changchun","state":"Jilin","zip":"130021","country":"China","geoPoint":{"lat":43.88,"lon":125.32278}},{"facility":"The Affiliated Hopital to Changchun University of Chinese Medicine","city":"Changchun","state":"Jilin","zip":"130021","country":"China","geoPoint":{"lat":43.88,"lon":125.32278}},{"facility":"The First Hospital Affiliated to Jilin University","city":"Changchun","state":"Jilin","zip":"130021","country":"China","geoPoint":{"lat":43.88,"lon":125.32278}},{"facility":"China-Japan Union Hospital of Jilin University","city":"Changchun","state":"Jilin","zip":"130033","country":"China","geoPoint":{"lat":43.88,"lon":125.32278}},{"facility":"The Second Hospital of Jilin University","city":"Changchun","state":"Jilin","zip":"130041","country":"China","geoPoint":{"lat":43.88,"lon":125.32278}},{"facility":"Liaoyuan Traditional Chinese Medical Hospital","city":"Liaoyuan","state":"Jilin","zip":"136299","country":"China","geoPoint":{"lat":42.90361,"lon":125.13583}},{"facility":"Anshan Central Hospital","city":"Anshan","state":"Liaoning","zip":"114001","country":"China","geoPoint":{"lat":41.12361,"lon":122.99}},{"facility":"Affiliated Zhongshan Hospital of Dalian University","city":"Dalian","state":"Liaoning","zip":"116001","country":"China","geoPoint":{"lat":38.91222,"lon":121.60222}},{"facility":"Dandong First Hospital","city":"Dandong","state":"Liaoning","zip":"118015","country":"China","geoPoint":{"lat":40.12917,"lon":124.39472}},{"facility":"Panjin Central Hospital","city":"Panjin","state":"Liaoning","zip":"124013","country":"China","geoPoint":{"lat":41.121,"lon":122.0739}},{"facility":"People's Liberation Army No.202 Hospital","city":"Shenyang","state":"Liaoning","zip":"110003","country":"China","geoPoint":{"lat":41.79222,"lon":123.43278}},{"facility":"The General Hospital of Shenyang Military","city":"Shenyang","state":"Liaoning","zip":"110016","country":"China","geoPoint":{"lat":41.79222,"lon":123.43278}},{"facility":"People's Liberation Army No.463 Hospital","city":"Shenyang","state":"Liaoning","zip":"110046","country":"China","geoPoint":{"lat":41.79222,"lon":123.43278}},{"facility":"Affiliated Hospital of Chifeng University","city":"Chifeng","state":"Neimenggu","zip":"024005","country":"China","geoPoint":{"lat":42.26833,"lon":118.96361}},{"facility":"Fenyang Hospital of Shanxi Province","city":"Luliang","state":"Shanxi","zip":"032299","country":"China"},{"facility":"The Second Affiliated Hospital to Shanxi Medical University","city":"Taiyuan","state":"Shanxi","zip":"030001","country":"China","geoPoint":{"lat":37.86944,"lon":112.56028}},{"facility":"Shanxi Province Hospital of T.C.M.","city":"Xi'an","state":"Shanxi","zip":"710003","country":"China","geoPoint":{"lat":34.25833,"lon":108.92861}},{"facility":"The PLA Fourth Fifty-one Hospital","city":"Xi'an","state":"Shanxi","zip":"710054","country":"China","geoPoint":{"lat":34.25833,"lon":108.92861}},{"facility":"Shanxi Provincial People's Hospital","city":"Xi'an","state":"Shanxi","zip":"710068","country":"China","geoPoint":{"lat":34.25833,"lon":108.92861}},{"facility":"Affiliated Hospital of Shanxi University of Chinese Medicine","city":"Xianyang","state":"Shanxi","zip":"712000","country":"China","geoPoint":{"lat":34.33778,"lon":108.70261}},{"facility":"The Second Affiliated Hospital of Shanxi University of T.C.M.","city":"Xianyang","state":"Shanxi","zip":"712000","country":"China","geoPoint":{"lat":34.33778,"lon":108.70261}},{"facility":"Teaching Hospital of Chengdu University of Traditional Chinese Medicine","city":"Chengdu","state":"Sichuan","zip":"610072","country":"China","geoPoint":{"lat":30.66667,"lon":104.06667}},{"facility":"The First Affiliated Hopital of Chengdu Medical College","city":"Chengdu","state":"Sichuan","zip":"610500","country":"China","geoPoint":{"lat":30.66667,"lon":104.06667}},{"facility":"First Teaching Hospital of Tianjin University of Traditional Chinese Medicine","city":"Tianjin","state":"Tianjin","zip":"300193","country":"China","geoPoint":{"lat":39.14222,"lon":117.17667}},{"facility":"Xin Hua Hospital of Zhejiang Province","city":"Hangzhou","state":"Zhejiang","zip":"310005","country":"China","geoPoint":{"lat":30.29365,"lon":120.16142}},{"facility":"Zhejiang Provincial Hospital of T.C.M.","city":"Hangzhou","state":"Zhejiang","zip":"310006","country":"China","geoPoint":{"lat":30.29365,"lon":120.16142}},{"facility":"Zhejiang Provincial People's Hospital","city":"Hangzhou","state":"Zhejiang","zip":"310014","country":"China","geoPoint":{"lat":30.29365,"lon":120.16142}},{"facility":"Huzhou Central Hospital","city":"Huzhou","state":"Zhejiang","zip":"313003","country":"China","geoPoint":{"lat":30.8703,"lon":120.0933}},{"facility":"Peking University First Hospital","city":"Beijing","zip":"100034","country":"China","geoPoint":{"lat":39.9075,"lon":116.39723}},{"facility":"Tiantan Hospital Affiliated to Capital Medical University","city":"Beijing","zip":"100050","country":"China","geoPoint":{"lat":39.9075,"lon":116.39723}},{"facility":"Xuan Wu Hospital Affiliated to Capital Medical University","city":"Beijing","zip":"100053","country":"China","geoPoint":{"lat":39.9075,"lon":116.39723}}]},"referencesModule":{"references":[{"pmid":"26654631","type":"DERIVED","citation":"Li B, Wang Y, Lu J, Liu J, Yuan Y, Yu Y, Wang P, Zhao X, Wang Z. Evaluating the effects of Danhong injection in treatment of acute ischemic stroke: study protocol for a multicenter randomized controlled trial. Trials. 2015 Dec 9;16:561. doi: 10.1186/s13063-015-1076-4."}]}},"derivedSection":{"miscInfoModule":{"versionHolder":"2024-02-14"},"conditionBrowseModule":{"meshes":[{"id":"D000020521","term":"Stroke"},{"id":"D000083242","term":"Ischemic Stroke"}],"ancestors":[{"id":"D000002561","term":"Cerebrovascular Disorders"},{"id":"D000001927","term":"Brain Diseases"},{"id":"D000002493","term":"Central Nervous System Diseases"},{"id":"D000009422","term":"Nervous System Diseases"},{"id":"D000014652","term":"Vascular Diseases"},{"id":"D000002318","term":"Cardiovascular Diseases"}],"browseLeaves":[{"id":"M21996","name":"Stroke","asFound":"Stroke","relevance":"HIGH"},{"id":"M10233","name":"Ischemia","relevance":"LOW"},{"id":"M2401","name":"Ischemic Stroke","asFound":"Ischemic Stroke","relevance":"HIGH"},{"id":"M5500","name":"Cerebrovascular Disorders","relevance":"LOW"},{"id":"M4894","name":"Brain Diseases","relevance":"LOW"},{"id":"M5432","name":"Central Nervous System Diseases","relevance":"LOW"},{"id":"M17090","name":"Vascular Diseases","relevance":"LOW"},{"id":"T170","name":"Acute Graft Versus Host Disease","relevance":"LOW"}],"browseBranches":[{"abbrev":"BC10","name":"Nervous System Diseases"},{"abbrev":"BC14","name":"Heart and Blood Diseases"},{"abbrev":"All","name":"All Conditions"},{"abbrev":"BC23","name":"Symptoms and General Pathology"},{"abbrev":"Rare","name":"Rare Diseases"}]},"interventionBrowseModule":{"browseLeaves":[{"id":"T108","name":"Chinese Salvia","relevance":"LOW"}],"browseBranches":[{"abbrev":"HB","name":"Herbal and Botanical"},{"abbrev":"All","name":"All Drugs and Chemicals"}]}},"hasResults":false}