{"protocolSection":{"identificationModule":{"nctId":"NCT02928497","orgStudyIdInfo":{"id":"S2317"},"organization":{"fullName":"Boston Scientific Corporation","class":"INDUSTRY"},"briefTitle":"Assessment of the WATCHMAN™ Device in Patients Unsuitable for Oral Anticoagulation","officialTitle":"Assessment of the WATCHMAN™ Device in Patients Unsuitable for Oral Anticoagulation (ASAP-TOO)","acronym":"ASAP-TOO"},"statusModule":{"statusVerifiedDate":"2024-01","overallStatus":"ACTIVE_NOT_RECRUITING","expandedAccessInfo":{"hasExpandedAccess":false},"startDateStruct":{"date":"2017-02-06","type":"ACTUAL"},"primaryCompletionDateStruct":{"date":"2025-12","type":"ESTIMATED"},"completionDateStruct":{"date":"2025-12","type":"ESTIMATED"},"studyFirstSubmitDate":"2016-10-05","studyFirstSubmitQcDate":"2016-10-07","studyFirstPostDateStruct":{"date":"2016-10-10","type":"ESTIMATED"},"lastUpdateSubmitDate":"2024-01-26","lastUpdatePostDateStruct":{"date":"2024-01-29","type":"ACTUAL"}},"sponsorCollaboratorsModule":{"responsibleParty":{"type":"SPONSOR"},"leadSponsor":{"name":"Boston Scientific Corporation","class":"INDUSTRY"}},"oversightModule":{"oversightHasDmc":true,"isFdaRegulatedDrug":false,"isFdaRegulatedDevice":true},"descriptionModule":{"briefSummary":"The purpose of this study is to establish the safety and effectiveness of the WATCHMAN™ Left Atrial Appendage Closure (LAAC) Device, including the post-implant medication regimen, for subjects with non-valvular atrial fibrillation who are deemed not to be eligible for anti-coagulation therapy to reduce the risk of stroke.","detailedDescription":"The ASAP-TOO study is a prospective, randomized, multi-center, global investigation to establish the safety and effectiveness of the WATCHMAN Device for subjects with non-valvular atrial fibrillation who are deemed not suitable for anti-coagulation therapy to reduce the risk of stroke.\n\nSubjects will be randomized in a ratio of 2 Device to 1 Control to receive the WATCHMAN LAA closure device (Device) or the control treatment of single antiplatelet medication or no medication at the discretion of the study physician (Control). All randomized subjects will follow the protocol required tests and assessments at each scheduled follow-up visit."},"conditionsModule":{"conditions":["Stroke"],"keywords":["Non-valvular atrial fibrillation","Left atrial appendage"]},"designModule":{"studyType":"INTERVENTIONAL","phases":["NA"],"designInfo":{"allocation":"RANDOMIZED","interventionModel":"PARALLEL","primaryPurpose":"PREVENTION","maskingInfo":{"masking":"NONE"}},"enrollmentInfo":{"count":481,"type":"ACTUAL"}},"armsInterventionsModule":{"armGroups":[{"label":"WATCHMAN (Device)","type":"EXPERIMENTAL","description":"WATCHMAN LAAC Device implant including modified post-implant drug regimen.","interventionNames":["Device: WATCHMAN LAAC Device Implant"]},{"label":"Control","type":"ACTIVE_COMPARATOR","description":"Single antiplatelet therapy or no therapy (Control) at the discretion of the study physician for the duration of the trial.","interventionNames":["Drug: Single Antiplatelet Therapy or No Therapy (Control)"]}],"interventions":[{"type":"DEVICE","name":"WATCHMAN LAAC Device Implant","description":"WATCHMAN LAAC Implant","armGroupLabels":["WATCHMAN (Device)"]},{"type":"DRUG","name":"Single Antiplatelet Therapy or No Therapy (Control)","description":"Single Antiplatelet Therapy or No Therapy at the discretion of the study physician.","armGroupLabels":["Control"]}]},"outcomesModule":{"primaryOutcomes":[{"measure":"Primary 7-Day Device/Procedural Safety Endpoint","description":"The primary safety endpoint is the 7-day combined rate of death, ischemic stroke, systemic embolism and complications requiring major cardiovascular or endovascular intervention.","timeFrame":"7 days"},{"measure":"Primary Efficacy Endpoint - time to first event of ischemic stroke or systemic embolism.","description":"The primary efficacy endpoint is the comparison of time to first event of ischemic stroke and systemic embolism.","timeFrame":"5 years"}],"secondaryOutcomes":[{"measure":"Secondary Endpoint - Composite of All Stroke and Cardiovascular or Unknown Death","description":"The occurrence of stroke (including ischemic and/or hemorrhagic), cardiovascular death (cardiovascular and/or unexplained cause) and systemic embolism","timeFrame":"5 years"},{"measure":"Secondary Endpoint - Major Bleeding","description":"The occurrence of major bleeding (defined as a BARC Type 3 or 5 event)","timeFrame":"5 years"}]},"eligibilityModule":{"eligibilityCriteria":"Inclusion Criteria:\n\n* The subject is of legal age to participate in the study per the laws of their respective geography.\n* The subject has documented paroxysmal, persistent, permanent or long-term/longstanding persistent non-valvular atrial fibrillation (i.e., the subject has not been diagnosed with rheumatic mitral valvular heart disease).\n* The subject has a calculated CHA2DS2-VASc score of 2 or greater.\n* The subject is deemed by two study physicians to be unsuitable for oral anticoagulation.\n* The subject is deemed by a study physician to be suitable for the defined protocol pharmacologic regimen of aspirin and clopidogrel therapy following WATCHMAN Closure Device implant.\n* The subject or legal representative is able to understand and willing to provide written informed consent to participate in the trial.\n* The subject is able and willing to return for required follow-up visits and examinations.\n\nExclusion Criteria:\n\n* The subject is unable or unwilling to return for required follow-up visits and examinations.\n* The subject had or is planning to have any invasive cardiac procedure within 30 days prior to randomization (e.g., cardioversion, ablation).\n* The subject is planning to have any cardiac or non-cardiac invasive or surgical procedure that would necessitate stopping or modifying the protocol required medication regimen within 90 days after the WATCHMAN Closure Device implant (e.g., cardioversion, ablation, cataract surgery).\n* The subject had a prior stroke (of any cause) or TIA within the 30 days prior to randomization.\n* The subject had a prior BARC type 3 or 4 bleeding event within the 14 days prior to randomization. Lack of resolution of related clinical sequelae, or planned and pending interventions to resolve bleeding/bleeding source, are a further exclusion regardless of timing of the bleeding event.\n* The subject has a history of atrial septal repair or has an ASD/PFO device.\n* The subject has an implanted mechanical valve prosthesis in any position.\n* The subject suffers from New York Heart Association Class IV Congestive Heart Failure.\n* The subject has LVEF \\< 30%.\n* The subject is of childbearing potential and is, or plans to become pregnant during the time of the study (method of assessment upon study physician's discretion).\n* The subject is currently enrolled in another investigational study or registry that would directly interfere with the current study, except when the subject is participating in a mandatory governmental registry, or a purely observational registry with no associated treatments. Each instance should be brought to the attention of the sponsor to determine eligibility.\n* The subject has a life expectancy of less than two years.\n* The subject has a known or suspected hypercoagulable state.","healthyVolunteers":false,"sex":"ALL","minimumAge":"18 Years","stdAges":["ADULT","OLDER_ADULT"]},"contactsLocationsModule":{"overallOfficials":[{"name":"Jacqueline Saw, MD","affiliation":"Vancouver General Hospital","role":"PRINCIPAL_INVESTIGATOR"},{"name":"Vivek Reddy, MD","affiliation":"Icahn School of Medicine at Mount Sinai","role":"PRINCIPAL_INVESTIGATOR"},{"name":"Maurice Buchbinder, MD","affiliation":"Stanford University","role":"PRINCIPAL_INVESTIGATOR"}],"locations":[{"facility":"Grandview Medical Center","city":"Birmingham","state":"Alabama","zip":"35243","country":"United States","geoPoint":{"lat":33.52066,"lon":-86.80249}},{"facility":"Huntsville Hospital","city":"Huntsville","state":"Alabama","zip":"35801","country":"United States","geoPoint":{"lat":34.7304,"lon":-86.58594}},{"facility":"Arizona Arrhythmia Research Center","city":"Phoenix","state":"Arizona","zip":"85016","country":"United States","geoPoint":{"lat":33.44838,"lon":-112.07404}},{"facility":"Arrhythmia Research Group","city":"Jonesboro","state":"Arkansas","zip":"72401","country":"United States","geoPoint":{"lat":35.8423,"lon":-90.70428}},{"facility":"Scripps Memorial Hospital","city":"La Jolla","state":"California","zip":"10666","country":"United States","geoPoint":{"lat":32.84727,"lon":-117.2742}},{"facility":"Cedars - Sinai Medical Center","city":"Los Angeles","state":"California","zip":"90048","country":"United States","geoPoint":{"lat":34.05223,"lon":-118.24368}},{"facility":"Sharpe Chula Vista Medical Center","city":"San Diego","state":"California","zip":"92121","country":"United States","geoPoint":{"lat":32.71533,"lon":-117.15726}},{"facility":"Santa Barbara Cottage Hospital","city":"Santa Barbara","state":"California","zip":"93102","country":"United States","geoPoint":{"lat":34.42083,"lon":-119.69819}},{"facility":"St. John's Health Center","city":"Santa Monica","state":"California","zip":"90404","country":"United States","geoPoint":{"lat":34.01945,"lon":-118.49119}},{"facility":"North Colorado Medical Center","city":"Greeley","state":"Colorado","zip":"80631","country":"United States","geoPoint":{"lat":40.42331,"lon":-104.70913}},{"facility":"St. Anthony Hospital","city":"Lakewood","state":"Colorado","zip":"80228","country":"United States","geoPoint":{"lat":39.70471,"lon":-105.08137}},{"facility":"Washington Hospital Center","city":"Washington","state":"District of Columbia","zip":"20010","country":"United States","geoPoint":{"lat":38.89511,"lon":-77.03637}},{"facility":"Delray Medical Center","city":"Delray Beach","state":"Florida","zip":"33484","country":"United States","geoPoint":{"lat":26.46146,"lon":-80.07282}},{"facility":"Lakeland Regional Medical Center","city":"Lakeland","state":"Florida","zip":"33805","country":"United States","geoPoint":{"lat":28.03947,"lon":-81.9498}},{"facility":"Sarasota Memorial Hospital","city":"Sarasota","state":"Florida","zip":"34239","country":"United States","geoPoint":{"lat":27.33643,"lon":-82.53065}},{"facility":"Tallahassee Memorial Hospital","city":"Tallahassee","state":"Florida","zip":"32308","country":"United States","geoPoint":{"lat":30.43826,"lon":-84.28073}},{"facility":"Bay Area Cardiology Associates","city":"Tampa","state":"Florida","zip":"33511","country":"United States","geoPoint":{"lat":27.94752,"lon":-82.45843}},{"facility":"Tampa General Hospital","city":"Tampa","state":"Florida","zip":"33606","country":"United States","geoPoint":{"lat":27.94752,"lon":-82.45843}},{"facility":"Emory University Hospital","city":"Atlanta","state":"Georgia","zip":"30308","country":"United States","geoPoint":{"lat":33.749,"lon":-84.38798}},{"facility":"Northwestern Memorial Hospital","city":"Chicago","state":"Illinois","zip":"60611","country":"United States","geoPoint":{"lat":41.85003,"lon":-87.65005}},{"facility":"Evanston Hospital","city":"Evanston","state":"Illinois","zip":"60201","country":"United States","geoPoint":{"lat":42.04114,"lon":-87.69006}},{"facility":"Edward Hospital","city":"Naperville","state":"Illinois","zip":"60540","country":"United States","geoPoint":{"lat":41.78586,"lon":-88.14729}},{"facility":"Advocate Christ Medical Center","city":"Oak Lawn","state":"Illinois","zip":"60453","country":"United States","geoPoint":{"lat":41.71087,"lon":-87.75811}},{"facility":"St. John's Hospital","city":"Springfield","state":"Illinois","zip":"62769","country":"United States","geoPoint":{"lat":39.80172,"lon":-89.64371}},{"facility":"St. Vincent's Hospital","city":"Indianapolis","state":"Indiana","zip":"46290","country":"United States","geoPoint":{"lat":39.76838,"lon":-86.15804}},{"facility":"Heart Group at Deaconness Hospital","city":"Newburgh","state":"Indiana","zip":"47630","country":"United States","geoPoint":{"lat":37.94449,"lon":-87.40529}},{"facility":"Mercy Hospital Medical Center","city":"West Des Moines","state":"Iowa","zip":"50266","country":"United States","geoPoint":{"lat":41.57721,"lon":-93.71133}},{"facility":"Kansas City Cardiac Arrhythmia Research","city":"Overland Park","state":"Kansas","zip":"66211","country":"United States","geoPoint":{"lat":38.98223,"lon":-94.67079}},{"facility":"Baptist Health Lexington","city":"Lexington","state":"Kentucky","zip":"40503","country":"United States","geoPoint":{"lat":37.98869,"lon":-84.47772}},{"facility":"Maine Medical Center","city":"Portland","state":"Maine","zip":"04074","country":"United States","geoPoint":{"lat":43.66147,"lon":-70.25533}},{"facility":"Union Memorial Hospital","city":"Baltimore","state":"Maryland","zip":"21218","country":"United States","geoPoint":{"lat":39.29038,"lon":-76.61219}},{"facility":"Southcoast Physicians Group","city":"Fall River","state":"Massachusetts","zip":"02720","country":"United States","geoPoint":{"lat":41.70149,"lon":-71.15505}},{"facility":"Henry Ford Hospital","city":"Detroit","state":"Michigan","zip":"48202","country":"United States","geoPoint":{"lat":42.33143,"lon":-83.04575}},{"facility":"Mayo Clinic Foundation","city":"Rochester","state":"Minnesota","zip":"55905","country":"United States","geoPoint":{"lat":44.02163,"lon":-92.4699}},{"facility":"Centracare Heart and Vascular","city":"Saint Cloud","state":"Minnesota","zip":"56303","country":"United States","geoPoint":{"lat":45.5608,"lon":-94.16249}},{"facility":"HealthEast St. Joseph's Hospital","city":"Saint Paul","state":"Minnesota","zip":"55102","country":"United States","geoPoint":{"lat":44.94441,"lon":-93.09327}},{"facility":"North Mississippi Medical Center","city":"Tupelo","state":"Mississippi","zip":"38801","country":"United States","geoPoint":{"lat":34.25807,"lon":-88.70464}},{"facility":"St. Luke's Hospital of Kansas City","city":"Kansas City","state":"Missouri","zip":"64111","country":"United States","geoPoint":{"lat":39.09973,"lon":-94.57857}},{"facility":"Mercy Research","city":"Saint Louis","state":"Missouri","zip":"63141","country":"United States","geoPoint":{"lat":38.62727,"lon":-90.19789}},{"facility":"Billings Clinic","city":"Billings","state":"Montana","zip":"59101","country":"United States","geoPoint":{"lat":45.78329,"lon":-108.50069}},{"facility":"The Nebraska Medical Center","city":"Omaha","state":"Nebraska","zip":"68198","country":"United States","geoPoint":{"lat":41.25626,"lon":-95.94043}},{"facility":"Dartmouth Hitchcock Medical Center","city":"Lebanon","state":"New Hampshire","zip":"03756","country":"United States","geoPoint":{"lat":43.64229,"lon":-72.25176}},{"facility":"Catholic Medical Center","city":"Manchester","state":"New Hampshire","zip":"03102","country":"United States","geoPoint":{"lat":42.99564,"lon":-71.45479}},{"facility":"Cardiovascular Associates of the Delaware Valley","city":"Haddon Heights","state":"New Jersey","zip":"08035","country":"United States","geoPoint":{"lat":39.87734,"lon":-75.06462}},{"facility":"St. Barnabas Medical Center","city":"Newark","state":"New Jersey","zip":"07112","country":"United States","geoPoint":{"lat":40.73566,"lon":-74.17237}},{"facility":"The Valley Hospital","city":"Ridgewood","state":"New Jersey","zip":"07450","country":"United States","geoPoint":{"lat":40.97926,"lon":-74.11653}},{"facility":"Mount Sinai Medical Center","city":"New York","state":"New York","zip":"10029","country":"United States","geoPoint":{"lat":40.71427,"lon":-74.00597}},{"facility":"Rochester General Hospital","city":"Rochester","state":"New York","zip":"14621","country":"United States","geoPoint":{"lat":43.15478,"lon":-77.61556}},{"facility":"Northwell Health","city":"Staten Island","state":"New York","zip":"10305","country":"United States","geoPoint":{"lat":40.56233,"lon":-74.13986}},{"facility":"Carolinas Medical Center","city":"Charlotte","state":"North Carolina","zip":"28203","country":"United States","geoPoint":{"lat":35.22709,"lon":-80.84313}},{"facility":"Summa Health System","city":"Akron","state":"Ohio","zip":"44304","country":"United States","geoPoint":{"lat":41.08144,"lon":-81.51901}},{"facility":"Aultman Hospital","city":"Canton","state":"Ohio","zip":"44710","country":"United States","geoPoint":{"lat":40.79895,"lon":-81.37845}},{"facility":"Ohio State University Medical Center","city":"Columbus","state":"Ohio","zip":"43210","country":"United States","geoPoint":{"lat":39.96118,"lon":-82.99879}},{"facility":"OhioHealth Research and Innovation Institute - Riverside Methodist Hospital","city":"Columbus","state":"Ohio","zip":"43214","country":"United States","geoPoint":{"lat":39.96118,"lon":-82.99879}},{"facility":"Oklahoma Heart Institute","city":"Tulsa","state":"Oklahoma","zip":"74104","country":"United States","geoPoint":{"lat":36.15398,"lon":-95.99277}},{"facility":"Oregon Health Sciences University","city":"Portland","state":"Oregon","zip":"97239","country":"United States","geoPoint":{"lat":45.52345,"lon":-122.67621}},{"facility":"Lehigh Valley Hospital","city":"Allentown","state":"Pennsylvania","zip":"18103","country":"United States","geoPoint":{"lat":40.60843,"lon":-75.49018}},{"facility":"UPMC Heart and Vascular Institute Harrisburg","city":"Harrisburg","state":"Pennsylvania","zip":"17043","country":"United States","geoPoint":{"lat":40.2737,"lon":-76.88442}},{"facility":"Penn State Milton S Hershey Medical Center","city":"Hershey","state":"Pennsylvania","zip":"17033","country":"United States","geoPoint":{"lat":40.28592,"lon":-76.65025}},{"facility":"York Hospital","city":"York","state":"Pennsylvania","zip":"17403","country":"United States","geoPoint":{"lat":39.9626,"lon":-76.72774}},{"facility":"Saint Thomas Health","city":"Nashville","state":"Tennessee","zip":"37205","country":"United States","geoPoint":{"lat":36.16589,"lon":-86.78444}},{"facility":"Baylor Heart and Vascular Hospital","city":"Dallas","state":"Texas","zip":"75226","country":"United States","geoPoint":{"lat":32.78306,"lon":-96.80667}},{"facility":"University of Texas Houston Health Science Center","city":"The Woodlands","state":"Texas","zip":"77384","country":"United States","geoPoint":{"lat":30.15799,"lon":-95.48938}},{"facility":"University of Virginia Medical Center","city":"Charlottesville","state":"Virginia","zip":"22908","country":"United States","geoPoint":{"lat":38.02931,"lon":-78.47668}},{"facility":"Inova Fairfax Hospital","city":"Falls Church","state":"Virginia","zip":"22042","country":"United States","geoPoint":{"lat":38.88233,"lon":-77.17109}},{"facility":"Carilion Roanoke Memorial Hospital","city":"Roanoke","state":"Virginia","zip":"24014","country":"United States","geoPoint":{"lat":37.27097,"lon":-79.94143}},{"facility":"CHI Franciscan Health System","city":"Tacoma","state":"Washington","zip":"98405","country":"United States","geoPoint":{"lat":47.25288,"lon":-122.44429}},{"facility":"PeaceHealth Southwest Medical","city":"Vancouver","state":"Washington","zip":"98664","country":"United States","geoPoint":{"lat":45.63873,"lon":-122.66149}},{"facility":"Aurora St. Luke's Medical Center","city":"Milwaukee","state":"Wisconsin","zip":"53215","country":"United States","geoPoint":{"lat":43.0389,"lon":-87.90647}},{"facility":"Froedtert Memorial Lutheran Hospital","city":"Milwaukee","state":"Wisconsin","zip":"53215","country":"United States","geoPoint":{"lat":43.0389,"lon":-87.90647}},{"facility":"Aspirus Heart and Vascular Institute - Research and Education","city":"Wausau","state":"Wisconsin","zip":"54401","country":"United States","geoPoint":{"lat":44.95914,"lon":-89.63012}},{"facility":"Onze Lieve Vrouw Ziekenhuis","city":"Aalst","zip":"9300","country":"Belgium","geoPoint":{"lat":50.93604,"lon":4.0355}},{"facility":"ZNA Middelheim","city":"Antwerp","country":"Belgium","geoPoint":{"lat":51.21989,"lon":4.40346}},{"facility":"Ottawa Heart Institute","city":"Ottawa","country":"Canada","geoPoint":{"lat":45.41117,"lon":-75.69812}},{"facility":"Institut universitaire de Cardiologie et de Pneumologie de Quebec","city":"Ste-foy","country":"Canada","geoPoint":{"lat":46.75615,"lon":-71.29543}},{"facility":"Vancouver General Hospital","city":"Vancouver","country":"Canada","geoPoint":{"lat":49.24966,"lon":-123.11934}},{"facility":"Na Homolce Hospital","city":"Prague","zip":"150 30","country":"Czechia","geoPoint":{"lat":50.08804,"lon":14.42076}},{"facility":"Aarhus University Hospital","city":"Aarhus N","zip":"DK-8200","country":"Denmark","geoPoint":{"lat":56.15674,"lon":10.21076}},{"facility":"Rigshospitalet Copenhagen","city":"Copenhagen","zip":"2100","country":"Denmark","geoPoint":{"lat":55.67594,"lon":12.56553}},{"facility":"Universitaetsklinikum Dusseldorf","city":"Dusseldorf","country":"Germany","geoPoint":{"lat":51.22172,"lon":6.77616}},{"facility":"St.Johann Nepomuk Katholisches Hospitalvereinigung Thüringen GmbH","city":"Erfurt","country":"Germany","geoPoint":{"lat":50.9787,"lon":11.03283}},{"facility":"Cardioangiologisches Centrum Bethanien","city":"Frankfurt","country":"Germany","geoPoint":{"lat":50.11552,"lon":8.68417}},{"facility":"Cardiologicum Hamburg Praxis Wandsbek","city":"Hamburg","country":"Germany","geoPoint":{"lat":53.57532,"lon":10.01534}},{"facility":"Herzzentrum Universität Leipzig","city":"Leipzig","country":"Germany","geoPoint":{"lat":51.33962,"lon":12.37129}},{"facility":"Fondazione Toscana Gabriele Monasterio","city":"Massa","country":"Italy","geoPoint":{"lat":44.03541,"lon":10.13927}},{"facility":"Medisch Spectrum Twente","city":"Enschede","country":"Netherlands","geoPoint":{"lat":52.21833,"lon":6.89583}},{"facility":"St. Antonius Ziekenhuis","city":"Nieuwegein","country":"Netherlands","geoPoint":{"lat":52.02917,"lon":5.08056}},{"facility":"Royal Victoria Hospital","city":"Belfast","country":"United Kingdom","geoPoint":{"lat":54.59682,"lon":-5.92541}},{"facility":"Royal Sussex County Hospital","city":"Brighton","country":"United Kingdom","geoPoint":{"lat":50.82838,"lon":-0.13947}},{"facility":"Guys and St. Thomas NHS Foundation Trust","city":"London","country":"United Kingdom","geoPoint":{"lat":51.50853,"lon":-0.12574}},{"facility":"The Brompton Hospital","city":"London","country":"United Kingdom","geoPoint":{"lat":51.50853,"lon":-0.12574}},{"facility":"John Radcliffe Hospital","city":"Oxford","country":"United Kingdom","geoPoint":{"lat":51.75222,"lon":-1.25596}}]},"referencesModule":{"references":[{"pmid":"31673900","type":"DERIVED","citation":"Alomar M, Fradley MG. Electrophysiology Translational Considerations in Cardio-Oncology: QT and Beyond. J Cardiovasc Transl Res. 2020 Jun;13(3):390-401. doi: 10.1007/s12265-019-09924-y. Epub 2019 Oct 31."}]},"ipdSharingStatementModule":{"ipdSharing":"NO"}},"derivedSection":{"miscInfoModule":{"versionHolder":"2024-02-14","removedCountries":["Poland"]},"conditionBrowseModule":{"browseLeaves":[{"id":"M21996","name":"Stroke","relevance":"LOW"},{"id":"M4276","name":"Atrial Fibrillation","relevance":"LOW"}],"browseBranches":[{"abbrev":"BC10","name":"Nervous System Diseases"},{"abbrev":"BC14","name":"Heart and Blood Diseases"},{"abbrev":"All","name":"All Conditions"},{"abbrev":"BC23","name":"Symptoms and General Pathology"}]}},"hasResults":false}