{"protocolSection":{"identificationModule":{"nctId":"NCT00883402","orgStudyIdInfo":{"id":"ACST-2"},"organization":{"fullName":"University of Oxford","class":"OTHER"},"briefTitle":"Carotid Endarterectomy Versus Carotid Artery Stenting in Asymptomatic Patients","officialTitle":"Asymptomatic Carotid Surgery Trial-2 (ACST-2): an International Randomised Trial to Compare Carotid Endarterectomy With Carotid Artery Stenting to Prevent Stroke","acronym":"ACST-2"},"statusModule":{"statusVerifiedDate":"2019-04","overallStatus":"UNKNOWN","lastKnownStatus":"RECRUITING","expandedAccessInfo":{"hasExpandedAccess":false},"startDateStruct":{"date":"2008-01"},"primaryCompletionDateStruct":{"date":"2020-12","type":"ESTIMATED"},"completionDateStruct":{"date":"2020-12","type":"ESTIMATED"},"studyFirstSubmitDate":"2009-04-15","studyFirstSubmitQcDate":"2009-04-15","studyFirstPostDateStruct":{"date":"2009-04-17","type":"ESTIMATED"},"lastUpdateSubmitDate":"2020-03-23","lastUpdatePostDateStruct":{"date":"2020-03-24","type":"ACTUAL"}},"sponsorCollaboratorsModule":{"responsibleParty":{"type":"SPONSOR"},"leadSponsor":{"name":"University of Oxford","class":"OTHER"},"collaborators":[{"name":"NHS Health Technology Assessment Programme","class":"OTHER"},{"name":"BUPA Foundation","class":"OTHER"}]},"oversightModule":{"oversightHasDmc":true,"isFdaRegulatedDrug":false,"isFdaRegulatedDevice":false},"descriptionModule":{"briefSummary":"The trial randomise patients with asymptomatic carotid artery narrowing in whom prompt physical intervention is thought to be needed, but there there is still substantial uncertainty shared by patient and doctor about whether surgery or stenting is the more appropriate choice.\n\nThe study is looking at immediate risks (within one month)and at long term benefits"},"conditionsModule":{"conditions":["Carotid Stenosis"],"keywords":["Carotid stenosis","CEA","CAS","Stenting"]},"designModule":{"studyType":"INTERVENTIONAL","phases":["NA"],"designInfo":{"allocation":"RANDOMIZED","interventionModel":"PARALLEL","primaryPurpose":"PREVENTION","maskingInfo":{"masking":"NONE"}},"enrollmentInfo":{"count":3600,"type":"ESTIMATED"}},"armsInterventionsModule":{"armGroups":[{"label":"CEA","type":"ACTIVE_COMPARATOR","description":"Carotid endarterectomy","interventionNames":["Procedure: CEA, CAS"]},{"label":"CAS","type":"ACTIVE_COMPARATOR","description":"Carotid Artery Stenting","interventionNames":["Procedure: CEA, CAS"]}],"interventions":[{"type":"PROCEDURE","name":"CEA, CAS","description":"Carotid Artery Stenting (CAS) Carotid endarterectomy (CEA)","armGroupLabels":["CAS","CEA"]}]},"outcomesModule":{"primaryOutcomes":[{"measure":"To compare peri-procedural risks (MI, stroke and death) within the first month after the allocated CEA or CAS and long-term (up to 5 or more years) prevention of stroke, particularly disabling or fatal stroke, in subsequent years.","timeFrame":"10 years"}],"secondaryOutcomes":[{"measure":"To identify types of patients to be identified in which one or other procedure is clearly preferable as well as economic evaluation; procedural costs and stroke-related healthcare costs and quality of life.","timeFrame":"10 years"}]},"eligibilityModule":{"eligibilityCriteria":"Inclusion Criteria:\n\n* Carotid artery stenosis detectable by duplex ultrasound, with no ipsilateral carotid territory symptoms(or none for some months) and no previous procedure done on it, which might well need procedural treatment now with CEA or CAS.\n* Already started any appropriate medical treatment (eg, statin, aspirin etc), and already recovered from any necessary coronary procedures (eg, CABG)\n* Patient seems fit and willing for follow-up in person (at 1 month) and by annual letter (for at least 5 years)\n* Investigations show that both procedures (CEA and CAS) appear to be practicable and appropriate\n* Some type of angiography (eg, MRA or CTA) has already been done that has shown that CEA and CAS would both be anatomically practicable.\n* Doctor and patient both substantially uncertain about whether to treat with CEA or CAS, and the doctor sees no clear indication/contra-indication for either procedure\n\nExclusion Criteria:\n\n* Small likelihood of worthwhile benefit (eg, very low risk of stroke because stenosis is very minor, or major co-morbidity or life-threatening disease, such as advanced cancer)\n* Unsuitable for one or other procedure (eg, stenosis at carotid siphon that is inaccessible for CEA, or complex vasculature below the stenosis that would hinder CAS, or patient unfit for major surgery)","healthyVolunteers":false,"sex":"ALL","minimumAge":"18 Years","stdAges":["ADULT","OLDER_ADULT"]},"contactsLocationsModule":{"centralContacts":[{"name":"Alison Halliday","role":"CONTACT","phone":"+ 44 1865 617975","email":"acst@nds.ox.ac.uk"},{"name":"Richard Bulbulia","role":"CONTACT","phone":"+44 1865 743891","email":"acst@nds.ox.ac.uk"}],"overallOfficials":[{"name":"Alison Halliday","affiliation":"University of Oxford","role":"PRINCIPAL_INVESTIGATOR"}],"locations":[{"facility":"University of Toledo Medical Centre","status":"ACTIVE_NOT_RECRUITING","city":"Toledo","state":"Ohio","zip":"43614","country":"United States","geoPoint":{"lat":41.66394,"lon":-83.55521}},{"facility":"Medical University of Innsbruck","status":"RECRUITING","city":"Innsbruck","country":"Austria","contacts":[{"name":"Gustav Fraedrich, Prof","role":"CONTACT"}],"geoPoint":{"lat":47.26266,"lon":11.39454}},{"facility":"University Hospital Antwerp","status":"RECRUITING","city":"Antwerp","country":"Belgium","contacts":[{"name":"Prof Hendriks","role":"CONTACT"}],"geoPoint":{"lat":51.21989,"lon":4.40346}},{"facility":"University St Lucas","status":"ACTIVE_NOT_RECRUITING","city":"Brussels","country":"Belgium","geoPoint":{"lat":50.85045,"lon":4.34878}},{"facility":"Az St Blasius","status":"ACTIVE_NOT_RECRUITING","city":"Dendermonde","country":"Belgium","geoPoint":{"lat":51.02869,"lon":4.10106}},{"facility":"University Hospital Gent","status":"RECRUITING","city":"Gent","country":"Belgium","contacts":[{"name":"Frank Vermassen, Professor","role":"CONTACT"}],"geoPoint":{"lat":51.05,"lon":3.71667}},{"facility":"Centre Hospitalier Régional de la Citadelle","status":"ACTIVE_NOT_RECRUITING","city":"Liege","country":"Belgium","geoPoint":{"lat":50.63373,"lon":5.56749}},{"facility":"Centre Hospitalier De Mouscron","status":"ACTIVE_NOT_RECRUITING","city":"Mouscron","country":"Belgium","geoPoint":{"lat":50.74497,"lon":3.20639}},{"facility":"University of Sao Paulo","status":"RECRUITING","city":"Sao Paulo","country":"Brazil","contacts":[{"name":"Erasmo Da Silva, Dr","role":"CONTACT"}],"geoPoint":{"lat":-23.5475,"lon":-46.63611}},{"facility":"HCFM Ribeirao Preto da Universidade de Sao Paulo","status":"RECRUITING","city":"São Paulo","country":"Brazil","contacts":[{"name":"Edwaldo E Joviliano, Dr","role":"CONTACT"}],"geoPoint":{"lat":-23.5475,"lon":-46.63611}},{"facility":"Sveta Marina Hospital","status":"RECRUITING","city":"Varna","country":"Bulgaria","geoPoint":{"lat":43.21667,"lon":27.91667}},{"facility":"Foothills Medical Centre","status":"RECRUITING","city":"Calgary","country":"Canada","contacts":[{"name":"Michael Hill, Dr","role":"CONTACT"}],"geoPoint":{"lat":51.05011,"lon":-114.08529}},{"facility":"China-Japan Friendship Hospital","status":"RECRUITING","city":"Beijing","country":"China","contacts":[{"name":"Ye Zhidong, Dr","role":"CONTACT"}],"geoPoint":{"lat":39.9075,"lon":116.39723}},{"facility":"Peking Union Medical College Hospital","status":"RECRUITING","city":"Beijing","country":"China","contacts":[{"name":"Liu Bao, Professor","role":"CONTACT"}],"geoPoint":{"lat":39.9075,"lon":116.39723}},{"facility":"University Hospital Centre Zagreb","status":"RECRUITING","city":"Zagreb","country":"Croatia","contacts":[{"name":"Mladen Petrunic, Prof","role":"CONTACT"}],"geoPoint":{"lat":45.81444,"lon":15.97798}},{"facility":"University Hospital of Merkur","status":"RECRUITING","city":"Zagreb","country":"Croatia","contacts":[{"name":"Ivan Cvjetko, Dr","role":"CONTACT"}],"geoPoint":{"lat":45.81444,"lon":15.97798}},{"facility":"St Anne's University Hospital Brno","status":"RECRUITING","city":"Brno","country":"Czechia","contacts":[{"name":"Robert Staffa, Prof","role":"CONTACT"}],"geoPoint":{"lat":49.19522,"lon":16.60796}},{"facility":"Regional Hospital Liberec","status":"RECRUITING","city":"Liberec","country":"Czechia","contacts":[{"name":"Vladimir Benes, Dr","role":"CONTACT"}],"geoPoint":{"lat":50.76711,"lon":15.05619}},{"facility":"University Hospital Ostrava Poruba","status":"RECRUITING","city":"Ostrava Poruba","country":"Czechia","contacts":[{"name":"Dr Prochazka","role":"CONTACT"}],"geoPoint":{"lat":49.83465,"lon":18.28204}},{"facility":"Central Military Hospital","status":"RECRUITING","city":"Prague","country":"Czechia","geoPoint":{"lat":50.08804,"lon":14.42076}},{"facility":"Hospital Ceské Budejovice","status":"RECRUITING","city":"České Budějovice","country":"Czechia","contacts":[{"name":"Jiri Fiedler, Dr","role":"CONTACT"}],"geoPoint":{"lat":48.97447,"lon":14.47434}},{"facility":"Kasr Alaini University Hospital","status":"ACTIVE_NOT_RECRUITING","city":"Cairo","country":"Egypt","geoPoint":{"lat":30.06263,"lon":31.24967}},{"facility":"East Tallinn general Hospital","status":"RECRUITING","city":"Tallinn","country":"Estonia","contacts":[{"name":"Veronika Palmiste, Dr","role":"CONTACT"}],"geoPoint":{"lat":59.43696,"lon":24.75353}},{"facility":"Henri Mondor University Hospital","status":"RECRUITING","city":"Paris","country":"France","contacts":[{"name":"Jean Pierre Becquemin, Prof","role":"CONTACT"}],"geoPoint":{"lat":48.85341,"lon":2.3488}},{"facility":"University of Dresden 'Carl-Gustav-Carus'","status":"RECRUITING","city":"Dresden","country":"Germany","contacts":[{"name":"Jessica Barlinn, Dr","role":"CONTACT"}],"geoPoint":{"lat":51.05089,"lon":13.73832}},{"facility":"Universitätsklinikum Hamburg-Eppendorf","status":"RECRUITING","city":"Hamburg","country":"Germany","contacts":[{"name":"Sebastian Debus, prof","role":"CONTACT"}],"geoPoint":{"lat":53.57532,"lon":10.01534}},{"facility":"Universitätsklinik Jena","status":"RECRUITING","city":"Jena","country":"Germany","contacts":[{"name":"Albrecht Guenther, Prof","role":"CONTACT"}],"geoPoint":{"lat":50.92878,"lon":11.5899}},{"facility":"Städtisches Klinikum Karlsruhe","status":"RECRUITING","city":"Karlsruhe","country":"Germany","contacts":[{"name":"Martin Storck, Prof","role":"CONTACT"}],"geoPoint":{"lat":49.00937,"lon":8.40444}},{"facility":"University of Leipzig","status":"RECRUITING","city":"Leipzig","country":"Germany","contacts":[{"name":"Dierk Scheinert, Prof","role":"CONTACT"}],"geoPoint":{"lat":51.33962,"lon":12.37129}},{"facility":"Universitätsmedizin Mannheim","status":"RECRUITING","city":"Mannheim","country":"Germany","contacts":[{"name":"Angelika Alonso, Prof","role":"CONTACT"}],"geoPoint":{"lat":49.4891,"lon":8.46694}},{"facility":"Klinikum rechts der Isar derTechnischen Universität Muenchen","status":"RECRUITING","city":"Munich","country":"Germany","contacts":[{"name":"Hans Henning Eckstein, Prof","role":"CONTACT"}],"geoPoint":{"lat":48.13743,"lon":11.57549}},{"facility":"St Franziskus-Hospital Münster GmbH","status":"RECRUITING","city":"Munster","country":"Germany","contacts":[{"name":"Giovanni Torsello, Prof","role":"CONTACT"}],"geoPoint":{"lat":51.96236,"lon":7.62571}},{"facility":"Hegau-Bodensee-Klinikum","status":"RECRUITING","city":"Singen","country":"Germany","contacts":[{"name":"Tomas Pfeiffer, Prof","role":"CONTACT"}],"geoPoint":{"lat":47.75935,"lon":8.8403}},{"facility":"Democritus University of Thrace","status":"RECRUITING","city":"Alexandroupolis","zip":"68100","country":"Greece","contacts":[{"name":"Miltos Lazarides, Prof","role":"CONTACT"}],"geoPoint":{"lat":40.84995,"lon":25.87644}},{"facility":"Dept. of Vascular Surgery, Attikon University Hospital","status":"RECRUITING","city":"Athens","country":"Greece","contacts":[{"name":"Spyros Vasdekis, Prof","role":"CONTACT"}],"geoPoint":{"lat":37.97945,"lon":23.71622}},{"facility":"University Hospital of Larissa","status":"RECRUITING","city":"Larissa","country":"Greece","contacts":[{"name":"Athanasious Giannoukas, Prof","role":"CONTACT"}],"geoPoint":{"lat":39.63689,"lon":22.41761}},{"facility":"Semmelweis Medical University","status":"RECRUITING","city":"Budapest","country":"Hungary","contacts":[{"name":"Lazslo Entz, Prof","role":"CONTACT"}],"geoPoint":{"lat":47.49801,"lon":19.03991}},{"facility":"Albert Szent-Györgyi Medical Centre","status":"RECRUITING","city":"Szeged","country":"Hungary","contacts":[{"name":"Pal Barzo, Prof","role":"CONTACT"}],"geoPoint":{"lat":46.253,"lon":20.14824}},{"facility":"St. James' Hospital","status":"ACTIVE_NOT_RECRUITING","city":"Dublin","country":"Ireland","geoPoint":{"lat":53.33306,"lon":-6.24889}},{"facility":"Rambam Hospital","status":"RECRUITING","city":"Haifa","country":"Israel","contacts":[{"name":"Prof Hoffman","role":"CONTACT"}],"geoPoint":{"lat":32.81841,"lon":34.9885}},{"facility":"Cefalu Fondazione Istituto G.Giglio","status":"RECRUITING","city":"Cefalu","state":"PA","zip":"90015","country":"Italy","contacts":[{"name":"Pierfrancesco Veroux, Prof","role":"CONTACT"}],"geoPoint":{"lat":38.03856,"lon":14.02285}},{"facility":"Azienda Ospedaliera S.G Moscati","status":"RECRUITING","city":"Avellino","country":"Italy","contacts":[{"name":"giovanni Amatucci, Dr","role":"CONTACT"}],"geoPoint":{"lat":40.91494,"lon":14.79103}},{"facility":"University of Bari","status":"RECRUITING","city":"Bari","country":"Italy","contacts":[{"name":"Raffaele Pulli, Prof","role":"CONTACT"}],"geoPoint":{"lat":41.11148,"lon":16.8554}},{"facility":"University of Bologna","status":"RECRUITING","city":"Bologna","country":"Italy","contacts":[{"name":"A Stella, Prof","role":"CONTACT"}],"geoPoint":{"lat":44.49381,"lon":11.33875}},{"facility":"Policlinico Catania","status":"RECRUITING","city":"Catania","country":"Italy","contacts":[{"name":"P Veroux, Prof","role":"CONTACT"}],"geoPoint":{"lat":37.49223,"lon":15.07041}},{"facility":"Azienda Ospedaliero-Universitaria S.Anna","status":"RECRUITING","city":"Ferrera","country":"Italy","contacts":[{"name":"Vincenzo Gasbarro, Prof","role":"CONTACT"}],"geoPoint":{"lat":44.35,"lon":7.31667}},{"facility":"San Giovanni Di Dio","status":"RECRUITING","city":"Florence","country":"Italy","contacts":[{"name":"S Michelagnoli, Prof","role":"CONTACT"}],"geoPoint":{"lat":43.77925,"lon":11.24626}},{"facility":"Opsedale Villa Scassi","status":"NOT_YET_RECRUITING","city":"Genoa","zip":"16149","country":"Italy","contacts":[{"name":"Gianantonio Simoni, Dr","role":"CONTACT","phone":"+39 010 8492870"}],"geoPoint":{"lat":44.40478,"lon":8.94438}},{"facility":"IRCCS San Martino","status":"RECRUITING","city":"Genoa","country":"Italy","contacts":[{"name":"D Palombo, Prof","role":"CONTACT"}],"geoPoint":{"lat":44.40478,"lon":8.94438}},{"facility":"Fondazione IRCCS Ca' Granda - Ospedale Maggiore Policlinico di Milano","status":"RECRUITING","city":"Milan","country":"Italy","contacts":[{"name":"Livio Gabrielli, Prof","role":"CONTACT"}],"geoPoint":{"lat":45.46427,"lon":9.18951}},{"facility":"IRCCS Policlinico San Donato","status":"RECRUITING","city":"Milan","country":"Italy","contacts":[{"name":"G Nano, Prof","role":"CONTACT"}],"geoPoint":{"lat":45.46427,"lon":9.18951}},{"facility":"Istituto Auxologico Italiano","status":"RECRUITING","city":"Milan","country":"Italy","contacts":[{"name":"Renato Casana, Dr","role":"CONTACT"}],"geoPoint":{"lat":45.46427,"lon":9.18951}},{"facility":"San Paolo Hospital","status":"ACTIVE_NOT_RECRUITING","city":"Milan","country":"Italy","geoPoint":{"lat":45.46427,"lon":9.18951}},{"facility":"Mirano Hospital","status":"RECRUITING","city":"Mirano","country":"Italy","contacts":[{"name":"Salvatore Sacca, Dr","role":"CONTACT"}],"geoPoint":{"lat":45.49458,"lon":12.10775}},{"facility":"Nuovo Ospedale Civile Sant' Agostino Estense","status":"ACTIVE_NOT_RECRUITING","city":"Modena","country":"Italy","geoPoint":{"lat":44.64783,"lon":10.92539}},{"facility":"Policlinico di Monza","status":"RECRUITING","city":"Monza","country":"Italy","contacts":[{"name":"Valerio S Tolva, Dr","role":"CONTACT"}],"geoPoint":{"lat":45.58005,"lon":9.27246}},{"facility":"Ospedale San Francesco di Nuoro","status":"ACTIVE_NOT_RECRUITING","city":"Nuoro","country":"Italy","geoPoint":{"lat":40.31991,"lon":9.32568}},{"facility":"University of Palermo","status":"ACTIVE_NOT_RECRUITING","city":"Palermo","country":"Italy","geoPoint":{"lat":38.13205,"lon":13.33561}},{"facility":"Foundation IRCCS Policlinico San Matteo","status":"ACTIVE_NOT_RECRUITING","city":"Pavia","country":"Italy","geoPoint":{"lat":45.19205,"lon":9.15917}},{"facility":"Vascular Endovascular Unit of Perugia","status":"RECRUITING","city":"Perugia","country":"Italy","contacts":[{"name":"Gianbattista Parlani, Dr","role":"CONTACT"}],"geoPoint":{"lat":43.1122,"lon":12.38878}},{"facility":"Santa Maria Hospital - Reggio","status":"RECRUITING","city":"Raggio","country":"Italy","contacts":[{"name":"Dr Tusini","role":"CONTACT"}]},{"facility":"Policlinico Universitario Campus Bio-medico di Roma","status":"RECRUITING","city":"Roma","zip":"00128","country":"Italy","contacts":[{"name":"Francesco Spinelli, Prof","role":"CONTACT","phone":"+39 06225411612"}],"geoPoint":{"lat":41.89193,"lon":12.51133}},{"facility":"A.C.O. San Fillippo Neri","status":"RECRUITING","city":"Rome","country":"Italy","contacts":[{"name":"Sonia Ronchey, Dr","role":"CONTACT"}],"geoPoint":{"lat":41.89193,"lon":12.51133}},{"facility":"Fondazione Policlinico U. Agostino Gemeli IRCCS","status":"NOT_YET_RECRUITING","city":"Rome","country":"Italy","contacts":[{"name":"Y Tshomba","role":"CONTACT"}],"geoPoint":{"lat":41.89193,"lon":12.51133}},{"facility":"San Camillo Forlanini","status":"RECRUITING","city":"Rome","country":"Italy","contacts":[{"name":"Nicola Mangialardi, Prof","role":"CONTACT"}],"geoPoint":{"lat":41.89193,"lon":12.51133}},{"facility":"University La Sapienza","status":"RECRUITING","city":"Rome","country":"Italy","contacts":[{"name":"Francesco Speziale, Prof","role":"CONTACT"}],"geoPoint":{"lat":41.89193,"lon":12.51133}},{"facility":"IRCCS Clinico Humanitas","status":"RECRUITING","city":"Rozzano","zip":"20089","country":"Italy","contacts":[{"name":"Efram Civilini, Professor","role":"CONTACT"}],"geoPoint":{"lat":45.38193,"lon":9.1559}},{"facility":"Santa Maria alle Scotte","status":"RECRUITING","city":"Siena","country":"Italy","contacts":[{"name":"Prof Setacci","role":"CONTACT"}],"geoPoint":{"lat":43.31822,"lon":11.33064}},{"facility":"Ospedali Riuniti di Trieste","status":"RECRUITING","city":"Trieste","zip":"34142","country":"Italy","contacts":[{"name":"Barbara Ziani, Dr","role":"CONTACT","phone":"+39 040 3994761"}],"geoPoint":{"lat":45.64953,"lon":13.77679}},{"facility":"Umberto I- ASO Mauriziano","status":"RECRUITING","city":"Turin","country":"Italy","contacts":[{"name":"M Ferri, Prof","role":"CONTACT"}],"geoPoint":{"lat":45.07049,"lon":7.68682}},{"facility":"Circolo University Hospital","status":"RECRUITING","city":"Varese","country":"Italy","contacts":[{"name":"P Castelli, Prof","role":"CONTACT"}],"geoPoint":{"lat":45.82058,"lon":8.82511}},{"facility":"San Giacomo Hospital","status":"RECRUITING","city":"Veneto","country":"Italy","contacts":[{"name":"Carlo Cernetti, Dr","role":"CONTACT"}],"geoPoint":{"lat":45.69889,"lon":12.22556}},{"facility":"Sendai Medical Centre","status":"RECRUITING","city":"Sendai","country":"Japan","contacts":[{"name":"Inoue Takashi, Dr","role":"CONTACT"}],"geoPoint":{"lat":38.26667,"lon":140.86667}},{"facility":"National Scientific Centre of Surgery","status":"RECRUITING","city":"Almaty","country":"Kazakhstan","contacts":[{"name":"T Tajibayev, Dr","role":"CONTACT"}],"geoPoint":{"lat":43.25667,"lon":76.92861}},{"facility":"Rijnstate Hospital","status":"ACTIVE_NOT_RECRUITING","city":"Arnhem","country":"Netherlands","geoPoint":{"lat":51.98,"lon":5.91111}},{"facility":"MCL Leeuwarden","status":"RECRUITING","city":"Leeuwarden","country":"Netherlands","contacts":[{"name":"A. Khodadade Jahrome, Dr","role":"CONTACT"}],"geoPoint":{"lat":53.20139,"lon":5.80859}},{"facility":"University Hospital Utrecht","status":"RECRUITING","city":"Utrecht","country":"Netherlands","contacts":[{"name":"GJ de Borst, Dr","role":"CONTACT"}],"geoPoint":{"lat":52.09083,"lon":5.12222}},{"facility":"Rikshospitalet","status":"ACTIVE_NOT_RECRUITING","city":"Oslo","country":"Norway","geoPoint":{"lat":59.91273,"lon":10.74609}},{"facility":"Poznan University of Medical Sciences","status":"RECRUITING","city":"Poznan","country":"Poland","contacts":[{"name":"G Oszkinis, Prof","role":"CONTACT"}],"geoPoint":{"lat":52.40692,"lon":16.92993}},{"facility":"Bielanski Hospital","status":"RECRUITING","city":"Warsaw","country":"Poland","contacts":[{"name":"G Madycki, Professor","role":"CONTACT"}],"geoPoint":{"lat":52.22977,"lon":21.01178}},{"facility":"Central Hospital Internal Aff.","status":"ACTIVE_NOT_RECRUITING","city":"Warsaw","country":"Poland","geoPoint":{"lat":52.22977,"lon":21.01178}},{"facility":"Mazovian Brodnowski Hospital","status":"RECRUITING","city":"Warsaw","country":"Poland","contacts":[{"name":"P Myrcha, Ass. Prof","role":"CONTACT"}],"geoPoint":{"lat":52.22977,"lon":21.01178}},{"facility":"University of Warsaw/ Institute of Psychiatry","status":"RECRUITING","city":"Warsaw","country":"Poland","contacts":[{"name":"Dr Kobayashi","role":"CONTACT"}],"geoPoint":{"lat":52.22977,"lon":21.01178}},{"facility":"Regional Specialist Hospital (Wroclaw)","status":"RECRUITING","city":"Wroclaw","country":"Poland","contacts":[{"name":"W Iwanowski, Dr","role":"CONTACT"}],"geoPoint":{"lat":51.1,"lon":17.03333}},{"facility":"Hospital Santa Marta","status":"ACTIVE_NOT_RECRUITING","city":"Lisbon","zip":"1150","country":"Portugal","geoPoint":{"lat":38.71667,"lon":-9.13333}},{"facility":"Novosibirsk Research Institute of Circulation Pathology","status":"RECRUITING","city":"Novosibirsk","country":"Russian Federation","contacts":[{"name":"V Starodubtsev, Dr","role":"CONTACT"}],"geoPoint":{"lat":55.0415,"lon":82.9346}},{"facility":"Saint Petersburg Scientific Research Institute for Emergency Care","status":"RECRUITING","city":"Saint Petersburg","country":"Russian Federation","contacts":[{"name":"Pavel Chechulov, Dr","role":"CONTACT"}],"geoPoint":{"lat":59.93863,"lon":30.31413}},{"facility":"V.A. Almazov National Medical Research Centre","status":"RECRUITING","city":"Saint Petersburg","country":"Russian Federation","contacts":[{"name":"Boris Komakha, Dr","role":"CONTACT"}],"geoPoint":{"lat":59.93863,"lon":30.31413}},{"facility":"Dedinje Cardiovascular Unit","status":"RECRUITING","city":"Belgrade","country":"Serbia","contacts":[{"name":"G Radak, Prof","role":"CONTACT"}],"geoPoint":{"lat":44.80401,"lon":20.46513}},{"facility":"Serbian Clinical Centre","status":"RECRUITING","city":"Belgrade","country":"Serbia","contacts":[{"name":"L Davidovic, Prof","role":"CONTACT"}],"geoPoint":{"lat":44.80401,"lon":20.46513}},{"facility":"Khoo Teck Puat Hospital","status":"WITHDRAWN","city":"Singapore","country":"Singapore","geoPoint":{"lat":1.28967,"lon":103.85007}},{"facility":"Institute of Medical Sciences","status":"ACTIVE_NOT_RECRUITING","city":"Ruzomberok","country":"Slovakia","geoPoint":{"lat":49.0748,"lon":19.30751}},{"facility":"Izola General Hospital","status":"RECRUITING","city":"Izola","country":"Slovenia","contacts":[{"name":"M Gasparini, Prof","role":"CONTACT"}],"geoPoint":{"lat":45.53694,"lon":13.66194}},{"facility":"Teaching Hospital Maribor","status":"RECRUITING","city":"Maribor","country":"Slovenia","geoPoint":{"lat":46.55472,"lon":15.64667}},{"facility":"Hospital Clinic 1 Provinical de Barcelona","status":"RECRUITING","city":"Barcelona","country":"Spain","contacts":[{"name":"Dr Riambau","role":"CONTACT"}],"geoPoint":{"lat":41.38879,"lon":2.15899}},{"facility":"Guadalajara Hospital","status":"RECRUITING","city":"Guadalajara","country":"Spain","contacts":[{"name":"Estrella Blanco, Dr","role":"CONTACT"}],"geoPoint":{"lat":40.62862,"lon":-3.16185}},{"facility":"Hospital Universitari I Politecnic La Fe","status":"RECRUITING","city":"Valencia","country":"Spain","contacts":[{"name":"Manuel Miralles, Dr","role":"CONTACT"}],"geoPoint":{"lat":39.46975,"lon":-0.37739}},{"facility":"Lasarettet Helsingborg","status":"RECRUITING","city":"Helsingborg","country":"Sweden","contacts":[{"name":"P Qvarfordt, Prof","role":"CONTACT"}],"geoPoint":{"lat":56.04673,"lon":12.69437}},{"facility":"Malmo University Hospital","status":"RECRUITING","city":"Malmo","country":"Sweden","contacts":[{"name":"Dr Bjores","role":"CONTACT"}],"geoPoint":{"lat":55.60587,"lon":13.00073}},{"facility":"Sodersjukhuset","status":"RECRUITING","city":"Stockholm","country":"Sweden","contacts":[{"name":"Dr Konrad","role":"CONTACT"}],"geoPoint":{"lat":59.33258,"lon":18.0649}},{"facility":"Cantonal Hospital Aarau","status":"RECRUITING","city":"Aarau","zip":"CH-5001","country":"Switzerland","contacts":[{"name":"Timo Kahles, Dr","role":"CONTACT"}],"geoPoint":{"lat":47.39254,"lon":8.04422}},{"facility":"University of Basel","status":"RECRUITING","city":"Basel","country":"Switzerland","contacts":[{"name":"Leo Bonati, Dr","role":"CONTACT"}],"geoPoint":{"lat":47.55839,"lon":7.57327}},{"facility":"Southend University Hospital","status":"RECRUITING","city":"Westcliff-on-Sea","state":"Essex","country":"United Kingdom","contacts":[{"name":"P Guyler, Dr","role":"CONTACT"}],"geoPoint":{"lat":51.54424,"lon":0.69179}},{"facility":"East Kent Hospitals University NHS Foundation Trust","status":"RECRUITING","city":"Canterbury","state":"Kent","country":"United Kingdom","contacts":[{"name":"David Hargroves, Dr","role":"CONTACT"}],"geoPoint":{"lat":51.27904,"lon":1.07992}},{"facility":"Walton Centre","status":"ACTIVE_NOT_RECRUITING","city":"Aintree","country":"United Kingdom","geoPoint":{"lat":53.47538,"lon":-2.95202}},{"facility":"Cheltenham General Hospital","status":"RECRUITING","city":"Cheltenham","country":"United Kingdom","contacts":[{"name":"Richard Bulbulia, Mr","role":"CONTACT"}],"geoPoint":{"lat":51.90006,"lon":-2.07972}},{"facility":"Bishop Auckland Hospital","status":"ACTIVE_NOT_RECRUITING","city":"Durham","country":"United Kingdom","geoPoint":{"lat":54.77676,"lon":-1.57566}},{"facility":"University Hospital of North Durham","status":"ACTIVE_NOT_RECRUITING","city":"Durham","country":"United Kingdom","geoPoint":{"lat":54.77676,"lon":-1.57566}},{"facility":"Hull Royal Infirmary","status":"RECRUITING","city":"Hull","country":"United Kingdom","contacts":[{"name":"Ian Chetter, Prof","role":"CONTACT"}],"geoPoint":{"lat":53.7446,"lon":-0.33525}},{"facility":"St George's Hospital","status":"ACTIVE_NOT_RECRUITING","city":"London","country":"United Kingdom","geoPoint":{"lat":51.50853,"lon":-0.12574}},{"facility":"The Royal London","status":"RECRUITING","city":"London","country":"United Kingdom","contacts":[{"name":"Sageet Amlani, Dr","role":"CONTACT"}],"geoPoint":{"lat":51.50853,"lon":-0.12574}},{"facility":"Luton & Dunstable Hospital","status":"RECRUITING","city":"Luton","country":"United Kingdom","contacts":[{"name":"L Sekaran, Dr","role":"CONTACT"}],"geoPoint":{"lat":51.87967,"lon":-0.41748}},{"facility":"Manchester Royal Infirmary","status":"RECRUITING","city":"Manchester","country":"United Kingdom","contacts":[{"name":"JV Smyth, Mr","role":"CONTACT"}],"geoPoint":{"lat":53.48095,"lon":-2.23743}},{"facility":"Wythenshawe Hospital","status":"RECRUITING","city":"Manchester","country":"United Kingdom","contacts":[{"name":"C McCollum, Prof","role":"CONTACT"}],"geoPoint":{"lat":53.48095,"lon":-2.23743}},{"facility":"James Cook Hospital","status":"ACTIVE_NOT_RECRUITING","city":"Middlesbrough","country":"United Kingdom","geoPoint":{"lat":54.57623,"lon":-1.23483}},{"facility":"Freeman Hospital","status":"RECRUITING","city":"Newcastle","country":"United Kingdom","contacts":[{"name":"Gerry Stansby, Prof","role":"CONTACT"}],"geoPoint":{"lat":54.97328,"lon":-1.61396}},{"facility":"Royal Victoria Infirmary","status":"ACTIVE_NOT_RECRUITING","city":"Newcastle","country":"United Kingdom","geoPoint":{"lat":54.97328,"lon":-1.61396}},{"facility":"Nottingham University Hospital","status":"RECRUITING","city":"Nottingham","country":"United Kingdom","contacts":[{"name":"S Mac Sweeney, Mr","role":"CONTACT"}],"geoPoint":{"lat":52.9536,"lon":-1.15047}},{"facility":"John Radcliffe Hospital","status":"RECRUITING","city":"Oxford","country":"United Kingdom","contacts":[{"name":"Ursula Schulz, Dr","role":"CONTACT"}],"geoPoint":{"lat":51.75222,"lon":-1.25596}},{"facility":"Derriford Hospital","status":"ACTIVE_NOT_RECRUITING","city":"Plymouth","country":"United Kingdom","geoPoint":{"lat":50.37153,"lon":-4.14305}},{"facility":"The Royal Preston Hospital","status":"RECRUITING","city":"Preston","country":"United Kingdom","contacts":[{"name":"George Thomas, Mr","role":"CONTACT"}],"geoPoint":{"lat":53.76282,"lon":-2.70452}},{"facility":"Royal Berkshire","status":"RECRUITING","city":"Reading","country":"United Kingdom","contacts":[{"name":"E Flossman, Dr","role":"CONTACT"}],"geoPoint":{"lat":51.45625,"lon":-0.97113}},{"facility":"Sheffield Vascular Institute","status":"RECRUITING","city":"Sheffield","country":"United Kingdom","contacts":[{"name":"Trevor Cleveland, Dr","role":"CONTACT"}],"geoPoint":{"lat":53.38297,"lon":-1.4659}},{"facility":"Sunderland Royal Hospital","status":"RECRUITING","city":"Sunderland","country":"United Kingdom","contacts":[{"name":"P Dunlop, Mr","role":"CONTACT"}],"geoPoint":{"lat":54.90465,"lon":-1.38222}},{"facility":"Great Western Hospital","status":"RECRUITING","city":"Swindon","country":"United Kingdom","contacts":[{"name":"Gopi Ramadurai, Dr","role":"CONTACT"}],"geoPoint":{"lat":51.55797,"lon":-1.78116}},{"facility":"North Cumbria University Hospital","status":"ACTIVE_NOT_RECRUITING","city":"Whitehaven","country":"United Kingdom","geoPoint":{"lat":54.54897,"lon":-3.58412}},{"facility":"York Hospital","status":"WITHDRAWN","city":"York","country":"United Kingdom","geoPoint":{"lat":53.95763,"lon":-1.08271}}]},"referencesModule":{"references":[{"pmid":"15135594","type":"BACKGROUND","citation":"Halliday A, Mansfield A, Marro J, Peto C, Peto R, Potter J, Thomas D; MRC Asymptomatic Carotid Surgery Trial (ACST) Collaborative Group. Prevention of disabling and fatal strokes by successful carotid endarterectomy in patients without recent neurological symptoms: randomised controlled trial. Lancet. 2004 May 8;363(9420):1491-502. doi: 10.1016/S0140-6736(04)16146-1. Erratum In: Lancet. 2004 Jul 31;364(9432):416."}],"seeAlsoLinks":[{"label":"ACST-2 Website","url":"http://www.acst-2.org"}]}},"derivedSection":{"miscInfoModule":{"versionHolder":"2024-02-14","removedCountries":["Czech Republic"]},"conditionBrowseModule":{"meshes":[{"id":"D000016893","term":"Carotid Stenosis"}],"ancestors":[{"id":"D000002340","term":"Carotid Artery Diseases"},{"id":"D000002561","term":"Cerebrovascular Disorders"},{"id":"D000001927","term":"Brain Diseases"},{"id":"D000002493","term":"Central Nervous System Diseases"},{"id":"D000009422","term":"Nervous System Diseases"},{"id":"D000001157","term":"Arterial Occlusive Diseases"},{"id":"D000014652","term":"Vascular Diseases"},{"id":"D000002318","term":"Cardiovascular Diseases"}],"browseLeaves":[{"id":"M21996","name":"Stroke","relevance":"LOW"},{"id":"M6165","name":"Constriction, Pathologic","relevance":"LOW"},{"id":"M18928","name":"Carotid Stenosis","asFound":"Carotid Stenosis","relevance":"HIGH"},{"id":"M5284","name":"Carotid Artery Diseases","relevance":"LOW"},{"id":"M5500","name":"Cerebrovascular Disorders","relevance":"LOW"},{"id":"M4894","name":"Brain Diseases","relevance":"LOW"},{"id":"M5432","name":"Central Nervous System Diseases","relevance":"LOW"},{"id":"M4155","name":"Arterial Occlusive Diseases","relevance":"LOW"},{"id":"M17090","name":"Vascular Diseases","relevance":"LOW"}],"browseBranches":[{"abbrev":"BC10","name":"Nervous System Diseases"},{"abbrev":"BC14","name":"Heart and Blood Diseases"},{"abbrev":"All","name":"All Conditions"},{"abbrev":"BC23","name":"Symptoms and General Pathology"}]}},"hasResults":false}