{"protocolSection":{"identificationModule":{"nctId":"NCT01444794","orgStudyIdInfo":{"id":"A-92-52120-159"},"organization":{"fullName":"Ipsen","class":"INDUSTRY"},"briefTitle":"Adult Subjects Suffering From Lower Limb Spasticity Following Stroke","officialTitle":"A National, Prospective Cohort to Document the Effectiveness of One BoNT-A Injection Cycle Based on Attainment of Individual Person-centred Goals in Adult Subjects Suffering From Lower Limb Spasticity Following Stroke","acronym":"VALGAS"},"statusModule":{"statusVerifiedDate":"2020-11","overallStatus":"COMPLETED","expandedAccessInfo":{"hasExpandedAccess":false},"startDateStruct":{"date":"2011-09"},"primaryCompletionDateStruct":{"date":"2012-09","type":"ACTUAL"},"completionDateStruct":{"date":"2013-02","type":"ACTUAL"},"studyFirstSubmitDate":"2011-09-27","studyFirstSubmitQcDate":"2011-09-29","studyFirstPostDateStruct":{"date":"2011-10-03","type":"ESTIMATED"},"lastUpdateSubmitDate":"2020-11-04","lastUpdatePostDateStruct":{"date":"2020-11-05","type":"ACTUAL"}},"sponsorCollaboratorsModule":{"responsibleParty":{"type":"SPONSOR"},"leadSponsor":{"name":"Ipsen","class":"INDUSTRY"}},"descriptionModule":{"briefSummary":"The purpose of the protocol is to assess the responder rate as defined by the achievement of the primary goal from the Goal Attainment Scale following one botulinum toxin type-A (BoNT-A) injection cycle in accordance with routine practices."},"conditionsModule":{"conditions":["Spasticity"],"keywords":["Lower limb spasticity"]},"designModule":{"studyType":"OBSERVATIONAL","designInfo":{"observationalModel":"COHORT","timePerspective":"PROSPECTIVE"},"enrollmentInfo":{"count":100,"type":"ACTUAL"}},"outcomesModule":{"primaryOutcomes":[{"measure":"Responder rate as defined by the achievement of the primary goal from the Goal Attainment Scale (GAS).","description":"Assessed using the Goal Attainment Scale (GAS).","timeFrame":"Between 1 and 3 months from inclusion"}],"secondaryOutcomes":[{"measure":"Overall attainment of treatment goals","description":"Assessed using the GAS T-Score.","timeFrame":"Between 1 and 3 months from inclusion"},{"measure":"The use of standardized outcome measures and their results (e.g. muscle tone reduction, pain scores, functional tests).","timeFrame":"Up to 5 months"},{"measure":"Description of injection practices (BoNT-A: doses, volume, injection points, electromyography, electrostimulation and ecography).","timeFrame":"Up to 5 months"},{"measure":"Global assessment of benefits by both the investigator and the subject (or guardian).","description":"Assessed using a 5-point scale - much worse/worse/unchanged/better/much better","timeFrame":"Up to 5 months"}]},"eligibilityModule":{"eligibilityCriteria":"Inclusion Criteria:\n\n* Suffering from lower limb spasticity following stroke\n* With at least a 12-week interval between the last BoNT-A injection and inclusion\n* Decision already been agreed to inject BoNT-A\n\nExclusion Criteria:\n\n* Documented positive antigenicity to botulinum toxin\n* Any neuromuscular junction indication\n* Severe muscle atrophy in any muscle to be injected\n* Any other indication that might interfere with rehabilitation or the evaluation of results","healthyVolunteers":false,"sex":"ALL","minimumAge":"18 Years","stdAges":["ADULT","OLDER_ADULT"],"studyPopulation":"Primary care clinic","samplingMethod":"NON_PROBABILITY_SAMPLE"},"contactsLocationsModule":{"overallOfficials":[{"name":"Ipsen Medical Director","affiliation":"Ipsen","role":"STUDY_DIRECTOR"}],"locations":[{"facility":"Hospital de Cruces","city":"Barakaldo","country":"Spain","geoPoint":{"lat":43.29639,"lon":-2.98813}},{"facility":"Hospital Clinic i Provincial de Barcelona","city":"Barcelona","country":"Spain","geoPoint":{"lat":41.38879,"lon":2.15899}},{"facility":"Hospital de Bellvitge","city":"Barcelona","country":"Spain","geoPoint":{"lat":41.38879,"lon":2.15899}},{"facility":"Hospital Mutua de Terrassa","city":"Barcelona","country":"Spain","geoPoint":{"lat":41.38879,"lon":2.15899}},{"facility":"Hospital Sant Pau","city":"Barcelona","country":"Spain","geoPoint":{"lat":41.38879,"lon":2.15899}},{"facility":"Hospital Vall Hebron","city":"Barcelona","country":"Spain","geoPoint":{"lat":41.38879,"lon":2.15899}},{"facility":"Hospital Puerta del Mar","city":"Cadiz","country":"Spain","geoPoint":{"lat":36.52672,"lon":-6.2891}},{"facility":"Hospital de Magdalena","city":"Castellón De La Plana","country":"Spain","geoPoint":{"lat":39.98567,"lon":-0.04935}},{"facility":"Hospital Maritimo de Oza","city":"Coruña","country":"Spain","geoPoint":{"lat":43.37135,"lon":-8.396}},{"facility":"Hospital de Gorliz","city":"Gorraiz","country":"Spain","geoPoint":{"lat":42.82125,"lon":-1.58195}},{"facility":"Hospital Dr. Negrín","city":"Las Palmas De Gran Canaria","country":"Spain","geoPoint":{"lat":28.09973,"lon":-15.41343}},{"facility":"Hospital Insular","city":"Las Palmas De Gran Canaria","country":"Spain","geoPoint":{"lat":28.09973,"lon":-15.41343}},{"facility":"Hospital De la Fundación Jimenez","city":"Madrid","country":"Spain","geoPoint":{"lat":40.4165,"lon":-3.70256}},{"facility":"Hospital la Paz","city":"Madrid","country":"Spain","geoPoint":{"lat":40.4165,"lon":-3.70256}},{"facility":"Hospital La Princesa","city":"Madrid","country":"Spain","geoPoint":{"lat":40.4165,"lon":-3.70256}},{"facility":"Hospital Carlos Haya","city":"Malaga","country":"Spain","geoPoint":{"lat":36.72016,"lon":-4.42034}},{"facility":"Hospital Virgen de la Victoria","city":"Malaga","country":"Spain","geoPoint":{"lat":36.72016,"lon":-4.42034}},{"facility":"Hospital Morales Meseguer","city":"Murcia","country":"Spain","geoPoint":{"lat":37.98704,"lon":-1.13004}},{"facility":"Hospital de Valdecilla","city":"Santander","country":"Spain","geoPoint":{"lat":43.46472,"lon":-3.80444}},{"facility":"Hospital Ntra. Sra. De La Candelaria","city":"Tenerife","country":"Spain","geoPoint":{"lat":28.46824,"lon":-16.25462}},{"facility":"Hospital La Fe","city":"Valencia","country":"Spain","geoPoint":{"lat":39.46975,"lon":-0.37739}},{"facility":"Hospital Valencia al Mar","city":"Valencia","country":"Spain","geoPoint":{"lat":39.46975,"lon":-0.37739}},{"facility":"Hospital Povisa","city":"Vigo","country":"Spain","geoPoint":{"lat":42.23282,"lon":-8.72264}},{"facility":"Hospital Xeral de Vigo","city":"Vigo","country":"Spain","geoPoint":{"lat":42.23282,"lon":-8.72264}}]}},"derivedSection":{"miscInfoModule":{"versionHolder":"2024-02-14"},"conditionBrowseModule":{"meshes":[{"id":"D000009128","term":"Muscle Spasticity"}],"ancestors":[{"id":"D000009135","term":"Muscular Diseases"},{"id":"D000009140","term":"Musculoskeletal Diseases"},{"id":"D000009122","term":"Muscle Hypertonia"},{"id":"D000020879","term":"Neuromuscular Manifestations"},{"id":"D000009461","term":"Neurologic Manifestations"},{"id":"D000009422","term":"Nervous System Diseases"}],"browseLeaves":[{"id":"M21996","name":"Stroke","relevance":"LOW"},{"id":"M11775","name":"Muscle Spasticity","asFound":"Spasticity","relevance":"HIGH"},{"id":"M11782","name":"Muscular Diseases","relevance":"LOW"},{"id":"M11787","name":"Musculoskeletal Diseases","relevance":"LOW"},{"id":"M11769","name":"Muscle Hypertonia","relevance":"LOW"},{"id":"M22309","name":"Neuromuscular Manifestations","relevance":"LOW"},{"id":"M12094","name":"Neurologic Manifestations","relevance":"LOW"}],"browseBranches":[{"abbrev":"BC10","name":"Nervous System Diseases"},{"abbrev":"BC14","name":"Heart and Blood Diseases"},{"abbrev":"All","name":"All Conditions"},{"abbrev":"BC05","name":"Musculoskeletal Diseases"},{"abbrev":"BC23","name":"Symptoms and General Pathology"}]},"interventionBrowseModule":{"browseLeaves":[{"id":"M250251","name":"incobotulinumtoxinA","relevance":"LOW"}],"browseBranches":[{"abbrev":"All","name":"All Drugs and Chemicals"}]}},"hasResults":false}