{"protocolSection":{"identificationModule":{"nctId":"NCT00004732","orgStudyIdInfo":{"id":"0119970017"},"secondaryIdInfos":[{"id":"R01NS038384","type":"NIH","link":"https://reporter.nih.gov/quickSearch/R01NS038384"}],"organization":{"fullName":"Rutgers, The State University of New Jersey","class":"OTHER"},"briefTitle":"Carotid Revascularization Endarterectomy Versus Stenting Trial","officialTitle":"Carotid Revascularization Endarterectomy Versus Stenting Trial (CREST)","acronym":"CREST"},"statusModule":{"statusVerifiedDate":"2017-04","overallStatus":"COMPLETED","expandedAccessInfo":{"hasExpandedAccess":false},"startDateStruct":{"date":"2000-12"},"primaryCompletionDateStruct":{"date":"2011-02","type":"ACTUAL"},"completionDateStruct":{"date":"2016-12","type":"ACTUAL"},"studyFirstSubmitDate":"2000-02-25","studyFirstSubmitQcDate":"2000-02-25","studyFirstPostDateStruct":{"date":"2000-02-28","type":"ESTIMATED"},"resultsFirstSubmitDate":"2013-09-26","resultsFirstSubmitQcDate":"2013-09-26","resultsFirstPostDateStruct":{"date":"2013-12-10","type":"ESTIMATED"},"lastUpdateSubmitDate":"2017-04-13","lastUpdatePostDateStruct":{"date":"2017-05-17","type":"ACTUAL"}},"sponsorCollaboratorsModule":{"responsibleParty":{"type":"SPONSOR"},"leadSponsor":{"name":"Rutgers, The State University of New Jersey","class":"OTHER"},"collaborators":[{"name":"National Institute of Neurological Disorders and Stroke (NINDS)","class":"NIH"},{"name":"University of Alabama at Birmingham","class":"OTHER"}]},"oversightModule":{"oversightHasDmc":true,"isFdaRegulatedDrug":false,"isFdaRegulatedDevice":true},"descriptionModule":{"briefSummary":"The purpose of the Carotid Revascularization Endarterectomy versus Stenting Trial (CREST) is to compare the relatively new procedure of stent-assisted carotid angioplasty (CAS) to the traditional and accepted surgical approach of carotid endarterectomy (CEA) for the treatment of carotid artery stenosis to prevent recurrent strokes in those patients who have had a TIA (transient ischemic attack) or a mild stroke within the past 6 months (symptomatic) and in those patients who have not had any symptoms within the past 6 months (asymptomatic).","detailedDescription":"The primary aim of the Carotid Revascularization Endarterectomy versus Stenting Trial (CREST) is to contrast the relative effectiveness of carotid artery stenting (CAS) versus carotid endarterectomy (CEA) in preventing stroke, myocardial infarction, and death. Stents are medical devices approved and commonly used for treatment of heart disease. The stent that will be used in this trial is the Rapid Exchange(RX) ACCULINK(TM) Carotid Stent System, an elastic-like metal scaffold that is expanded inside a carotid artery to hold the vessel open.\n\nThe RX ACCUNET(TM) Embolic Protection System (an umbrella-like device that expands above the narrowed portion of the carotid artery) will be used in conjunction with the RX ACCULINK stent. The RX ACCUNET system is designed to capture embolic material that could break off from the narrowed area in the carotid artery while still allowing blood to flow through the vessel during the procedure. Embolic material could block blood flow to the arteries beyond the narrowing and be harmful to the brain. The RX ACCUNET System is closed and removed after the stent is placed.\n\nCEA involves a neck incision and physical removal of the plaque from the inside of the artery. CAS involves insertion of a catheter or tube into an artery in the groin and then threading the catheter through the arteries of the body to the location of the plaque within the carotid artery in the neck. The stent is then placed to cover the plaque and hold the artery open. Participants will be randomly assigned to undergo either CAS or CEA, and all patients will receive best medical management, which includes treatment with aspirin, treatment of high blood pressure, and treatment of other stroke risk factors. Participants will be followed for up to ten years.\n\nWith the simplification of the protocol for long-term follow-up, the focus for secondary outcomes is to assess restenosis and viability of the procedure. Restenosis rates on an annual basis in both the endarterectomy and stenting arms of the study will be assessed using carotid duplex ultrasound exams performed annually (standard of care).\n\nIn addition to restenosis, the \"viability\" of the procedures will be assessed by the need (or lack of need) for repeat revascularization (either open surgical or endovascular) after the index procedure. The question \"has a new carotid intervention been performed since last follow-up\" will be asked at every contact with the patient. If answered positively, additional data will be collected on the appropriate case report forms(CRFs).\n\nLINKAGE OF CREST COHORT WITH CENTERS FOR MEDICAID AND MEDICARE SERVICES(CMS) ADMINISTRATIVE DATA\n\nThe purpose of linking Medicare-eligible CREST participants with CMS data files is to assess patient outcomes and utilization of health care services. This plan to link in- and out-patient episodes of care using national Medicare data establishes a new resource that will enhance current follow-up strategies, as well as explore alternative strategies to ascertain patient outcomes for future clinical studies."},"conditionsModule":{"conditions":["Atherosclerosis","Stroke","Carotid Stenosis","Cerebral Infarction","Myocardial Infarction"],"keywords":["angioplasty","asymptomatic","atherosclerosis","carotid endarterectomy","carotid stenting","CREST","Cerebral Infarction","device","intervention","restenosis","revascularization","stenosis","stent","stroke","symptomatic","surgery","transient ischemic attack"]},"designModule":{"studyType":"INTERVENTIONAL","phases":["NA"],"designInfo":{"allocation":"RANDOMIZED","interventionModel":"PARALLEL","primaryPurpose":"PREVENTION","maskingInfo":{"masking":"DOUBLE","whoMasked":["INVESTIGATOR","OUTCOMES_ASSESSOR"]}},"enrollmentInfo":{"count":2502,"type":"ACTUAL"}},"armsInterventionsModule":{"armGroups":[{"label":"Carotid Artery Endarterectomy (CEA)","type":"ACTIVE_COMPARATOR","description":"Carotid endarterectomy is surgery to remove plaque buildup that causes narrowing (stenosis) in the carotid artery.","interventionNames":["Procedure: Carotid Endarterectomy (CEA)"]},{"label":"Carotid Artery Stenting (CAS)","type":"ACTIVE_COMPARATOR","description":"Carotid artery stenting (CAS) is a procedure used to open narrowed carotid arteries. During the procedure, a small, expandable wire tube called a stent is permanently inserted into the carotid artery.","interventionNames":["Device: Carotid Artery Stenting (CAS)"]}],"interventions":[{"type":"PROCEDURE","name":"Carotid Endarterectomy (CEA)","description":"CEA involves a neck incision and physical removal of the plaque from the inside of the carotid artery.","armGroupLabels":["Carotid Artery Endarterectomy (CEA)"]},{"type":"DEVICE","name":"Carotid Artery Stenting (CAS)","description":"CAS involves insertion of a catheter or tube into an artery in the groin and then threading the catheter through the arteries of the body to the location of the plaque within the carotid artery in the neck. A stent is then placed to cover the plaque and hold the artery open. Participants randomized to this arm of the trial were treated using the RX Acculink Carotid Stent with or without the RX Accunet Embolic Protection Device.","armGroupLabels":["Carotid Artery Stenting (CAS)"],"otherNames":["Angioplasty of carotid artery and stent placement."]}]},"outcomesModule":{"primaryOutcomes":[{"measure":"Any Periprocedural Stroke, Myocardial Infarction, or Death During a 30-day Peri-procedural Period, and Postprocedural Ipsilateral Stroke Thereafter, up to 4-years.","description":"The primary aim of CREST is to assess if the efficacy of CAS differs from that of CEA in preventing stroke, myocardial infarction and death during a 30-day peri-procedural period, or ipsilateral stroke over the follow-up period in patients with symptomatic (\\>=50%) or asymptomatic (\\>=60%) extracranial carotid stenosis. Four-year follow-up, proportions reflecting the absolute efficacy of carotid-artery stenting (CAS) over that of carotid endarterectomy (CEA) were based on Kaplan-Meier survival estimates at the end of the 4 years.","timeFrame":"30 days and 4 years"}],"secondaryOutcomes":[{"measure":"Differential Efficacy of CAS and CEA in Male and Female Participants in the Primary Endpoint (Any Periprocedural Stroke, Myocardial Infarction, or Death or Postprocedural Ipsilateral Stroke).","description":"4-year follow-up, proportions reflecting the absolute efficacy of carotid-artery stenting (CAS) over that of carotid endarterectomy (CEA) were based on Kaplan-Meier survival estimates at the end of the 4 years.","timeFrame":"4 years"}]},"eligibilityModule":{"eligibilityCriteria":"Inclusion Criteria:\n\n* Symptomatic patients with recent neurological events (TIA or non-disabling stroke) with an associated carotid stenosis greater than or equal to 50% by angiography or greater than or equal to 70% by ultrasound or greater than or equal to 70% by Computed Tomography Angiography (CTA) or Magnetic Resonance Angiography (MRA) are eligible for randomization.\n* Asymptomatic patients with no recent (in the last 6 months) neurological events referable to the study with artery and carotid stenosis (patients with symptoms beyond 180 days are considered asymptomatic) greater than or equal to 60% by angiography or greater than or equal to 70% by ultrasound or greater than or equal to 80% by CTA or MRA are eligible for randomization.\n\nExclusion Criteria:\n\n* Conditions that: (1) interfere with the evaluation of endpoints, (2) are known to interfere with the completion of CEA or CAS, or (3) affect the likelihood of survival for the study period (4 years). Chronic atrial fibrillation and/or anti-coagulation or episodic atrial fibrillation within the last 6 months.","healthyVolunteers":false,"sex":"ALL","minimumAge":"18 Years","stdAges":["ADULT","OLDER_ADULT"]},"contactsLocationsModule":{"overallOfficials":[{"name":"Thomas G. Brott, M.D.","affiliation":"Mayo Clinic and Rutgers University","role":"PRINCIPAL_INVESTIGATOR"}],"locations":[{"facility":"The Board of Trustees of the University of Alabama for the University of Alabama at Birmingham","city":"Birmingham","state":"Alabama","zip":"35294","country":"United States","geoPoint":{"lat":33.52066,"lon":-86.80249}},{"facility":"Dignity Health dba St. Joseph's Hospital & Medical Center","city":"Phoenix","state":"Arizona","zip":"85013","country":"United States","geoPoint":{"lat":33.44838,"lon":-112.07404}},{"facility":"Mayo Clinic Arizona","city":"Scottsdale","state":"Arizona","zip":"85259","country":"United States","geoPoint":{"lat":33.50921,"lon":-111.89903}},{"facility":"The Arizona Board of Regents for the University of Arizona","city":"Tucson","state":"Arizona","zip":"85724","country":"United States","geoPoint":{"lat":32.22174,"lon":-110.92648}},{"facility":"Board of Trustees of the University of Arkansas","city":"Little Rock","state":"Arkansas","zip":"72701","country":"United States","geoPoint":{"lat":34.74648,"lon":-92.28959}},{"facility":"USC University Hospital & LA County Hospital","city":"Los Angeles","state":"California","zip":"90033","country":"United States","geoPoint":{"lat":34.05223,"lon":-118.24368}},{"facility":"The Regents of the University of California","city":"Los Angeles","state":"California","zip":"90095","country":"United States","geoPoint":{"lat":34.05223,"lon":-118.24368}},{"facility":"Kaiser Permanente Medical Center","city":"San Diego","state":"California","zip":"92120","country":"United States","geoPoint":{"lat":32.71533,"lon":-117.15726}},{"facility":"Northern California Institute for Research and Education","city":"San Francisco","state":"California","zip":"94121","country":"United States","geoPoint":{"lat":37.77493,"lon":-122.41942}},{"facility":"Catholic Healthcare West","city":"Stockton","state":"California","zip":"95204","country":"United States","geoPoint":{"lat":37.9577,"lon":-121.29078}},{"facility":"Christiana Care Health Services, Inc.","city":"Newark","state":"Delaware","zip":"19718","country":"United States","geoPoint":{"lat":39.68372,"lon":-75.74966}},{"facility":"Morton Plant Hospital","city":"Clearwater","state":"Florida","zip":"33756","country":"United States","geoPoint":{"lat":27.96585,"lon":-82.8001}},{"facility":"Mayo Clinic","city":"Jacksonville","state":"Florida","zip":"32224","country":"United States","geoPoint":{"lat":30.33218,"lon":-81.65565}},{"facility":"Leesburg Medical Center","city":"Leesburg","state":"Florida","zip":"34748","country":"United States","geoPoint":{"lat":28.81082,"lon":-81.87786}},{"facility":"Miami Cardiac & Vascular Institute of Baptist Hospital of Miami, Inc.","city":"Miami","state":"Florida","zip":"33187","country":"United States","geoPoint":{"lat":25.77427,"lon":-80.19366}},{"facility":"Florida Hospital Neuroscience Institute, a division of Adventist Health System/Sunbelt, Inc.","city":"Orlando","state":"Florida","zip":"32803","country":"United States","geoPoint":{"lat":28.53834,"lon":-81.37924}},{"facility":"Orlando Regional Medical Center","city":"Orlando","state":"Florida","zip":"32828","country":"United States","geoPoint":{"lat":28.53834,"lon":-81.37924}},{"facility":"University of South Florida Board of Trustees","city":"Tampa","state":"Florida","zip":"33606","country":"United States","geoPoint":{"lat":27.94752,"lon":-82.45843}},{"facility":"Piedmont Hospital/Fuqua Heart Center","city":"Atlanta","state":"Georgia","zip":"30309","country":"United States","geoPoint":{"lat":33.749,"lon":-84.38798}},{"facility":"Emory University","city":"Atlanta","state":"Georgia","zip":"30322","country":"United States","geoPoint":{"lat":33.749,"lon":-84.38798}},{"facility":"St. Joseph's of Atlanta","city":"Atlanta","state":"Georgia","zip":"30342","country":"United States","geoPoint":{"lat":33.749,"lon":-84.38798}},{"facility":"St. Joseph's Candler Health System","city":"Savannah","state":"Georgia","zip":"31405","country":"United States","geoPoint":{"lat":32.08354,"lon":-81.09983}},{"facility":"Norwestern Memorial Hospital","city":"Chicago","state":"Illinois","zip":"60611","country":"United States","geoPoint":{"lat":41.85003,"lon":-87.65005}},{"facility":"Alexian Brothers Specialty Group","city":"Elk Grove Village","state":"Illinois","zip":"60007","country":"United States","geoPoint":{"lat":42.00392,"lon":-87.97035}},{"facility":"Loyola University of Chicago","city":"Maywood","state":"Illinois","zip":"60153","country":"United States","geoPoint":{"lat":41.8792,"lon":-87.84312}},{"facility":"Peoria Radiology Research and Education","city":"Peoria","state":"Illinois","zip":"61637","country":"United States","geoPoint":{"lat":40.69365,"lon":-89.58899}},{"facility":"Prarie Cardiology-St. John's Hospital","city":"Springfield","state":"Illinois","zip":"62794","country":"United States","geoPoint":{"lat":39.80172,"lon":-89.64371}},{"facility":"Southern Illinois School of Medicine","city":"Springfield","state":"Illinois","zip":"62794","country":"United States","geoPoint":{"lat":39.80172,"lon":-89.64371}},{"facility":"Central Dupage Hospital","city":"Winfield","state":"Illinois","zip":"60190","country":"United States","geoPoint":{"lat":41.8617,"lon":-88.1609}},{"facility":"Lutheran Medical Group, LLC,","city":"Fort Wayne","state":"Indiana","zip":"46804","country":"United States","geoPoint":{"lat":41.1306,"lon":-85.12886}},{"facility":"Parkview Hospital, Inc.","city":"Fort Wayne","state":"Indiana","zip":"46805","country":"United States","geoPoint":{"lat":41.1306,"lon":-85.12886}},{"facility":"St. Vincent's Hospital","city":"Indianapolis","state":"Indiana","zip":"46260","country":"United States","geoPoint":{"lat":39.76838,"lon":-86.15804}},{"facility":"Catholic Health Initiatives /Mercy Hospital Center","city":"Des Moines","state":"Iowa","zip":"50314","country":"United States","geoPoint":{"lat":41.60054,"lon":-93.60911}},{"facility":"Baptist Healthcare System, Inc.","city":"Lexington","state":"Kentucky","zip":"40504","country":"United States","geoPoint":{"lat":37.98869,"lon":-84.47772}},{"facility":"Vascular Surgery Associates","city":"Baton Rouge","state":"Louisiana","zip":"70809","country":"United States","geoPoint":{"lat":30.45075,"lon":-91.15455}},{"facility":"Ochsner Foundation Hospital","city":"New Orleans","state":"Louisiana","zip":"70121","country":"United States","geoPoint":{"lat":29.95465,"lon":-90.07507}},{"facility":"Anne Arundel Health System Research Institute","city":"Annapolis","state":"Maryland","zip":"21401","country":"United States","geoPoint":{"lat":38.97845,"lon":-76.49218}},{"facility":"Johns Hopkins University","city":"Baltimore","state":"Maryland","zip":"21287","country":"United States","geoPoint":{"lat":39.29038,"lon":-76.61219}},{"facility":"Adventist Healthcare, Inc.","city":"Takoma Park","state":"Maryland","zip":"20912","country":"United States","geoPoint":{"lat":38.97789,"lon":-77.00748}},{"facility":"Massachusetts General Hospital","city":"Boston","state":"Massachusetts","zip":"02114","country":"United States","geoPoint":{"lat":42.35843,"lon":-71.05977}},{"facility":"Steward St. Elizabeth's Medical Center of Boston, Inc.","city":"Boston","state":"Massachusetts","zip":"02135","country":"United States","geoPoint":{"lat":42.35843,"lon":-71.05977}},{"facility":"Beth Israel Deaconess Medical Center","city":"Boston","state":"Massachusetts","zip":"02215","country":"United States","geoPoint":{"lat":42.35843,"lon":-71.05977}},{"facility":"Brigham and Womens Hospital, Inc.","city":"Boston","state":"Massachusetts","zip":"02215","country":"United States","geoPoint":{"lat":42.35843,"lon":-71.05977}},{"facility":"Cape Cod Health Care, Inc.,","city":"Hyannis","state":"Massachusetts","zip":"02601","country":"United States","geoPoint":{"lat":41.65289,"lon":-70.2828}},{"facility":"University of Michigan","city":"Ann Arbor","state":"Michigan","zip":"48109","country":"United States","geoPoint":{"lat":42.27756,"lon":-83.74088}},{"facility":"Henry Ford Health System","city":"Detroit","state":"Michigan","zip":"48202","country":"United States","geoPoint":{"lat":42.33143,"lon":-83.04575}},{"facility":"St. John Hospital and Medical Center","city":"Detroit","state":"Michigan","zip":"48236","country":"United States","geoPoint":{"lat":42.33143,"lon":-83.04575}},{"facility":"Michigan Vascular Research Center","city":"Flint","state":"Michigan","zip":"48507","country":"United States","geoPoint":{"lat":43.01253,"lon":-83.68746}},{"facility":"Spectrum Health Hospital","city":"Grand Rapids","state":"Michigan","zip":"49503","country":"United States","geoPoint":{"lat":42.96336,"lon":-85.66809}},{"facility":"William Beaumont Hospital","city":"Royal Oak","state":"Michigan","zip":"48075","country":"United States","geoPoint":{"lat":42.48948,"lon":-83.14465}},{"facility":"Providence St. John Hopital","city":"Southfield","state":"Michigan","zip":"48075","country":"United States","geoPoint":{"lat":42.47337,"lon":-83.22187}},{"facility":"Michigan Heart & Vascular Institute/St. Joseph's Mercy Hospital","city":"Ypsilanti","state":"Michigan","zip":"48197","country":"United States","geoPoint":{"lat":42.24115,"lon":-83.61299}},{"facility":"North Memorial Health Care","city":"Robbinsdale","state":"Minnesota","zip":"55422","country":"United States","geoPoint":{"lat":45.03219,"lon":-93.33856}},{"facility":"Mayo Clinic Rochester/St. Mary's","city":"Rochester","state":"Minnesota","zip":"55905","country":"United States","geoPoint":{"lat":44.02163,"lon":-92.4699}},{"facility":"Mississippi Baptist Medical Center, Inc.","city":"Jackson","state":"Mississippi","zip":"39202","country":"United States","geoPoint":{"lat":32.29876,"lon":-90.18481}},{"facility":"Heartland Physician Services, LLC","city":"Kansas City","state":"Missouri","zip":"64114","country":"United States","geoPoint":{"lat":39.09973,"lon":-94.57857}},{"facility":"Mercy Hospitals East Communities","city":"St. Louis","state":"Missouri","zip":"63141","country":"United States","geoPoint":{"lat":38.62727,"lon":-90.19789}},{"facility":"St. Patrick's Hospital International Heart Institute of MT","city":"Missoula","state":"Montana","zip":"59802","country":"United States","geoPoint":{"lat":46.87215,"lon":-113.994}},{"facility":"Dartmouth College and the constituent members of DARTMOUTH HITCHCOCK MEDICAL CENTER","city":"Lebanon","state":"New Hampshire","zip":"03756","country":"United States","geoPoint":{"lat":43.64229,"lon":-72.25176}},{"facility":"St. Michael's Medical Center","city":"Newark","state":"New Jersey","zip":"07013","country":"United States","geoPoint":{"lat":40.73566,"lon":-74.17237}},{"facility":"Center for Vascular Awareness, Inc.","city":"Albany","state":"New York","zip":"12208","country":"United States","geoPoint":{"lat":42.65258,"lon":-73.75623}},{"facility":"Millard Fillmore SUNY Buffalo","city":"Buffalo","state":"New York","zip":"14209","country":"United States","geoPoint":{"lat":42.88645,"lon":-78.87837}},{"facility":"NYU School of Medicine","city":"New York","state":"New York","zip":"10016","country":"United States","geoPoint":{"lat":40.71427,"lon":-74.00597}},{"facility":"The Feinstein Institute for Medical Research","city":"New York","state":"New York","zip":"10021","country":"United States","geoPoint":{"lat":40.71427,"lon":-74.00597}},{"facility":"Weill Medical College of Cornell University","city":"New York","state":"New York","zip":"10021","country":"United States","geoPoint":{"lat":40.71427,"lon":-74.00597}},{"facility":"Columbia Presbyterian","city":"New York","state":"New York","zip":"10032","country":"United States","geoPoint":{"lat":40.71427,"lon":-74.00597}},{"facility":"St. Francis Hospital","city":"Port Washington","state":"New York","zip":"11050","country":"United States","geoPoint":{"lat":40.82566,"lon":-73.69819}},{"facility":"University of Rochester","city":"Rochester","state":"New York","zip":"14642","country":"United States","geoPoint":{"lat":43.15478,"lon":-77.61556}},{"facility":"Richmond University Medical Center","city":"Staten Island","state":"New York","zip":"10310","country":"United States","geoPoint":{"lat":40.56233,"lon":-74.13986}},{"facility":"Westchester Medical Center","city":"Valhalla","state":"New York","zip":"10595","country":"United States","geoPoint":{"lat":41.07482,"lon":-73.77513}},{"facility":"UNC at Chapel Hill","city":"Chapel Hill","state":"North Carolina","zip":"27599","country":"United States","geoPoint":{"lat":35.9132,"lon":-79.05584}},{"facility":"The Charlotte-Mecklenburg Hospital Authority","city":"Charlotte","state":"North Carolina","zip":"28203","country":"United States","geoPoint":{"lat":35.22709,"lon":-80.84313}},{"facility":"Duke University Medical Center","city":"Durham","state":"North Carolina","zip":"27710","country":"United States","geoPoint":{"lat":35.99403,"lon":-78.89862}},{"facility":"Forsyth Radiological Associates","city":"Winston-Salem","state":"North Carolina","zip":"27103","country":"United States","geoPoint":{"lat":36.09986,"lon":-80.24422}},{"facility":"Wake Forest University","city":"Winston-Salem","state":"North Carolina","zip":"27157","country":"United States","geoPoint":{"lat":36.09986,"lon":-80.24422}},{"facility":"Christ Hospital","city":"Cincinnati","state":"Ohio","zip":"45219","country":"United States","geoPoint":{"lat":39.12713,"lon":-84.51435}},{"facility":"University of Cincinnati","city":"Cincinnati","state":"Ohio","zip":"45267","country":"United States","geoPoint":{"lat":39.12713,"lon":-84.51435}},{"facility":"The Cleveland Clinic Lerner College Of Medicine of CWRU","city":"Cleveland","state":"Ohio","zip":"44195","country":"United States","geoPoint":{"lat":41.4995,"lon":-81.69541}},{"facility":"Midwest Ohio Health Research Institute","city":"Columbus","state":"Ohio","zip":"43214","country":"United States","geoPoint":{"lat":39.96118,"lon":-82.99879}},{"facility":"The Toledo Hospital","city":"Toledo","state":"Ohio","zip":"43606","country":"United States","geoPoint":{"lat":41.66394,"lon":-83.55521}},{"facility":"University of Toledo","city":"Toledo","state":"Ohio","zip":"43614","country":"United States","geoPoint":{"lat":41.66394,"lon":-83.55521}},{"facility":"Oklahoma Foundation for Cardiovascular Research","city":"Oklahoma City","state":"Oklahoma","zip":"73120","country":"United States","geoPoint":{"lat":35.46756,"lon":-97.51643}},{"facility":"Rogue Valley Medical Center","city":"Medford","state":"Oregon","zip":"97504","country":"United States","geoPoint":{"lat":42.32652,"lon":-122.87559}},{"facility":"Oregon Health Science University","city":"Portland","state":"Oregon","zip":"97201","country":"United States","geoPoint":{"lat":45.52345,"lon":-122.67621}},{"facility":"Lehigh Valley Hospital","city":"Allentown","state":"Pennsylvania","zip":"18105","country":"United States","geoPoint":{"lat":40.60843,"lon":-75.49018}},{"facility":"Heritage Valley Medical Group","city":"Beaver","state":"Pennsylvania","zip":"15009","country":"United States","geoPoint":{"lat":40.69534,"lon":-80.30478}},{"facility":"Geisinger Medical Center","city":"Danville","state":"Pennsylvania","zip":"17822","country":"United States","geoPoint":{"lat":40.96342,"lon":-76.61273}},{"facility":"University of Pennsylvania","city":"Philadelphia","state":"Pennsylvania","zip":"19104","country":"United States","geoPoint":{"lat":39.95233,"lon":-75.16379}},{"facility":"Thomas Jefferson University Hospital","city":"Philadelphia","state":"Pennsylvania","zip":"19107","country":"United States","geoPoint":{"lat":39.95233,"lon":-75.16379}},{"facility":"Allegheny Singer Research Institute","city":"Pittsburgh","state":"Pennsylvania","zip":"15212","country":"United States","geoPoint":{"lat":40.44062,"lon":-79.99589}},{"facility":"UPMC Presbyterian Shadyside","city":"Pittsburgh","state":"Pennsylvania","zip":"15232","country":"United States","geoPoint":{"lat":40.44062,"lon":-79.99589}},{"facility":"Rhode Island Hospital","city":"Providence","state":"Rhode Island","zip":"02903","country":"United States","geoPoint":{"lat":41.82399,"lon":-71.41283}},{"facility":"South Carolina Heart Center","city":"Columbia","state":"South Carolina","zip":"29204","country":"United States","geoPoint":{"lat":34.00071,"lon":-81.03481}},{"facility":"Metro Knoxville HMA","city":"Knoxville","state":"Tennessee","zip":"37920","country":"United States","geoPoint":{"lat":35.96064,"lon":-83.92074}},{"facility":"Baptist Memorial Hospital","city":"Memphis","state":"Tennessee","zip":"38120","country":"United States","geoPoint":{"lat":35.14953,"lon":-90.04898}},{"facility":"The University of Texas Southwestern Medical Center at Dallas","city":"Dallas","state":"Texas","zip":"75390","country":"United States","geoPoint":{"lat":32.78306,"lon":-96.80667}},{"facility":"Houston Methodist Hospital","city":"Houston","state":"Texas","zip":"77030","country":"United States","geoPoint":{"lat":29.76328,"lon":-95.36327}},{"facility":"UT Houston Memorial","city":"Houston","state":"Texas","zip":"77030","country":"United States","geoPoint":{"lat":29.76328,"lon":-95.36327}},{"facility":"Scott & White Memorial Hospital","city":"Temple","state":"Texas","zip":"76508","country":"United States","geoPoint":{"lat":31.09823,"lon":-97.34278}},{"facility":"Intermountain Health Services","city":"Salt Lake City","state":"Utah","zip":"84143","country":"United States","geoPoint":{"lat":40.76078,"lon":-111.89105}},{"facility":"University of Virginia","city":"Charlottesville","state":"Virginia","zip":"22908","country":"United States","geoPoint":{"lat":38.02931,"lon":-78.47668}},{"facility":"Swedish Health Services","city":"Seattle","state":"Washington","zip":"98122","country":"United States","geoPoint":{"lat":47.60621,"lon":-122.33207}},{"facility":"Providence Health & Services - Washington","city":"Spokane","state":"Washington","zip":"99204","country":"United States","geoPoint":{"lat":47.65966,"lon":-117.42908}},{"facility":"Charleston Area Medical Center","city":"Charleston","state":"West Virginia","zip":"25304","country":"United States","geoPoint":{"lat":38.34982,"lon":-81.63262}},{"facility":"Marshfield Clinic","city":"Marshfield","state":"Wisconsin","zip":"54449","country":"United States","geoPoint":{"lat":44.66885,"lon":-90.1718}},{"facility":"St. Luke's Medical Center","city":"Milwaukee","state":"Wisconsin","zip":"53215","country":"United States","geoPoint":{"lat":43.0389,"lon":-87.90647}},{"facility":"Governors of the University of Calgary and the Calgary Health Region","city":"Calgary","state":"Alberta","zip":"T2N 2T9","country":"Canada","geoPoint":{"lat":51.05011,"lon":-114.08529}},{"facility":"The University of British Columbia and The Vancouver Coastal Health Authority","city":"Vancouver","state":"British Columbia","zip":"V5Z 3J5","country":"Canada","geoPoint":{"lat":49.24966,"lon":-123.11934}},{"facility":"St. Boniface General Hospital","city":"Winnipeg","state":"Manitoba","zip":"R2H2A6","country":"Canada","geoPoint":{"lat":49.8844,"lon":-97.14704}},{"facility":"The Credit Valley Hospital and Trillium Health Centre","city":"Mississauga","state":"Ontario","zip":"L5B 4A2","country":"Canada","geoPoint":{"lat":43.5789,"lon":-79.6583}},{"facility":"Ottawa Hospital Research Institute","city":"Ottawa","state":"Ontario","zip":"K1H1A2","country":"Canada","geoPoint":{"lat":45.41117,"lon":-75.69812}},{"facility":"St. Michael's Hospital","city":"Toronto","state":"Ontario","zip":"M5B 1W8","country":"Canada","geoPoint":{"lat":43.70011,"lon":-79.4163}},{"facility":"University Health Network","city":"Toronto","state":"Ontario","zip":"M5T 2S8","country":"Canada","geoPoint":{"lat":43.70011,"lon":-79.4163}},{"facility":"Lawson Health Research Institute","city":"Toronto","state":"Ontario","zip":"N6A5A5","country":"Canada","geoPoint":{"lat":43.70011,"lon":-79.4163}},{"facility":"CHU de Qu√©bec","city":"Quebec City","state":"Quebec","zip":"G1J1Z4","country":"Canada","geoPoint":{"lat":46.81228,"lon":-71.21454}}]},"referencesModule":{"references":[{"pmid":"20189092","type":"BACKGROUND","citation":"Hopkins LN, Roubin GS, Chakhtoura EY, Gray WA, Ferguson RD, Katzen BT, Rosenfield K, Goldstein J, Cutlip DE, Morrish W, Lal BK, Sheffet AJ, Tom M, Hughes S, Voeks J, Kathir K, Meschia JF, Hobson RW 2nd, Brott TG. The Carotid Revascularization Endarterectomy versus Stenting Trial: credentialing of interventionalists and final results of lead-in phase. J Stroke Cerebrovasc Dis. 2010 Mar;19(2):153-62. doi: 10.1016/j.jstrokecerebrovasdis.2010.01.001."},{"pmid":"19211486","type":"BACKGROUND","citation":"Howard VJ, Voeks JH, Lutsep HL, Mackey A, Milot G, Sam AD 2nd, Tom M, Hughes SE, Sheffet AJ, Longbottom M, Avery JB, Hobson RW 2nd, Brott TG. Does sex matter? Thirty-day stroke and death rates after carotid artery stenting in women versus men: results from the Carotid Revascularization Endarterectomy versus Stenting Trial (CREST) lead-in phase. Stroke. 2009 Apr;40(4):1140-7. doi: 10.1161/STROKEAHA.108.541847. Epub 2009 Feb 10."},{"pmid":"20088993","type":"BACKGROUND","citation":"Sheffet AJ, Roubin G, Howard G, Howard V, Moore W, Meschia JF, Hobson RW 2nd, Brott TG. Design of the Carotid Revascularization Endarterectomy vs. Stenting Trial (CREST). Int J Stroke. 2010 Feb;5(1):40-6. doi: 10.1111/j.1747-4949.2009.00405.x."},{"pmid":"19878793","type":"BACKGROUND","citation":"Lal BK, Brott TG. The Carotid Revascularization Endarterectomy vs. Stenting Trial completes randomization: lessons learned and anticipated results. J Vasc Surg. 2009 Nov;50(5):1224-31. doi: 10.1016/j.jvs.2009.09.003."},{"pmid":"15860747","type":"BACKGROUND","citation":"Hobson RW 2nd, Brott TG, Roubin GS, Silver FL, Barnett HJ. Carotid artery stenting: meeting the recruitment challenge of a clinical trial. Stroke. 2005 Jun;36(6):1314-5. doi: 10.1161/01.STR.0000165919.26944.05. Epub 2005 Apr 28. No abstract available."},{"pmid":"15622363","type":"BACKGROUND","citation":"Hobson RW 2nd, Howard VJ, Roubin GS, Brott TG, Ferguson RD, Popma JJ, Graham DL, Howard G; CREST Investigators. Carotid artery stenting is associated with increased complications in octogenarians: 30-day stroke and death rates in the CREST lead-in phase. J Vasc Surg. 2004 Dec;40(6):1106-11. doi: 10.1016/j.jvs.2004.10.022."},{"pmid":"15557910","type":"BACKGROUND","citation":"Hobson RW 2nd, Howard VJ, Roubin GS, Ferguson RD, Brott TG, Howard G, Sheffet AJ, Roberts J, Hopkins LN, Moore WS; CREST. Credentialing of surgeons as interventionalists for carotid artery stenting: experience from the lead-in phase of CREST. J Vasc Surg. 2004 Nov;40(5):952-7. doi: 10.1016/j.jvs.2004.08.039."},{"pmid":"11806790","type":"BACKGROUND","citation":"Hobson RW 2nd, Howard VJ, Brott TG, Howard G, Roubin GS, Ferguson RD; For the CREST Executive Committee. Organizing the Carotid Revascularization Endarterectomy versus Stenting Trial (CREST): National Institutes of Health, Health Care Financing Administration, and industry funding. Curr Control Trials Cardiovasc Med. 2001 Jul 13;2(4):160-164. doi: 10.1186/cvm-2-4-160."},{"pmid":"9464598","type":"BACKGROUND","citation":"Hobson RW 2nd, Brott T, Ferguson R, Roubin G, Moore W, Kuntz R, Howard G, Ferguson J. CREST: carotid revascularization endarterectomy versus stent trial. Cardiovasc Surg. 1997 Oct;5(5):457-8. doi: 10.1016/s0967-2109(97)00048-3. No abstract available."},{"pmid":"20505173","type":"RESULT","citation":"Brott TG, Hobson RW 2nd, Howard G, Roubin GS, Clark WM, Brooks W, Mackey A, Hill MD, Leimgruber PP, Sheffet AJ, Howard VJ, Moore WS, Voeks JH, Hopkins LN, Cutlip DE, Cohen DJ, Popma JJ, Ferguson RD, Cohen SN, Blackshear JL, Silver FL, Mohr JP, Lal BK, Meschia JF; CREST Investigators. Stenting versus endarterectomy for treatment of carotid-artery stenosis. N Engl J Med. 2010 Jul 1;363(1):11-23. doi: 10.1056/NEJMoa0912321. Epub 2010 May 26. Erratum In: N Engl J Med. 2010 Jul 29;363(5):498. N Engl J Med. 2010 Jul 8;363(2):198."},{"pmid":"20876500","type":"RESULT","citation":"Mantese VA, Timaran CH, Chiu D, Begg RJ, Brott TG; CREST Investigators. The Carotid Revascularization Endarterectomy versus Stenting Trial (CREST): stenting versus carotid endarterectomy for carotid disease. Stroke. 2010 Oct;41(10 Suppl):S31-4. doi: 10.1161/STROKEAHA.110.595330."},{"pmid":"21307169","type":"RESULT","citation":"Silver FL, Mackey A, Clark WM, Brooks W, Timaran CH, Chiu D, Goldstein LB, Meschia JF, Ferguson RD, Moore WS, Howard G, Brott TG; CREST Investigators. Safety of stenting and endarterectomy by symptomatic status in the Carotid Revascularization Endarterectomy Versus Stenting Trial (CREST). Stroke. 2011 Mar;42(3):675-80. doi: 10.1161/STROKEAHA.110.610212. Epub 2011 Feb 9."},{"pmid":"21606394","type":"RESULT","citation":"Blackshear JL, Cutlip DE, Roubin GS, Hill MD, Leimgruber PP, Begg RJ, Cohen DJ, Eidt JF, Narins CR, Prineas RJ, Glasser SP, Voeks JH, Brott TG; CREST Investigators. Myocardial infarction after carotid stenting and endarterectomy: results from the carotid revascularization endarterectomy versus stenting trial. Circulation. 2011 Jun 7;123(22):2571-8. doi: 10.1161/CIRCULATIONAHA.110.008250. Epub 2011 May 23."},{"pmid":"22821614","type":"RESULT","citation":"Vilain KR, Magnuson EA, Li H, Clark WM, Begg RJ, Sam AD 2nd, Sternbergh WC 3rd, Weaver FA, Gray WA, Voeks JH, Brott TG, Cohen DJ; CREST Investigators. Costs and cost-effectiveness of carotid stenting versus endarterectomy for patients at standard surgical risk: results from the Carotid Revascularization Endarterectomy Versus Stenting Trial (CREST). Stroke. 2012 Sep;43(9):2408-16. doi: 10.1161/STROKEAHA.112.661355. Epub 2012 Jul 19."},{"pmid":"22857850","type":"RESULT","citation":"Lal BK, Beach KW, Roubin GS, Lutsep HL, Moore WS, Malas MB, Chiu D, Gonzales NR, Burke JL, Rinaldi M, Elmore JR, Weaver FA, Narins CR, Foster M, Hodgson KJ, Shepard AD, Meschia JF, Bergelin RO, Voeks JH, Howard G, Brott TG; CREST Investigators. Restenosis after carotid artery stenting and endarterectomy: a secondary analysis of CREST, a randomised controlled trial. Lancet Neurol. 2012 Sep;11(9):755-63. doi: 10.1016/S1474-4422(12)70159-X. Epub 2012 Aug 2."},{"pmid":"23159552","type":"RESULT","citation":"Hill MD, Brooks W, Mackey A, Clark WM, Meschia JF, Morrish WF, Mohr JP, Rhodes JD, Popma JJ, Lal BK, Longbottom ME, Voeks JH, Howard G, Brott TG; CREST Investigators. Stroke after carotid stenting and endarterectomy in the Carotid Revascularization Endarterectomy versus Stenting Trial (CREST). Circulation. 2012 Dec 18;126(25):3054-61. doi: 10.1161/CIRCULATIONAHA.112.120030. Epub 2012 Nov 16."},{"pmid":"23265585","type":"RESULT","citation":"Timaran CH, Mantese VA, Malas M, Brown OW, Lal BK, Moore WS, Voeks JH, Brott TG; CREST Investigators. Differential outcomes of carotid stenting and endarterectomy performed exclusively by vascular surgeons in the Carotid Revascularization Endarterectomy versus Stenting Trial (CREST). J Vasc Surg. 2013 Feb;57(2):303-8. doi: 10.1016/j.jvs.2012.09.014. Epub 2012 Dec 20."},{"pmid":"34695552","type":"DERIVED","citation":"Matsumura JS, Hanlon BM, Rosenfield K, Voeks JH, Howard G, Roubin GS, Brott TG. Treatment of carotid stenosis in asymptomatic, nonoctogenarian, standard risk patients with stenting versus endarterectomy trials. J Vasc Surg. 2022 Apr;75(4):1276-1283.e1. doi: 10.1016/j.jvs.2021.10.020. Epub 2021 Oct 22."},{"pmid":"33493046","type":"DERIVED","citation":"Howard VJ, Algra A, Howard G, Bonati LH, de Borst GJ, Bulbulia R, Calvet D, Eckstein HH, Fraedrich G, Greving JP, Halliday A, Hendrikse J, Jansen O, Brown MM, Mas JL, Ringleb PA, Brott TG; Carotid Stenosis Trialists' Collaboration. Absence of Consistent Sex Differences in Outcomes From Symptomatic Carotid Endarterectomy and Stenting Randomized Trials. Stroke. 2021 Jan;52(2):416-423. doi: 10.1161/STROKEAHA.120.030184. Epub 2021 Jan 25."},{"pmid":"31378071","type":"DERIVED","citation":"Muller MD, von Felten S, Algra A, Becquemin JP, Bulbulia R, Calvet D, Eckstein HH, Fraedrich G, Halliday A, Hendrikse J, Howard G, Gregson J, Jansen O, Brown MM, Mas JL, Brott TG, Ringleb PA, Bonati LH. Secular Trends in Procedural Stroke or Death Risks of Stenting Versus Endarterectomy for Symptomatic Carotid Stenosis. Circ Cardiovasc Interv. 2019 Aug;12(8):e007870. doi: 10.1161/CIRCINTERVENTIONS.119.007870. Epub 2019 Aug 5."},{"pmid":"30630649","type":"DERIVED","citation":"Moore WS, Voeks JH, Roubin GS, Clark WM, Howard VJ, Jones MR, Brott TG; CREST Investigators. Duration of asymptomatic status and outcomes following carotid endarterectomy and carotid artery stenting in the Carotid Revascularization Endarterectomy vs Stenting Trial. J Vasc Surg. 2019 Jun;69(6):1797-1800. doi: 10.1016/j.jvs.2018.09.054. Epub 2019 Jan 8."},{"pmid":"30571337","type":"DERIVED","citation":"Jones MR, Howard G, Roubin GS, Blackshear JL, Cohen DJ, Cutlip DE, Leimgruber PP, Rhodes D, Prineas RJ, Glasser SP, Lal BK, Voeks JH, Brott TG; CREST Investigators. Periprocedural Stroke and Myocardial Infarction as Risks for Long-Term Mortality in CREST. Circ Cardiovasc Qual Outcomes. 2018 Nov;11(11):e004663. doi: 10.1161/CIRCOUTCOMES.117.004663."},{"pmid":"30527940","type":"DERIVED","citation":"Lal BK, Roubin GS, Jones M, Clark W, Mackey A, Hill MD, Voeks JH, Howard G, Hobson RW 2nd, Brott TG. Influence of multiple stents on periprocedural stroke after carotid artery stenting in the Carotid Revascularization Endarterectomy versus Stent Trial (CREST). J Vasc Surg. 2019 Mar;69(3):800-806. doi: 10.1016/j.jvs.2018.06.221. Epub 2018 Dec 4."},{"pmid":"30355202","type":"DERIVED","citation":"Muller MD, von Felten S, Algra A, Becquemin JP, Brown M, Bulbulia R, Calvet D, Eckstein HH, Fraedrich G, Halliday A, Hendrikse J, Gregson J, Howard G, Jansen O, Mas JL, Brott TG, Ringleb PA, Bonati LH; Carotid Stenosis Trialists' Collaboration. Immediate and Delayed Procedural Stroke or Death in Stenting Versus Endarterectomy for Symptomatic Carotid Stenosis. Stroke. 2018 Nov;49(11):2715-2722. doi: 10.1161/STROKEAHA.118.020684."},{"pmid":"29191852","type":"DERIVED","citation":"Sheffet AJ, Howard G, Sam A, Jamil Z, Weaver F, Chiu D, Voeks JH, Howard VJ, Hughes SE, Flaxman L, Longbottom ME, Brott TG; CREST Investigators. Challenge and Yield of Enrolling Racially and Ethnically Diverse Patient Populations in Low Event Rate Clinical Trials. Stroke. 2018 Jan;49(1):84-89. doi: 10.1161/STROKEAHA.117.018063. Epub 2017 Nov 30."},{"pmid":"28455318","type":"DERIVED","citation":"Rantner B, Kollerits B, Roubin GS, Ringleb PA, Jansen O, Howard G, Hendrikse J, Halliday A, Gregson J, Eckstein HH, Calvet D, Bulbulia R, Bonati LH, Becquemin JP, Algra A, Brown MM, Mas JL, Brott TG, Fraedrich G; Carotid Stenosis Trialists' Collaboration. Early Endarterectomy Carries a Lower Procedural Risk Than Early Stenting in Patients With Symptomatic Stenosis of the Internal Carotid Artery: Results From 4 Randomized Controlled Trials. Stroke. 2017 Jun;48(6):1580-1587. doi: 10.1161/STROKEAHA.116.016233. Epub 2017 Apr 28."},{"pmid":"26890472","type":"DERIVED","citation":"Brott TG, Howard G, Roubin GS, Meschia JF, Mackey A, Brooks W, Moore WS, Hill MD, Mantese VA, Clark WM, Timaran CH, Heck D, Leimgruber PP, Sheffet AJ, Howard VJ, Chaturvedi S, Lal BK, Voeks JH, Hobson RW 2nd; CREST Investigators. Long-Term Results of Stenting versus Endarterectomy for Carotid-Artery Stenosis. N Engl J Med. 2016 Mar 17;374(11):1021-31. doi: 10.1056/NEJMoa1505215. Epub 2016 Feb 18."},{"pmid":"26610643","type":"DERIVED","citation":"Moore WS, Popma JJ, Roubin GS, Voeks JH, Cutlip DE, Jones M, Howard G, Brott TG; CREST Investigators. Carotid angiographic characteristics in the CREST trial were major contributors to periprocedural stroke and death differences between carotid artery stenting and carotid endarterectomy. J Vasc Surg. 2016 Apr;63(4):851-7, 858.e1. doi: 10.1016/j.jvs.2015.08.119. Epub 2015 Nov 21."},{"pmid":"26493675","type":"DERIVED","citation":"Meschia JF, Hopkins LN, Altafullah I, Wechsler LR, Stotts G, Gonzales NR, Voeks JH, Howard G, Brott TG. Time From Symptoms to Carotid Endarterectomy or Stenting and Perioperative Risk. Stroke. 2015 Dec;46(12):3540-2. doi: 10.1161/STROKEAHA.115.011123. Epub 2015 Oct 22."},{"pmid":"26351359","type":"DERIVED","citation":"Voeks JH, Howard G, Roubin G, Farb R, Heck D, Logan W, Longbottom M, Sheffet A, Meschia JF, Brott TG. Mediators of the Age Effect in the Carotid Revascularization Endarterectomy Versus Stenting Trial (CREST). Stroke. 2015 Oct;46(10):2868-73. doi: 10.1161/STROKEAHA.115.009516. Epub 2015 Sep 8."},{"pmid":"26173731","type":"DERIVED","citation":"Howard G, Hopkins LN, Moore WS, Katzen BT, Chakhtoura E, Morrish WF, Ferguson RD, Hye RJ, Shawl FA, Harrigan MR, Voeks JH, Howard VJ, Lal BK, Meschia JF, Brott TG. Temporal Changes in Periprocedural Events in the Carotid Revascularization Endarterectomy Versus Stenting Trial. Stroke. 2015 Aug;46(8):2183-9. doi: 10.1161/STROKEAHA.115.008898. Epub 2015 Jul 14."},{"pmid":"26122922","type":"DERIVED","citation":"Sheffet AJ, Voeks JH, Mackey A, Brooks W, Clark WM, Hill MD, Howard VJ, Hughes SE, Tom M, Longbottom ME, Brott TG; CREST Investigators. Characteristics of participants consenting versus declining follow-up for up to 10 years in a randomized clinical trial. Clin Trials. 2015 Dec;12(6):657-63. doi: 10.1177/1740774515590807. Epub 2015 Jun 29."},{"pmid":"25613307","type":"DERIVED","citation":"Malas M, Glebova NO, Hughes SE, Voeks JH, Qazi U, Moore WS, Lal BK, Howard G, Llinas R, Brott TG. Effect of patching on reducing restenosis in the carotid revascularization endarterectomy versus stenting trial. Stroke. 2015 Mar;46(3):757-61. doi: 10.1161/STROKEAHA.114.007634. Epub 2015 Jan 22."},{"pmid":"25428209","type":"DERIVED","citation":"Meschia JF, Voeks JH, Leimgruber PP, Mantese VA, Timaran CH, Chiu D, Demaerschalk BM, Howard VJ, Hughes SE, Longbottom M, Howard AG, Brott TG. Management of vascular risk factors in the Carotid Revascularization Endarterectomy Versus Stenting Trial (CREST). J Am Heart Assoc. 2014 Nov 26;3(6):e001180. doi: 10.1161/JAHA.114.001180."},{"pmid":"25256180","type":"DERIVED","citation":"Gonzales NR, Demaerschalk BM, Voeks JH, Tom M, Howard G, Sheffet AJ, Garcia L, Clair DG, Barr J, Orlow S, Brott TG; CREST Investigators. Complication rates and center enrollment volume in the carotid revascularization endarterectomy versus stenting trial. Stroke. 2014 Nov;45(11):3320-4. doi: 10.1161/STROKEAHA.114.006228. Epub 2014 Sep 25."},{"pmid":"25213339","type":"DERIVED","citation":"Howard G, Voeks JH, Meschia JF, Howard VJ, Brott TG. Picking the good apples: statistics versus good judgment in choosing stent operators for a multicenter clinical trial. Stroke. 2014 Nov;45(11):3325-9. doi: 10.1161/STROKEAHA.114.006807. Epub 2014 Sep 11."},{"pmid":"24661748","type":"DERIVED","citation":"Sheffet AJ, Flaxman L, Tom M, Hughes SE, Longbottom ME, Howard VJ, Marler JR, Brott TG; CREST Investigators. Financial management of a large multisite randomized clinical trial. Int J Stroke. 2014 Aug;9(6):811-3. doi: 10.1111/ijs.12259. Epub 2014 Mar 24."},{"pmid":"24055515","type":"DERIVED","citation":"Zierler RE, Beach KW, Bergelin RO, Lal BK, Moore WS, Roubin GS, Voeks JH, Brott TG; CREST Investigators. Agreement between site-reported and ultrasound core laboratory results for duplex ultrasound velocity measurements in the Carotid Revascularization Endarterectomy versus Stenting Trial. J Vasc Surg. 2014 Jan;59(1):2-7. doi: 10.1016/j.jvs.2013.06.071. Epub 2013 Sep 19."},{"pmid":"22941123","type":"DERIVED","citation":"Habersberger J, Brott TG, Roubin GS. Carotid artery stenting: a clinical update. Curr Opin Cardiol. 2012 Nov;27(6):565-71. doi: 10.1097/HCO.0b013e3283587506."},{"pmid":"21980205","type":"DERIVED","citation":"Voeks JH, Howard G, Roubin GS, Malas MB, Cohen DJ, Sternbergh WC 3rd, Aronow HD, Eskandari MK, Sheffet AJ, Lal BK, Meschia JF, Brott TG; CREST Investigators. Age and outcomes after carotid stenting and endarterectomy: the carotid revascularization endarterectomy versus stenting trial. Stroke. 2011 Dec;42(12):3484-90. doi: 10.1161/STROKEAHA.111.624155. Epub 2011 Oct 6."},{"pmid":"21958882","type":"DERIVED","citation":"Cohen DJ, Stolker JM, Wang K, Magnuson EA, Clark WM, Demaerschalk BM, Sam AD Jr, Elmore JR, Weaver FA, Aronow HD, Goldstein LB, Roubin GS, Howard G, Brott TG; CREST Investigators. Health-related quality of life after carotid stenting versus carotid endarterectomy: results from CREST (Carotid Revascularization Endarterectomy Versus Stenting Trial). J Am Coll Cardiol. 2011 Oct 4;58(15):1557-65. doi: 10.1016/j.jacc.2011.05.054."},{"pmid":"21899409","type":"DERIVED","citation":"Chimowitz MI, Lynn MJ, Derdeyn CP, Turan TN, Fiorella D, Lane BF, Janis LS, Lutsep HL, Barnwell SL, Waters MF, Hoh BL, Hourihane JM, Levy EI, Alexandrov AV, Harrigan MR, Chiu D, Klucznik RP, Clark JM, McDougall CG, Johnson MD, Pride GL Jr, Torbey MT, Zaidat OO, Rumboldt Z, Cloft HJ; SAMMPRIS Trial Investigators. Stenting versus aggressive medical therapy for intracranial arterial stenosis. N Engl J Med. 2011 Sep 15;365(11):993-1003. doi: 10.1056/NEJMoa1105335. Epub 2011 Sep 7. Erratum In: N Engl J Med. 2012 Jul 5;367(1):93."},{"pmid":"21550314","type":"DERIVED","citation":"Howard VJ, Lutsep HL, Mackey A, Demaerschalk BM, Sam AD 2nd, Gonzales NR, Sheffet AJ, Voeks JH, Meschia JF, Brott TG; CREST investigators. Influence of sex on outcomes of stenting versus endarterectomy: a subgroup analysis of the Carotid Revascularization Endarterectomy versus Stenting Trial (CREST). Lancet Neurol. 2011 Jun;10(6):530-7. doi: 10.1016/S1474-4422(11)70080-1. Epub 2011 May 5."}]},"ipdSharingStatementModule":{"ipdSharing":"NO"}},"resultsSection":{"participantFlowModule":{"groups":[{"id":"FG000","title":"Carotid-Artery Stenting (CAS)","description":"CAS involves insertion of a catheter or tube into an artery in the groin and then threading the catheter through the arteries of the body to the location of the plaque within the carotid artery in the neck. The stent is then placed to cover the plaque and hold the artery open."},{"id":"FG001","title":"Carotid Endarterectomy (CEA)","description":"CEA involves a neck incision and physical removal of the plaque from the inside of the carotid artery."}],"periods":[{"title":"Overall Study","milestones":[{"type":"STARTED","achievements":[{"groupId":"FG000","numSubjects":"1262"},{"groupId":"FG001","numSubjects":"1240"}]},{"type":"COMPLETED","achievements":[{"groupId":"FG000","numSubjects":"1193"},{"groupId":"FG001","numSubjects":"1129"}]},{"type":"NOT COMPLETED","achievements":[{"groupId":"FG000","numSubjects":"69"},{"groupId":"FG001","numSubjects":"111"}]}],"dropWithdraws":[{"type":"Withdrawal by Subject","reasons":[{"groupId":"FG000","numSubjects":"36"},{"groupId":"FG001","numSubjects":"64"}]},{"type":"Lost to Follow-up","reasons":[{"groupId":"FG000","numSubjects":"33"},{"groupId":"FG001","numSubjects":"47"}]}]}]},"baselineCharacteristicsModule":{"groups":[{"id":"BG000","title":"Carotid-Artery Stenting","description":"Patients Randomized to CAS"},{"id":"BG001","title":"Carotid Endarterectomy","description":"Patients Randomized to CEA"},{"id":"BG002","title":"Total","description":"Total of all reporting groups"}],"denoms":[{"units":"Participants","counts":[{"groupId":"BG000","value":"1262"},{"groupId":"BG001","value":"1240"},{"groupId":"BG002","value":"2502"}]}],"measures":[{"title":"Age, Continuous","paramType":"MEAN","dispersionType":"STANDARD_DEVIATION","unitOfMeasure":"years","classes":[{"categories":[{"measurements":[{"groupId":"BG000","value":"68.9","spread":"9.0"},{"groupId":"BG001","value":"69.2","spread":"8.7"},{"groupId":"BG002","value":"69.0","spread":"8.9"}]}]}]},{"title":"Sex: Female, Male","paramType":"COUNT_OF_PARTICIPANTS","unitOfMeasure":"Participants","classes":[{"categories":[{"title":"Female","measurements":[{"groupId":"BG000","value":"455"},{"groupId":"BG001","value":"417"},{"groupId":"BG002","value":"872"}]},{"title":"Male","measurements":[{"groupId":"BG000","value":"807"},{"groupId":"BG001","value":"823"},{"groupId":"BG002","value":"1630"}]}]}]},{"title":"Race/Ethnicity, Customized","paramType":"NUMBER","unitOfMeasure":"Participants","classes":[{"title":"White","categories":[{"measurements":[{"groupId":"BG000","value":"1172"},{"groupId":"BG001","value":"1160"},{"groupId":"BG002","value":"2332"}]}]},{"title":"Non-White","categories":[{"measurements":[{"groupId":"BG000","value":"81"},{"groupId":"BG001","value":"71"},{"groupId":"BG002","value":"152"}]}]},{"title":"Not Specified","categories":[{"measurements":[{"groupId":"BG000","value":"9"},{"groupId":"BG001","value":"9"},{"groupId":"BG002","value":"18"}]}]}]},{"title":"Symptomatic Status","paramType":"NUMBER","unitOfMeasure":"Participants","classes":[{"title":"Asymptomatic","categories":[{"measurements":[{"groupId":"BG000","value":"594"},{"groupId":"BG001","value":"587"},{"groupId":"BG002","value":"1181"}]}]},{"title":"Symptomatic","categories":[{"measurements":[{"groupId":"BG000","value":"668"},{"groupId":"BG001","value":"653"},{"groupId":"BG002","value":"1321"}]}]}]},{"title":"Baseline Hypertension","paramType":"NUMBER","unitOfMeasure":"Participants","classes":[{"title":"Yes","categories":[{"measurements":[{"groupId":"BG000","value":"1080"},{"groupId":"BG001","value":"1061"},{"groupId":"BG002","value":"2141"}]}]},{"title":"No","categories":[{"measurements":[{"groupId":"BG000","value":"179"},{"groupId":"BG001","value":"172"},{"groupId":"BG002","value":"351"}]}]},{"title":"Unknown","categories":[{"measurements":[{"groupId":"BG000","value":"3"},{"groupId":"BG001","value":"7"},{"groupId":"BG002","value":"10"}]}]}]},{"title":"Diabetes Status","paramType":"NUMBER","unitOfMeasure":"Participants","classes":[{"title":"Yes","categories":[{"measurements":[{"groupId":"BG000","value":"384"},{"groupId":"BG001","value":"375"},{"groupId":"BG002","value":"759"}]}]},{"title":"No","categories":[{"measurements":[{"groupId":"BG000","value":"873"},{"groupId":"BG001","value":"857"},{"groupId":"BG002","value":"1730"}]}]},{"title":"Unknown","categories":[{"measurements":[{"groupId":"BG000","value":"5"},{"groupId":"BG001","value":"8"},{"groupId":"BG002","value":"13"}]}]}]},{"title":"Dyslipidemia","paramType":"NUMBER","unitOfMeasure":"Participants","classes":[{"title":"Yes","categories":[{"measurements":[{"groupId":"BG000","value":"1040"},{"groupId":"BG001","value":"1053"},{"groupId":"BG002","value":"2093"}]}]},{"title":"No","categories":[{"measurements":[{"groupId":"BG000","value":"214"},{"groupId":"BG001","value":"174"},{"groupId":"BG002","value":"388"}]}]},{"title":"Unknown","categories":[{"measurements":[{"groupId":"BG000","value":"8"},{"groupId":"BG001","value":"13"},{"groupId":"BG002","value":"21"}]}]}]},{"title":"Present Smoker","paramType":"NUMBER","unitOfMeasure":"Participant","classes":[{"title":"Yes","categories":[{"measurements":[{"groupId":"BG000","value":"329"},{"groupId":"BG001","value":"317"},{"groupId":"BG002","value":"646"}]}]},{"title":"No","categories":[{"measurements":[{"groupId":"BG000","value":"915"},{"groupId":"BG001","value":"899"},{"groupId":"BG002","value":"1814"}]}]},{"title":"Unknown","categories":[{"measurements":[{"groupId":"BG000","value":"18"},{"groupId":"BG001","value":"24"},{"groupId":"BG002","value":"42"}]}]}]},{"title":"Lesion Location","paramType":"NUMBER","unitOfMeasure":"Participants","classes":[{"title":"Left","categories":[{"measurements":[{"groupId":"BG000","value":"639"},{"groupId":"BG001","value":"648"},{"groupId":"BG002","value":"1287"}]}]},{"title":"Right","categories":[{"measurements":[{"groupId":"BG000","value":"623"},{"groupId":"BG001","value":"592"},{"groupId":"BG002","value":"1215"}]}]}]},{"title":"Systolic Blood Pressure","paramType":"MEAN","dispersionType":"STANDARD_DEVIATION","unitOfMeasure":"mmHg","classes":[{"categories":[{"measurements":[{"groupId":"BG000","value":"141.6","spread":"20.2"},{"groupId":"BG001","value":"141.2","spread":"20.5"},{"groupId":"BG002","value":"141.4","spread":"20.3"}]}]}]},{"title":"Diastolic Blood Pressure","paramType":"MEAN","dispersionType":"STANDARD_DEVIATION","unitOfMeasure":"mmHg","classes":[{"categories":[{"measurements":[{"groupId":"BG000","value":"74.0","spread":"11.6"},{"groupId":"BG001","value":"73.9","spread":"11.5"},{"groupId":"BG002","value":"74.0","spread":"11.5"}]}]}]},{"title":"Percent Stenosis at Randomization","paramType":"NUMBER","unitOfMeasure":"Participants","classes":[{"title":"Moderate (<70%)","categories":[{"measurements":[{"groupId":"BG000","value":"165"},{"groupId":"BG001","value":"186"},{"groupId":"BG002","value":"351"}]}]},{"title":"Severe (>=70%)","categories":[{"measurements":[{"groupId":"BG000","value":"1097"},{"groupId":"BG001","value":"1054"},{"groupId":"BG002","value":"2151"}]}]}]}]},"outcomeMeasuresModule":{"outcomeMeasures":[{"type":"PRIMARY","title":"Any Periprocedural Stroke, Myocardial Infarction, or Death During a 30-day Peri-procedural Period, and Postprocedural Ipsilateral Stroke Thereafter, up to 4-years.","description":"The primary aim of CREST is to assess if the efficacy of CAS differs from that of CEA in preventing stroke, myocardial infarction and death during a 30-day peri-procedural period, or ipsilateral stroke over the follow-up period in patients with symptomatic (\\>=50%) or asymptomatic (\\>=60%) extracranial carotid stenosis. Four-year follow-up, proportions reflecting the absolute efficacy of carotid-artery stenting (CAS) over that of carotid endarterectomy (CEA) were based on Kaplan-Meier survival estimates at the end of the 4 years.","reportingStatus":"POSTED","paramType":"MEAN","dispersionType":"Standard Error","unitOfMeasure":"Percentage","timeFrame":"30 days and 4 years","groups":[{"id":"OG000","title":"Carotid-Artery Stenting","description":"Patients Randomized to CAS"},{"id":"OG001","title":"Carotid Endarterectomy","description":"Patients Randomized to CEA"}],"denoms":[{"units":"Participants","counts":[{"groupId":"OG000","value":"1262"},{"groupId":"OG001","value":"1240"}]}],"classes":[{"categories":[{"measurements":[{"groupId":"OG000","value":"7.2","spread":"0.8"},{"groupId":"OG001","value":"6.8","spread":"0.8"}]}]}],"analyses":[{"groupIds":["OG000","OG001"],"nonInferiorityType":"SUPERIORITY_OR_OTHER","paramType":"Hazard Ratio (HR)","paramValue":"1.11","ciPctValue":"95","ciNumSides":"TWO_SIDED","ciLowerLimit":"0.81","ciUpperLimit":"1.51","estimateComment":"HR (95% CI) adjusted for age, sex and symptomatic status"}]},{"type":"SECONDARY","title":"Differential Efficacy of CAS and CEA in Male and Female Participants in the Primary Endpoint (Any Periprocedural Stroke, Myocardial Infarction, or Death or Postprocedural Ipsilateral Stroke).","description":"4-year follow-up, proportions reflecting the absolute efficacy of carotid-artery stenting (CAS) over that of carotid endarterectomy (CEA) were based on Kaplan-Meier survival estimates at the end of the 4 years.","reportingStatus":"POSTED","paramType":"MEAN","dispersionType":"Standard Error","unitOfMeasure":"Percentage","timeFrame":"4 years","groups":[{"id":"OG000","title":"Carotid-Artery Stenting","description":"Patients randomized to CAS"},{"id":"OG001","title":"Carotid Endarterectomy","description":"Patients randomized to CEA"}],"denoms":[{"units":"Participants","counts":[{"groupId":"OG000","value":"1262"},{"groupId":"OG001","value":"1240"}]}],"classes":[{"title":"Men","categories":[{"measurements":[{"groupId":"OG000","value":"6.2","spread":"0.9"},{"groupId":"OG001","value":"6.8","spread":"1.0"}]}]},{"title":"Women","categories":[{"measurements":[{"groupId":"OG000","value":"8.9","spread":"1.4"},{"groupId":"OG001","value":"6.7","spread":"1.3"}]}]}],"analyses":[{"groupIds":["OG000","OG001"],"nonInferiorityType":"SUPERIORITY_OR_OTHER","paramType":"Hazard Ratio (HR)","paramValue":"1.35","ciPctValue":"95","ciNumSides":"TWO_SIDED","ciLowerLimit":"0.82","ciUpperLimit":"2.23","estimateComment":"HR (95% CI) for WOMEN CAS vs CEA (adjusted for age and symptomatic status)"}]}]},"adverseEventsModule":{"frequencyThreshold":"0","timeFrame":"Periprocedural period","eventGroups":[{"id":"EG000","title":"Carotid-Artery Stenting","description":"Patients Randomized to CAS","seriousNumAffected":322,"seriousNumAtRisk":1262,"otherNumAffected":213,"otherNumAtRisk":1262},{"id":"EG001","title":"Carotid Endarterectomy","description":"Patients Randomized to CEA","seriousNumAffected":292,"seriousNumAtRisk":1240,"otherNumAffected":212,"otherNumAtRisk":1240}],"seriousEvents":[{"term":"Neurologic SAE","organSystem":"Nervous system disorders","assessmentType":"SYSTEMATIC_ASSESSMENT","stats":[{"groupId":"EG000","numEvents":124,"numAffected":98,"numAtRisk":1262},{"groupId":"EG001","numEvents":108,"numAffected":93,"numAtRisk":1240}]},{"term":"Hemorrhagic/Vascular SAE","organSystem":"Vascular disorders","assessmentType":"SYSTEMATIC_ASSESSMENT","stats":[{"groupId":"EG000","numEvents":40,"numAffected":32,"numAtRisk":1262},{"groupId":"EG001","numEvents":53,"numAffected":40,"numAtRisk":1240}]},{"term":"Hemodynamic SAE","organSystem":"Blood and lymphatic system disorders","assessmentType":"SYSTEMATIC_ASSESSMENT","stats":[{"groupId":"EG000","numEvents":80,"numAffected":73,"numAtRisk":1262},{"groupId":"EG001","numEvents":63,"numAffected":56,"numAtRisk":1240}]},{"term":"Infectious Disorder SAE","organSystem":"Infections and infestations","assessmentType":"SYSTEMATIC_ASSESSMENT","stats":[{"groupId":"EG000","numEvents":31,"numAffected":27,"numAtRisk":1262},{"groupId":"EG001","numEvents":19,"numAffected":19,"numAtRisk":1240}]},{"term":"Cardiovascular SAE","organSystem":"Cardiac disorders","assessmentType":"SYSTEMATIC_ASSESSMENT","stats":[{"groupId":"EG000","numEvents":41,"numAffected":36,"numAtRisk":1262},{"groupId":"EG001","numEvents":58,"numAffected":49,"numAtRisk":1240}]},{"term":"Angiographic/Procedural SAE","organSystem":"Surgical and medical procedures","assessmentType":"SYSTEMATIC_ASSESSMENT","stats":[{"groupId":"EG000","numEvents":10,"numAffected":9,"numAtRisk":1262},{"groupId":"EG001","numEvents":11,"numAffected":9,"numAtRisk":1240}]},{"term":"Miscellaneous SAE","organSystem":"General disorders","assessmentType":"SYSTEMATIC_ASSESSMENT","stats":[{"groupId":"EG000","numEvents":50,"numAffected":43,"numAtRisk":1262},{"groupId":"EG001","numEvents":72,"numAffected":47,"numAtRisk":1240}]},{"term":"Metabolic/Electrolyte SAE","organSystem":"Metabolism and nutrition disorders","assessmentType":"SYSTEMATIC_ASSESSMENT","stats":[{"groupId":"EG000","numEvents":4,"numAffected":4,"numAtRisk":1262},{"groupId":"EG001","numEvents":4,"numAffected":4,"numAtRisk":1240}]},{"term":"Other SAE","organSystem":"General disorders","assessmentType":"SYSTEMATIC_ASSESSMENT","stats":[{"groupId":"EG000","numEvents":1,"numAffected":1,"numAtRisk":1262},{"groupId":"EG001","numEvents":0,"numAffected":0,"numAtRisk":1240}]}],"otherEvents":[{"term":"Neurologic AE (non-endpoint, non-serious)","organSystem":"Nervous system disorders","assessmentType":"SYSTEMATIC_ASSESSMENT","stats":[{"groupId":"EG000","numEvents":81,"numAffected":65,"numAtRisk":1262},{"groupId":"EG001","numEvents":83,"numAffected":72,"numAtRisk":1240}]},{"term":"Hemorrhagic/vascular AE (not serious)","organSystem":"Vascular disorders","assessmentType":"SYSTEMATIC_ASSESSMENT","stats":[{"groupId":"EG000","numEvents":23,"numAffected":21,"numAtRisk":1262},{"groupId":"EG001","numEvents":23,"numAffected":20,"numAtRisk":1240}]},{"term":"Hemodynamic AE (not serious)","organSystem":"Blood and lymphatic system disorders","assessmentType":"SYSTEMATIC_ASSESSMENT","stats":[{"groupId":"EG000","numEvents":73,"numAffected":65,"numAtRisk":1262},{"groupId":"EG001","numEvents":50,"numAffected":45,"numAtRisk":1240}]},{"term":"Infectious Disorder AE (not serious)","organSystem":"Infections and infestations","assessmentType":"SYSTEMATIC_ASSESSMENT","stats":[{"groupId":"EG000","numEvents":13,"numAffected":13,"numAtRisk":1262},{"groupId":"EG001","numEvents":13,"numAffected":12,"numAtRisk":1240}]},{"term":"Cardiovascular AE (non-endpoint, non-serious)","organSystem":"Cardiac disorders","assessmentType":"SYSTEMATIC_ASSESSMENT","stats":[{"groupId":"EG000","numEvents":41,"numAffected":34,"numAtRisk":1262},{"groupId":"EG001","numEvents":42,"numAffected":36,"numAtRisk":1240}]},{"term":"Angiographic/Procedural AE (not serious)","organSystem":"Surgical and medical procedures","assessmentType":"SYSTEMATIC_ASSESSMENT","stats":[{"groupId":"EG000","numEvents":27,"numAffected":24,"numAtRisk":1262},{"groupId":"EG001","numEvents":49,"numAffected":43,"numAtRisk":1240}]},{"term":"Other AE (not serious)","organSystem":"General disorders","assessmentType":"SYSTEMATIC_ASSESSMENT","stats":[{"groupId":"EG000","numEvents":0,"numAffected":0,"numAtRisk":1262},{"groupId":"EG001","numEvents":1,"numAffected":1,"numAtRisk":1240}]},{"term":"Metabolic/Electrolyte AE (not serious)","organSystem":"Metabolism and nutrition disorders","assessmentType":"SYSTEMATIC_ASSESSMENT","stats":[{"groupId":"EG000","numEvents":8,"numAffected":8,"numAtRisk":1262},{"groupId":"EG001","numEvents":4,"numAffected":4,"numAtRisk":1240}]},{"term":"Miscellaneous Types of AEs (not serious)","organSystem":"General disorders","assessmentType":"SYSTEMATIC_ASSESSMENT","stats":[{"groupId":"EG000","numEvents":132,"numAffected":83,"numAtRisk":1262},{"groupId":"EG001","numEvents":127,"numAffected":86,"numAtRisk":1240}]},{"term":"Neurologic AE (endpoint, non-serious)","organSystem":"Nervous system disorders","assessmentType":"SYSTEMATIC_ASSESSMENT","stats":[{"groupId":"EG000","numEvents":1,"numAffected":1,"numAtRisk":1262},{"groupId":"EG001","numEvents":0,"numAffected":0,"numAtRisk":1240}]}]},"moreInfoModule":{"certainAgreement":{"piSponsorEmployee":false,"restrictiveAgreement":false},"pointOfContact":{"title":"Thomas G. Brott, MD - Principal Investigator","organization":"Mayo Clinic","email":"Brott.thomas@mayo.edu","phone":"904-953-0556"}}},"derivedSection":{"miscInfoModule":{"versionHolder":"2024-02-14"},"conditionBrowseModule":{"meshes":[{"id":"D000002544","term":"Cerebral Infarction"},{"id":"D000016893","term":"Carotid Stenosis"},{"id":"D000009203","term":"Myocardial Infarction"},{"id":"D000050197","term":"Atherosclerosis"},{"id":"D000007238","term":"Infarction"}],"ancestors":[{"id":"D000020521","term":"Stroke"},{"id":"D000002561","term":"Cerebrovascular Disorders"},{"id":"D000001927","term":"Brain Diseases"},{"id":"D000002493","term":"Central Nervous System Diseases"},{"id":"D000009422","term":"Nervous System Diseases"},{"id":"D000014652","term":"Vascular Diseases"},{"id":"D000002318","term":"Cardiovascular Diseases"},{"id":"D000007511","term":"Ischemia"},{"id":"D000010335","term":"Pathologic Processes"},{"id":"D000009336","term":"Necrosis"},{"id":"D000017202","term":"Myocardial Ischemia"},{"id":"D000006331","term":"Heart Diseases"},{"id":"D000001161","term":"Arteriosclerosis"},{"id":"D000001157","term":"Arterial Occlusive Diseases"},{"id":"D000020520","term":"Brain Infarction"},{"id":"D000002545","term":"Brain Ischemia"},{"id":"D000002340","term":"Carotid Artery Diseases"}],"browseLeaves":[{"id":"M21996","name":"Stroke","relevance":"LOW"},{"id":"M10233","name":"Ischemia","relevance":"LOW"},{"id":"M5485","name":"Ischemic Attack, Transient","relevance":"LOW"},{"id":"M11845","name":"Myocardial Infarction","asFound":"Myocardial Infarction","relevance":"HIGH"},{"id":"M9972","name":"Infarction","asFound":"Infarction","relevance":"HIGH"},{"id":"M5483","name":"Cerebral Infarction","asFound":"Cerebral Infarction","relevance":"HIGH"},{"id":"M25878","name":"Atherosclerosis","asFound":"Atherosclerosis","relevance":"HIGH"},{"id":"M6165","name":"Constriction, Pathologic","relevance":"LOW"},{"id":"M18928","name":"Carotid Stenosis","asFound":"Carotid Stenosis","relevance":"HIGH"},{"id":"M5500","name":"Cerebrovascular Disorders","relevance":"LOW"},{"id":"M4894","name":"Brain Diseases","relevance":"LOW"},{"id":"M5432","name":"Central Nervous System Diseases","relevance":"LOW"},{"id":"M17090","name":"Vascular Diseases","relevance":"LOW"},{"id":"M11974","name":"Necrosis","relevance":"LOW"},{"id":"M6236","name":"Coronary Artery Disease","relevance":"LOW"},{"id":"M19196","name":"Myocardial Ischemia","relevance":"LOW"},{"id":"M9109","name":"Heart Diseases","relevance":"LOW"},{"id":"M4159","name":"Arteriosclerosis","relevance":"LOW"},{"id":"M4155","name":"Arterial Occlusive Diseases","relevance":"LOW"},{"id":"M21995","name":"Brain Infarction","relevance":"LOW"},{"id":"M5484","name":"Brain Ischemia","relevance":"LOW"},{"id":"M5284","name":"Carotid Artery Diseases","relevance":"LOW"}],"browseBranches":[{"abbrev":"BC10","name":"Nervous System Diseases"},{"abbrev":"BC14","name":"Heart and Blood Diseases"},{"abbrev":"All","name":"All Conditions"},{"abbrev":"BC23","name":"Symptoms and General Pathology"}]}},"hasResults":true}