{"protocolSection":{"identificationModule":{"nctId":"NCT00210431","orgStudyIdInfo":{"id":"Y-47-52120-093"},"organization":{"fullName":"Ipsen","class":"INDUSTRY"},"briefTitle":"Post Marketing Surveillance Study of Dysport","officialTitle":"A Post Marketing Surveillance Study of Dysport Formulated With a Batch of Bulk Active Substance From a New Primary Manufacturing Facility at the Centre for Applied Microbiology & Research (CAMR)"},"statusModule":{"statusVerifiedDate":"2020-03","overallStatus":"COMPLETED","expandedAccessInfo":{"hasExpandedAccess":false},"startDateStruct":{"date":"2004-10"},"completionDateStruct":{"date":"2006-06","type":"ACTUAL"},"studyFirstSubmitDate":"2005-09-13","studyFirstSubmitQcDate":"2005-09-13","studyFirstPostDateStruct":{"date":"2005-09-21","type":"ESTIMATED"},"lastUpdateSubmitDate":"2020-03-30","lastUpdatePostDateStruct":{"date":"2020-03-31","type":"ACTUAL"}},"sponsorCollaboratorsModule":{"leadSponsor":{"name":"Ipsen","class":"INDUSTRY"}},"descriptionModule":{"briefSummary":"The purpose of this study is to provide further information regarding the risks and benefits of Dysport in marketed indications."},"conditionsModule":{"conditions":["Blepharospasm","Hemifacial Spasm","Cervical Dystonia","Spasmodic Torticollis","Cerebral Palsy","Muscle Spasticity","Cerebrovascular Accident","Equinus Deformity","Facial Hyperdynamic Lines"]},"designModule":{"studyType":"OBSERVATIONAL","designInfo":{"observationalModel":"OTHER","timePerspective":"PROSPECTIVE"},"enrollmentInfo":{"count":783,"type":"ACTUAL"}},"outcomesModule":{"primaryOutcomes":[{"measure":"- assessment of efficacy as assessed by treating physician at scheduled follow up visit"},{"measure":"- data on adverse events since treatment with Dysport"}]},"eligibilityModule":{"eligibilityCriteria":"Inclusion Criteria:\n\n* adult or child over the age of 2 years\n* scheduled to receive Dysport as per their normal treatment practice, and in conformance with their country's Summary of Product Characteristics\n\nExclusion Criteria:\n\n* history of hypersensitivity to Dysport or drugs with a similar chemical structure\n* treatment with any other investigational drug within the last 30 days before survey entry","healthyVolunteers":false,"sex":"ALL","minimumAge":"2 Years","stdAges":["CHILD","ADULT","OLDER_ADULT"]},"contactsLocationsModule":{"overallOfficials":[{"name":"Ipsen Medical Director","affiliation":"Ipsen","role":"STUDY_DIRECTOR"}],"locations":[{"facility":"Centre Hospitalier Saint Esprit","city":"Agen","zip":"47923","country":"France","geoPoint":{"lat":44.2,"lon":0.63333}},{"facility":"Center Hospitalier du Pays d'Aix","city":"Aix en Provence","zip":"13616","country":"France","geoPoint":{"lat":43.5283,"lon":5.44973}},{"facility":"Centre Hospitalier","city":"Chambery","zip":"73011","country":"France","geoPoint":{"lat":45.56667,"lon":5.93333}},{"facility":"Hopital Timone Adultes","city":"Marseille","zip":"13385","country":"France","geoPoint":{"lat":43.29551,"lon":5.38958}},{"facility":"Hopital Central","city":"Nancy","zip":"54035","country":"France","geoPoint":{"lat":48.68439,"lon":6.18496}},{"facility":"Hopital Hotel Dieu","city":"Nantes","zip":"44093","country":"France","geoPoint":{"lat":47.21725,"lon":-1.55336}},{"facility":"Hopital Pasteur","city":"Nice","zip":"06002","country":"France","geoPoint":{"lat":43.70313,"lon":7.26608}},{"facility":"Hopital Caremeau","city":"Nimes","zip":"30029","country":"France","geoPoint":{"lat":43.83333,"lon":4.35}},{"facility":"Hopital Saint Antione","city":"Paris","zip":"75571","country":"France","geoPoint":{"lat":48.85341,"lon":2.3488}},{"facility":"Centre Hospitalier Pitie Salpetriere","city":"Paris","zip":"75651","country":"France","geoPoint":{"lat":48.85341,"lon":2.3488}},{"facility":"Hopital Sainte Anne","city":"Paris","zip":"75674","country":"France","geoPoint":{"lat":48.85341,"lon":2.3488}},{"facility":"Centre Hospitalier Lyon Sud","city":"Pierre Benite","zip":"69495","country":"France","geoPoint":{"lat":45.7009,"lon":4.82511}},{"facility":"CHU Charles Nicolle","city":"Rouen","zip":"76031","country":"France","geoPoint":{"lat":49.44313,"lon":1.09932}},{"facility":"Hopital Bellevue","city":"Saint-Etienne","zip":"42055","country":"France","geoPoint":{"lat":45.43389,"lon":4.39}},{"facility":"Hopital Civil","city":"Strasbourg","zip":"67091","country":"France","geoPoint":{"lat":48.58392,"lon":7.74553}},{"facility":"Hopital Purpan","city":"Toulouse","zip":"31059","country":"France","geoPoint":{"lat":43.60426,"lon":1.44367}},{"facility":"Hopital Rangueil","city":"Toulouse","zip":"31059","country":"France","geoPoint":{"lat":43.60426,"lon":1.44367}},{"facility":"Praxis für Neurologie","city":"Berlin","zip":"10178","country":"Germany","geoPoint":{"lat":52.52437,"lon":13.41053}},{"facility":"Rhein. F.-Wilhelms-Universität","city":"Bonn","zip":"53127","country":"Germany","geoPoint":{"lat":50.73438,"lon":7.09549}},{"facility":"Praxis für Neurologie","city":"Gießen","zip":"35390","country":"Germany","geoPoint":{"lat":50.58727,"lon":8.67554}},{"facility":"Städt. Krankenhaus Martha-Maria","city":"Halle-Dölau","zip":"6120","country":"Germany"},{"facility":"Neurologische Praxis","city":"Hamburg","zip":"20249","country":"Germany","geoPoint":{"lat":53.57532,"lon":10.01534}},{"facility":"Med. Hochschule","city":"Hannover","zip":"30625","country":"Germany","geoPoint":{"lat":52.37052,"lon":9.73322}},{"facility":"Bürgerhospital","city":"Stuttgart","zip":"70191","country":"Germany","geoPoint":{"lat":48.78232,"lon":9.17702}},{"facility":"E.-Karls-Universität","city":"Tübingen","zip":"72076","country":"Germany","geoPoint":{"lat":48.52266,"lon":9.05222}},{"facility":"Klinikum der Stadt Villingen-Schwenningen","city":"Villingen-Schwenningen","zip":"78054","country":"Germany","geoPoint":{"lat":48.06226,"lon":8.49358}},{"facility":"Alma-Ata State Institute of Postgraduate Education","city":"Alma-Ata","state":"Kazakhstan","zip":"480070","country":"Russian Federation","geoPoint":{"lat":54.6443,"lon":53.1445}},{"facility":"Rehabilitation Centre \"Balbulak\"","city":"Alma-ata","state":"Kazakhstan","country":"Russian Federation","geoPoint":{"lat":54.6443,"lon":53.1445}},{"facility":"Centre of plastic surgery \"Reconstruction and Recreation\"","city":"Moscow","zip":"115522","country":"Russian Federation","geoPoint":{"lat":55.75222,"lon":37.61556}},{"facility":"Institute of Medical Aestetic \"Vallex-M\"","city":"Moscow","zip":"117393","country":"Russian Federation","geoPoint":{"lat":55.75222,"lon":37.61556}},{"facility":"Moscow Medical Academy","city":"Moscow","zip":"119021","country":"Russian Federation","geoPoint":{"lat":55.75222,"lon":37.61556}},{"facility":"Scientific Research Institute of Neurology","city":"Moscow","zip":"123367","country":"Russian Federation","geoPoint":{"lat":55.75222,"lon":37.61556}},{"facility":"Cosmetological Centre \"Diamond\"","city":"Moscow","zip":"125367","country":"Russian Federation","geoPoint":{"lat":55.75222,"lon":37.61556}},{"facility":"National Medical Centre of Surgery","city":"Moscow","zip":"125367","country":"Russian Federation","geoPoint":{"lat":55.75222,"lon":37.61556}},{"facility":"Federal Centre \"Pediatric Rehabilitology\"","city":"Moscow","zip":"142031","country":"Russian Federation","geoPoint":{"lat":55.75222,"lon":37.61556}},{"facility":"Centre for Aesthetic Dermatology and Surgery of Russian Academy of Sciences","city":"Moscow","country":"Russian Federation","geoPoint":{"lat":55.75222,"lon":37.61556}}]}},"derivedSection":{"miscInfoModule":{"versionHolder":"2024-02-14"},"conditionBrowseModule":{"meshes":[{"id":"D000009128","term":"Muscle Spasticity"},{"id":"D000004863","term":"Equinus Deformity"},{"id":"D000070558","term":"Talipes"},{"id":"D000003025","term":"Clubfoot"},{"id":"D000019569","term":"Hemifacial Spasm"},{"id":"D000002547","term":"Cerebral Palsy"},{"id":"D000004421","term":"Dystonia"},{"id":"D000020521","term":"Stroke"},{"id":"D000001764","term":"Blepharospasm"},{"id":"D000014103","term":"Torticollis"}],"ancestors":[{"id":"D000001925","term":"Brain Damage, Chronic"},{"id":"D000001927","term":"Brain Diseases"},{"id":"D000002493","term":"Central Nervous System Diseases"},{"id":"D000009422","term":"Nervous System Diseases"},{"id":"D000009135","term":"Muscular Diseases"},{"id":"D000009140","term":"Musculoskeletal Diseases"},{"id":"D000009122","term":"Muscle Hypertonia"},{"id":"D000020879","term":"Neuromuscular Manifestations"},{"id":"D000009461","term":"Neurologic Manifestations"},{"id":"D000000013","term":"Congenital Abnormalities"},{"id":"D000020820","term":"Dyskinesias"},{"id":"D000002561","term":"Cerebrovascular Disorders"},{"id":"D000014652","term":"Vascular Diseases"},{"id":"D000002318","term":"Cardiovascular Diseases"},{"id":"D000005141","term":"Eyelid Diseases"},{"id":"D000005128","term":"Eye Diseases"},{"id":"D000009059","term":"Mouth Diseases"},{"id":"D000009057","term":"Stomatognathic Diseases"},{"id":"D000013035","term":"Spasm"},{"id":"D000005531","term":"Foot Deformities, Acquired"},{"id":"D000005530","term":"Foot Deformities"},{"id":"D000005532","term":"Foot Deformities, Congenital"},{"id":"D000038061","term":"Lower Extremity Deformities, Congenital"},{"id":"D000017880","term":"Limb Deformities, Congenital"},{"id":"D000009139","term":"Musculoskeletal Abnormalities"}],"browseLeaves":[{"id":"M21996","name":"Stroke","asFound":"Cerebrovascular Accident","relevance":"HIGH"},{"id":"M12847","name":"Paralysis","relevance":"LOW"},{"id":"M5486","name":"Cerebral Palsy","asFound":"Cerebral Palsy","relevance":"HIGH"},{"id":"M12","name":"Congenital Abnormalities","relevance":"LOW"},{"id":"M7285","name":"Dystonia","asFound":"Dystonia","relevance":"HIGH"},{"id":"M11775","name":"Muscle Spasticity","asFound":"Muscle Spasticity","relevance":"HIGH"},{"id":"M11767","name":"Muscle Cramp","relevance":"LOW"},{"id":"M15527","name":"Spasm","relevance":"LOW"},{"id":"M20779","name":"Facies","relevance":"LOW"},{"id":"M16548","name":"Torticollis","asFound":"Torticollis","relevance":"HIGH"},{"id":"M21195","name":"Hemifacial Spasm","asFound":"Hemifacial Spasm","relevance":"HIGH"},{"id":"M4735","name":"Blepharospasm","asFound":"Blepharospasm","relevance":"HIGH"},{"id":"M5945","name":"Clubfoot","asFound":"Equinus Deformity","relevance":"HIGH"},{"id":"M586","name":"Talipes","asFound":"Equinus Deformity","relevance":"HIGH"},{"id":"M7707","name":"Equinus Deformity","asFound":"Equinus Deformity","relevance":"HIGH"},{"id":"M22265","name":"Dystonic Disorders","relevance":"LOW"},{"id":"M4897","name":"Brain Injuries","relevance":"LOW"},{"id":"M4892","name":"Brain Damage, Chronic","relevance":"LOW"},{"id":"M4894","name":"Brain Diseases","relevance":"LOW"},{"id":"M5432","name":"Central Nervous System Diseases","relevance":"LOW"},{"id":"M11782","name":"Muscular Diseases","relevance":"LOW"},{"id":"M11787","name":"Musculoskeletal Diseases","relevance":"LOW"},{"id":"M11769","name":"Muscle Hypertonia","relevance":"LOW"},{"id":"M22309","name":"Neuromuscular Manifestations","relevance":"LOW"},{"id":"M12094","name":"Neurologic Manifestations","relevance":"LOW"},{"id":"M22264","name":"Dyskinesias","relevance":"LOW"},{"id":"M5500","name":"Cerebrovascular Disorders","relevance":"LOW"},{"id":"M17090","name":"Vascular Diseases","relevance":"LOW"},{"id":"M7974","name":"Eyelid Diseases","relevance":"LOW"},{"id":"M7961","name":"Eye Diseases","relevance":"LOW"},{"id":"M11709","name":"Mouth Diseases","relevance":"LOW"},{"id":"M11707","name":"Stomatognathic Diseases","relevance":"LOW"},{"id":"M8344","name":"Foot Deformities","relevance":"LOW"},{"id":"M8346","name":"Foot Deformities, Congenital","relevance":"LOW"},{"id":"M8345","name":"Foot Deformities, Acquired","relevance":"LOW"},{"id":"M24408","name":"Lower Extremity Deformities, Congenital","relevance":"LOW"},{"id":"M19752","name":"Limb Deformities, Congenital","relevance":"LOW"},{"id":"M11786","name":"Musculoskeletal Abnormalities","relevance":"LOW"},{"id":"T713","name":"Benign Essential Blepharospasm","relevance":"LOW"},{"id":"T1072","name":"Cervical Dystonia","asFound":"Cervical Dystonia","relevance":"HIGH"},{"id":"T1303","name":"Chronic Graft Versus Host Disease","relevance":"LOW"}],"browseBranches":[{"abbrev":"BC10","name":"Nervous System Diseases"},{"abbrev":"BC14","name":"Heart and Blood Diseases"},{"abbrev":"All","name":"All Conditions"},{"abbrev":"BC23","name":"Symptoms and General Pathology"},{"abbrev":"BC16","name":"Diseases and Abnormalities at or Before Birth"},{"abbrev":"BC05","name":"Musculoskeletal Diseases"},{"abbrev":"BC07","name":"Mouth and Tooth Diseases"},{"abbrev":"BC11","name":"Eye Diseases"},{"abbrev":"BC26","name":"Wounds and Injuries"},{"abbrev":"Rare","name":"Rare Diseases"}]},"interventionBrowseModule":{"browseLeaves":[{"id":"M250157","name":"abobotulinumtoxinA","relevance":"LOW"},{"id":"M20947","name":"Botulinum Toxins, Type A","relevance":"LOW"}],"browseBranches":[{"abbrev":"All","name":"All Drugs and Chemicals"}]}},"hasResults":false}