{"protocolSection":{"identificationModule":{"nctId":"NCT02430350","orgStudyIdInfo":{"id":"SIM-23-02"},"organization":{"fullName":"Jiangsu Simcere Pharmaceutical Co., Ltd.","class":"INDUSTRY"},"briefTitle":"Study of Compound Edaravone Injection for Treatment of Acute Ischemic Stroke","officialTitle":"Compound Edaravone Injection for Acute Ischemic Stroke, a Multi-center, Randomized, Double-blind, Parallel, and Active-controlled PhaseⅢTrial"},"statusModule":{"statusVerifiedDate":"2017-01","overallStatus":"COMPLETED","expandedAccessInfo":{"hasExpandedAccess":false},"startDateStruct":{"date":"2015-05"},"primaryCompletionDateStruct":{"date":"2016-12","type":"ACTUAL"},"completionDateStruct":{"date":"2016-12","type":"ACTUAL"},"studyFirstSubmitDate":"2015-04-20","studyFirstSubmitQcDate":"2015-04-26","studyFirstPostDateStruct":{"date":"2015-04-30","type":"ESTIMATED"},"lastUpdateSubmitDate":"2017-01-12","lastUpdatePostDateStruct":{"date":"2017-01-16","type":"ESTIMATED"}},"sponsorCollaboratorsModule":{"responsibleParty":{"type":"SPONSOR"},"leadSponsor":{"name":"Jiangsu Simcere Pharmaceutical Co., Ltd.","class":"INDUSTRY"}},"oversightModule":{"oversightHasDmc":true},"descriptionModule":{"briefSummary":"The primary objective of the study is to confirm the efficacy of compound Edaravone Injection via intravenous infusion every 12 hours in the patients with Acute Ischemic Stroke(AIS) in a double-blind, active-controlled manner. The study is also to examine the safety of compound Edaravone Injection for the AIS patients."},"conditionsModule":{"conditions":["Acute Ischemic Stroke"]},"designModule":{"studyType":"INTERVENTIONAL","phases":["PHASE3"],"designInfo":{"allocation":"RANDOMIZED","interventionModel":"PARALLEL","primaryPurpose":"TREATMENT","maskingInfo":{"masking":"QUADRUPLE","whoMasked":["PARTICIPANT","CARE_PROVIDER","INVESTIGATOR","OUTCOMES_ASSESSOR"]}},"enrollmentInfo":{"count":1200,"type":"ACTUAL"}},"armsInterventionsModule":{"armGroups":[{"label":"Compound Edaravone","type":"EXPERIMENTAL","description":"Compound Edaravone Injection 37.5mg/dose (Edaravone 30mg, (+)-Borneol 7.5mg), one dose every 12 hours, continue for 14 days","interventionNames":["Drug: Compound Edaravone Injection"]},{"label":"Edaravone","type":"ACTIVE_COMPARATOR","description":"Edaravone Injection 30 mg/dose, one dose every 12 hours, continues for 14 days","interventionNames":["Drug: Edaravone Injection"]}],"interventions":[{"type":"DRUG","name":"Compound Edaravone Injection","armGroupLabels":["Compound Edaravone"]},{"type":"DRUG","name":"Edaravone Injection","armGroupLabels":["Edaravone"]}]},"outcomesModule":{"primaryOutcomes":[{"measure":"The proportion of patients with mRS ≤1 on day 90","timeFrame":"day 90"}],"secondaryOutcomes":[{"measure":"mRS score on day 90","timeFrame":"day 90"},{"measure":"Changes of NIHSS score from baseline on day 14","timeFrame":"day 14"},{"measure":"The proportion of patients with NIHSS score 0-1 (including motor function) on day 14, 30, 90","timeFrame":"day 14, 30, 90"},{"measure":"The proportion of patients with Barthel Index (BI) score greater than or equal to 95 on day 14, 30, 90","timeFrame":"day 14, 30, 90"},{"measure":"Montreal Cognitive Assessment(MoCA) score on day 14, 30, 90","timeFrame":"day 14, 30, 90"},{"measure":"Stroke Impact Scale (SIS) score on day 90","timeFrame":"day 90"}]},"eligibilityModule":{"eligibilityCriteria":"Inclusion Criteria:\n\n* Hospitalized patients, diagnosed of ischemic stroke;\n* Onset of stroke is less than or equal to 48 hours;\n* There are clear signs of neurological deficit: 4≤NIHSS score≤24, and also, the sum of NIHSS score for the upper limb and the lower limb is greater than or equal to 2;\n* Patients signed written inform consent\n\nExclusion Criteria:\n\n* Cranial CT scan finds intracranial bleeding disorders: hemorrhagic stroke, epidural hematoma, intracranial hematoma, intraventricular hemorrhage, subarachnoid hemorrhage;\n* Iatrogenic stroke;\n* Severe disturbance of consciousness: NIHSS category 1a for consciousness is greater than 1；\n* The mRS score prior to this onset is greater than 1;\n* Transient ischemic attack (TIA);\n* SBP after blood pressure control is still greater than or equal to 220 mmHg, or DBP after blood pressure control is still greater than or equal to 120 mmHg;\n* Patients with severe mental disorders and dementia;\n* ALT or AST is greater than 2.0×ULN or previously known liver diseases, such as acute hepatitis, chronic active hepatitis, liver cirrhosis;\n* Serum Creatinine (SCr) is greater than 1.5×ULN, Creatinine Clearance (CrCl) is less than 50 ml/min or previously known severe renal diseases;\n* Therapeutic neuroprotective agents have been applied after onset of stroke, including commercially available edaravone, nimodipine, ganglioside, citicoline, piracetam, butyl benzene peptides, Urinary Kallidinogenase;\n* Arterial or venous thrombolytic therapy has been applied after onset of stroke;\n* Patients with malignant tumors or receiving concurrent antitumor treatment;\n* Patients with severe systemic disease, life expectancy is less than 90 days;\n* allergic to edaravone , (+)-Borneol or related excipients;\n* Pregnant or lactating women;\n* Have major surgery within 4 weeks before enrollment;\n* Participated in other clinical studies within 30 days before randomization; or participating in other clinical trials at present;\n* The investigators consider the patients are not suitable for this trial.","healthyVolunteers":false,"sex":"ALL","minimumAge":"35 Years","maximumAge":"80 Years","stdAges":["ADULT","OLDER_ADULT"]},"contactsLocationsModule":{"overallOfficials":[{"name":"Yongjun Wang, MD","affiliation":"Beijing Tiantan Hospital","role":"PRINCIPAL_INVESTIGATOR"}],"locations":[{"facility":"China-Japan Friendship Hospital","city":"Beijing","state":"Beijing","zip":"100029","country":"China","geoPoint":{"lat":39.9075,"lon":116.39723}},{"facility":"Navy General Hospital of The Chinese PLA","city":"Beijing","state":"Beijing","zip":"100048","country":"China","geoPoint":{"lat":39.9075,"lon":116.39723}},{"facility":"Beijing Tian Tan Hospital, Capital Medical University","city":"Beijing","state":"Beijing","zip":"100050","country":"China","geoPoint":{"lat":39.9075,"lon":116.39723}},{"facility":"The First Affiliated Hospital of Fujian Medical University","city":"Fuzhou","state":"Fujian","zip":"350005","country":"China","geoPoint":{"lat":26.06139,"lon":119.30611}},{"facility":"Nanfang Hospital of Southern Medical University","city":"Guangzhou","state":"Guangdong","zip":"510515","country":"China","geoPoint":{"lat":23.11667,"lon":113.25}},{"facility":"The First Affiliated Hospital of Jinan University","city":"Guangzhou","state":"Guangdong","zip":"510630","country":"China","geoPoint":{"lat":23.11667,"lon":113.25}},{"facility":"Shenzhen People's Hospital","city":"Shenzhen","state":"Guangdong","zip":"518020","country":"China","geoPoint":{"lat":22.54554,"lon":114.0683}},{"facility":"Peking University Shenzhen Hospital","city":"Shenzhen","state":"Guangdong","zip":"518036","country":"China","geoPoint":{"lat":22.54554,"lon":114.0683}},{"facility":"Affiliated Hospital of Guilin Medical University","city":"Guilin","state":"Guangxi","zip":"541001","country":"China","geoPoint":{"lat":25.28194,"lon":110.28639}},{"facility":"Liuzhou Worker's Hospital","city":"Liuzhou","state":"Guangxi","zip":"545005","country":"China"},{"facility":"Nanning Second People's Hospital","city":"Nanning","state":"Guangxi","zip":"530031","country":"China","geoPoint":{"lat":22.81667,"lon":108.31667}},{"facility":"The Affiliated Hospital of Guizhou Medical University","city":"Guiyang","state":"Guizhou","zip":"550004","country":"China","geoPoint":{"lat":26.58333,"lon":106.71667}},{"facility":"Cangzhou Central Hospital","city":"Cangzhou","state":"Hebei","zip":"061000","country":"China","geoPoint":{"lat":38.31667,"lon":116.86667}},{"facility":"The Second Affiliated Hospital of Haerbin Medical University","city":"Haerbin","state":"Heilongjiang","zip":"150001","country":"China","geoPoint":{"lat":31.8696,"lon":101.742}},{"facility":"The First Affiliated Hospital of Zhengzhou University","city":"Zhengzhou","state":"Henan","zip":"450052","country":"China","geoPoint":{"lat":34.75778,"lon":113.64861}},{"facility":"Hunan Provincial People's Hospital","city":"Changsha","state":"Hunan","zip":"410005","country":"China","geoPoint":{"lat":28.19874,"lon":112.97087}},{"facility":"The First Affiliated Hospital of University of South China","city":"Hengyang","state":"Hunan","zip":"421001","country":"China","geoPoint":{"lat":26.88946,"lon":112.61888}},{"facility":"The First Affiliated Hospital of Baotou Medical College","city":"Baotou","state":"Inner Mongolia","zip":"014010","country":"China","geoPoint":{"lat":40.65222,"lon":109.82222}},{"facility":"The Third Affiliated Hospital of Inner Mongolia Medical University","city":"Baotou","state":"Inner Mongolia","zip":"014010","country":"China","geoPoint":{"lat":40.65222,"lon":109.82222}},{"facility":"Central Hospital of Baotou","city":"Baotou","state":"Inner Mongolia","zip":"014040","country":"China","geoPoint":{"lat":40.65222,"lon":109.82222}},{"facility":"Inner Mongolia Autonomous Region People's Hospital","city":"Hohhot","state":"Inner Mongolia","zip":"010017","country":"China","geoPoint":{"lat":40.81056,"lon":111.65222}},{"facility":"Affiliated Hospital of Inner Mongolia Medical University","city":"Hohhot","state":"Inner Mongolia","zip":"010050","country":"China","geoPoint":{"lat":40.81056,"lon":111.65222}},{"facility":"Huai'an First Affiliated Hospital of Nanjing Medical University","city":"Huai'an","state":"Jiangsu","zip":"223300","country":"China","geoPoint":{"lat":33.50389,"lon":119.14417}},{"facility":"Lianyungang First People's Hospital","city":"Lianyungang","state":"Jiangsu","zip":"222002","country":"China","geoPoint":{"lat":34.59845,"lon":119.21556}},{"facility":"Nanjing First Hospital","city":"Nanjing","state":"Jiangsu","zip":"210006","country":"China","geoPoint":{"lat":32.06167,"lon":118.77778}},{"facility":"Zhongda Hospital,Southeast University","city":"Nanjing","state":"Jiangsu","zip":"210009","country":"China","geoPoint":{"lat":32.06167,"lon":118.77778}},{"facility":"The Second Affiliated Hospital of Nanjing Medical University","city":"Nanjing","state":"Jiangsu","zip":"210011","country":"China","geoPoint":{"lat":32.06167,"lon":118.77778}},{"facility":"Nanjing Brain Hospital","city":"Nanjing","state":"Jiangsu","zip":"210029","country":"China","geoPoint":{"lat":32.06167,"lon":118.77778}},{"facility":"The Affiliated Hospital of Xuzhou Medical College","city":"Xuzhou","state":"Jiangsu","zip":"221006","country":"China","geoPoint":{"lat":34.18045,"lon":117.15707}},{"facility":"Northern Jiangsu People's Hospital","city":"Yangzhou","state":"Jiangsu","zip":"225001","country":"China","geoPoint":{"lat":32.39722,"lon":119.43583}},{"facility":"Yangzhou No.1 People's Hospital","city":"Yangzhou","state":"Jiangsu","zip":"225001","country":"China","geoPoint":{"lat":32.39722,"lon":119.43583}},{"facility":"The Second Hospital of Jilin University","city":"Changchun","state":"Jilin","zip":"130041","country":"China","geoPoint":{"lat":43.88,"lon":125.32278}},{"facility":"The Forth Hospital of Jilin University","city":"Siping","state":"Jilin","zip":"130011","country":"China","geoPoint":{"lat":43.16143,"lon":124.37785}},{"facility":"Siping Central Hospital","city":"Siping","state":"Jilin","zip":"136000","country":"China","geoPoint":{"lat":43.16143,"lon":124.37785}},{"facility":"The General Hospital of Shenyang Military, Chinese PLA","city":"Shenyang","state":"Liaoning","zip":"110016","country":"China","geoPoint":{"lat":41.79222,"lon":123.43278}},{"facility":"The Sceond Hospital of Shandong University","city":"Jinan","state":"Shandong","zip":"250033","country":"China","geoPoint":{"lat":36.66833,"lon":116.99722}},{"facility":"Liaocheng People's Hospital","city":"Liaocheng","state":"Shandong","zip":"252000","country":"China","geoPoint":{"lat":36.45596,"lon":115.97766}},{"facility":"Qingdao Municipal Hospital","city":"Qingdao","state":"Shandong","zip":"266011","country":"China","geoPoint":{"lat":36.06488,"lon":120.38042}},{"facility":"Shanghai Changzheng Hospital","city":"Shanghai","state":"Shanghai","zip":"200003","country":"China","geoPoint":{"lat":31.22222,"lon":121.45806}},{"facility":"Yangpu Hospital, Tongji University","city":"Shanghai","state":"Shanghai","zip":"200090","country":"China","geoPoint":{"lat":31.22222,"lon":121.45806}},{"facility":"The Second Affiliated Hospital of Shanxi Medical University","city":"Taiyuan","state":"Shanxi","zip":"030001","country":"China","geoPoint":{"lat":37.86944,"lon":112.56028}},{"facility":"West China Hospital, Sichuan University","city":"Chengdu","state":"Sichuan","zip":"610041","country":"China","geoPoint":{"lat":30.66667,"lon":104.06667}},{"facility":"Tianjin People's Hospital","city":"Tianjin","state":"Tianjin","zip":"300000","country":"China","geoPoint":{"lat":39.14222,"lon":117.17667}},{"facility":"Tianjin Medical University General Hospital","city":"Tianjin","state":"Tianjin","zip":"300052","country":"China","geoPoint":{"lat":39.14222,"lon":117.17667}},{"facility":"Tianjin Huanhu Hospital","city":"Tianjin","state":"Tianjin","zip":"300060","country":"China","geoPoint":{"lat":39.14222,"lon":117.17667}},{"facility":"The Second Hospital of Tianjin Medical University","city":"Tianjin","state":"Tianjin","zip":"300211","country":"China","geoPoint":{"lat":39.14222,"lon":117.17667}},{"facility":"Lishui People's Hospital","city":"Lishui","state":"Zhejiang","zip":"323000","country":"China","geoPoint":{"lat":28.46042,"lon":119.91029}},{"facility":"The First Affiliated Hospital of Wenzhou Medical University","city":"Wenzhou","state":"Zhejiang","zip":"325000","country":"China","geoPoint":{"lat":27.99942,"lon":120.66682}}]},"referencesModule":{"references":[{"pmid":"33588596","type":"DERIVED","citation":"Xu J, Wang A, Meng X, Yalkun G, Xu A, Gao Z, Chen H, Ji Y, Xu J, Geng D, Zhu R, Liu B, Dong A, Mu H, Lu Z, Li S, Zheng H, Chen X, Wang Y, Zhao X, Wang Y; TASTE Trial Investigatorsdagger. Edaravone Dexborneol Versus Edaravone Alone for the Treatment of Acute Ischemic Stroke: A Phase III, Randomized, Double-Blind, Comparative Trial. Stroke. 2021 Mar;52(3):772-780. doi: 10.1161/STROKEAHA.120.031197. Epub 2021 Feb 16."}]},"ipdSharingStatementModule":{"ipdSharing":"UNDECIDED"}},"derivedSection":{"miscInfoModule":{"versionHolder":"2024-02-14"},"conditionBrowseModule":{"meshes":[{"id":"D000020521","term":"Stroke"},{"id":"D000083242","term":"Ischemic Stroke"},{"id":"D000002544","term":"Cerebral Infarction"},{"id":"D000007511","term":"Ischemia"}],"ancestors":[{"id":"D000002561","term":"Cerebrovascular Disorders"},{"id":"D000001927","term":"Brain Diseases"},{"id":"D000002493","term":"Central Nervous System Diseases"},{"id":"D000009422","term":"Nervous System Diseases"},{"id":"D000014652","term":"Vascular Diseases"},{"id":"D000002318","term":"Cardiovascular Diseases"},{"id":"D000010335","term":"Pathologic Processes"},{"id":"D000020520","term":"Brain Infarction"},{"id":"D000002545","term":"Brain Ischemia"},{"id":"D000007238","term":"Infarction"},{"id":"D000009336","term":"Necrosis"}],"browseLeaves":[{"id":"M21996","name":"Stroke","asFound":"Stroke","relevance":"HIGH"},{"id":"M10233","name":"Ischemia","asFound":"Ischemic","relevance":"HIGH"},{"id":"M2401","name":"Ischemic Stroke","asFound":"Ischemic Stroke","relevance":"HIGH"},{"id":"M9972","name":"Infarction","relevance":"LOW"},{"id":"M5483","name":"Cerebral Infarction","asFound":"Ischemic Stroke","relevance":"HIGH"},{"id":"M5500","name":"Cerebrovascular Disorders","relevance":"LOW"},{"id":"M4894","name":"Brain Diseases","relevance":"LOW"},{"id":"M5432","name":"Central Nervous System Diseases","relevance":"LOW"},{"id":"M17090","name":"Vascular Diseases","relevance":"LOW"},{"id":"M21995","name":"Brain Infarction","relevance":"LOW"},{"id":"M5484","name":"Brain Ischemia","relevance":"LOW"},{"id":"M11974","name":"Necrosis","relevance":"LOW"},{"id":"T170","name":"Acute Graft Versus Host Disease","relevance":"LOW"}],"browseBranches":[{"abbrev":"BC10","name":"Nervous System Diseases"},{"abbrev":"BC14","name":"Heart and Blood Diseases"},{"abbrev":"All","name":"All Conditions"},{"abbrev":"BC23","name":"Symptoms and General Pathology"},{"abbrev":"Rare","name":"Rare Diseases"}]},"interventionBrowseModule":{"meshes":[{"id":"D000077553","term":"Edaravone"}],"ancestors":[{"id":"D000016166","term":"Free Radical Scavengers"},{"id":"D000000975","term":"Antioxidants"},{"id":"D000045504","term":"Molecular Mechanisms of Pharmacological Action"},{"id":"D000018696","term":"Neuroprotective Agents"},{"id":"D000020011","term":"Protective Agents"},{"id":"D000045505","term":"Physiological Effects of Drugs"}],"browseLeaves":[{"id":"M1831","name":"Edaravone","asFound":"Lay","relevance":"HIGH"},{"id":"M3982","name":"Antioxidants","relevance":"LOW"},{"id":"M20463","name":"Neuroprotective Agents","relevance":"LOW"},{"id":"M21559","name":"Protective Agents","relevance":"LOW"}],"browseBranches":[{"abbrev":"NeuroAg","name":"Neuroprotective Agents"},{"abbrev":"All","name":"All Drugs and Chemicals"}]}},"hasResults":false}