{"protocolSection":{"identificationModule":{"nctId":"NCT03907046","orgStudyIdInfo":{"id":"2000026409"},"secondaryIdInfos":[{"id":"1U01NS106513-01A1","type":"NIH","link":"https://reporter.nih.gov/quickSearch/1U01NS106513-01A1"}],"organization":{"fullName":"Yale University","class":"OTHER"},"briefTitle":"Anticoagulation in ICH Survivors for Stroke Prevention and Recovery","officialTitle":"Anticoagulation in Intracerebral Hemorrhage (ICH) Survivors for Stroke Prevention and Recovery","acronym":"ASPIRE"},"statusModule":{"statusVerifiedDate":"2023-10","overallStatus":"RECRUITING","expandedAccessInfo":{"hasExpandedAccess":false},"startDateStruct":{"date":"2020-01-28","type":"ACTUAL"},"primaryCompletionDateStruct":{"date":"2024-04","type":"ESTIMATED"},"completionDateStruct":{"date":"2024-04","type":"ESTIMATED"},"studyFirstSubmitDate":"2019-04-04","studyFirstSubmitQcDate":"2019-04-04","studyFirstPostDateStruct":{"date":"2019-04-08","type":"ACTUAL"},"lastUpdateSubmitDate":"2023-10-26","lastUpdatePostDateStruct":{"date":"2023-10-27","type":"ACTUAL"}},"sponsorCollaboratorsModule":{"responsibleParty":{"type":"SPONSOR"},"leadSponsor":{"name":"Yale University","class":"OTHER"},"collaborators":[{"name":"National Institute of Neurological Disorders and Stroke (NINDS)","class":"NIH"}]},"oversightModule":{"oversightHasDmc":true,"isFdaRegulatedDrug":true,"isFdaRegulatedDevice":false,"isUsExport":true},"descriptionModule":{"briefSummary":"Primary Aim: To determine if apixaban is superior to aspirin for prevention of the composite outcome of any stroke (hemorrhagic or ischemic) or death from any cause in patients with recent ICH and atrial fibrillation (AF).\n\nSecondary Aim: To determine if apixaban, compared with aspirin, results in better functional outcomes as measured by the modified Rankin Scale.","detailedDescription":"ASPIRE is a randomized, double-blinded, phase III clinical trial designed to test the efficacy and safety of anticoagulation, compared with aspirin, in patients with a recent ICH and non-valvular AF. Seven hundred patients will be enrolled over 3.5 years and followed for study outcomes for a minimum of 12 months and maximum of 36 months. The primary efficacy outcome is any stroke (hemorrhagic or ischemic) or death from any cause. The secondary efficacy outcome is the change in the modified Rankin Scale score. Recruitment will take place at sites coordinated through the NIH/NINDS StrokeNet."},"conditionsModule":{"conditions":["Intracerebral Hemorrhage","Atrial Fibrillation"]},"designModule":{"studyType":"INTERVENTIONAL","phases":["PHASE3"],"designInfo":{"allocation":"RANDOMIZED","interventionModel":"PARALLEL","primaryPurpose":"PREVENTION","maskingInfo":{"masking":"QUADRUPLE","whoMasked":["PARTICIPANT","CARE_PROVIDER","INVESTIGATOR","OUTCOMES_ASSESSOR"]}},"enrollmentInfo":{"count":700,"type":"ESTIMATED"}},"armsInterventionsModule":{"armGroups":[{"label":"Apixaban","type":"ACTIVE_COMPARATOR","description":"Apixaban dosing will be 5 mg tablet in morning and 5 mg tablet in evening. A reduced dose of 2.5 mg tablet in morning and 2.5 mg tablet in evening will be used if: (1) ≥2 of the following are present: age ≥80 years, body weight ≤60 kg, or serum creatinine 1.5-2.4 mg/dL, or (2) Patient is taking a strong CYP3A4/pGP inhibitor (e.g., ketoconazole, itraconazole, ritonavir, or clarithromycin).","interventionNames":["Drug: Apixaban"]},{"label":"Aspirin","type":"PLACEBO_COMPARATOR","description":"Aspirin dose will be 81 mg tablet once daily.","interventionNames":["Drug: Aspirin"]}],"interventions":[{"type":"DRUG","name":"Apixaban","description":"Apixaban is an oral anticoagulant of the Factor Xa inhibitor class.","armGroupLabels":["Apixaban"],"otherNames":["Eliquis"]},{"type":"DRUG","name":"Aspirin","description":"Aspirin is an oral antiplatelet drug.","armGroupLabels":["Aspirin"]}]},"outcomesModule":{"primaryOutcomes":[{"measure":"Stroke or death","description":"Incidence of stroke of any type (ischemic or hemorrhagic) or death from any cause","timeFrame":"Up to 3 years"}],"secondaryOutcomes":[{"measure":"Modified Rankin Scale (mRS) score","description":"Measure of neurologic disability (0=no disability to 6=dead)","timeFrame":"Change from baseline to 12 months; change over duration of follow-up"}]},"eligibilityModule":{"eligibilityCriteria":"Inclusion Criteria:\n\n* Age at least 18 years\n* Intracerebral hemorrhage (ICH) (including primary intraventricular hemorrhage) confirmed by brain CT or MRI\n* Can be randomized within 14-180 days after ICH onset\n* Non-valvular AF (defined as atrial fibrillation or atrial flutter), documented by electrocardiography or a physician-confirmed history of prior AF\n* Provision of signed and dated informed consent form by patient or legally authorized representative\n* For females of reproductive potential: use of highly effective contraception\n\nExclusion Criteria:\n\n* Index event is hemorrhagic transformation of a brain infarction or hemorrhage into a tumor\n* History of earlier ICH within 12 months preceding index event\n* Active infective endocarditis\n* Clear indication for anticoagulant drugs (e.g., requires anticoagulation for deep vein thrombosis or pulmonary embolism) or antiplatelet drugs (e.g., requires aspirin or clopidogrel for recent coronary stent).\n* Previous or planned left atrial appendage closure\n* Clinically significant bleeding diathesis\n* Serum creatinine ≥2.5 mg/dL\n* Active hepatitis or hepatic insufficiency with Child-Pugh score B or C\n* Anemia (hemoglobin \\<8 g/dL) or thrombocytopenia (\\<100 x 10\\^9/L) that is chronic in the judgment of the investigator\n* Pregnant or breastfeeding\n* Known allergy to aspirin or apixaban\n* Concomitant participation in a competing trial\n* Considered by the investigator to have a condition that precludes safe or active participation in the trial\n* Persistent, uncontrolled systolic blood pressure (≥180 mm Hg)\n* ICH caused by an arteriovenous malformation (AVM) that has not yet been secured","healthyVolunteers":false,"sex":"ALL","minimumAge":"18 Years","stdAges":["ADULT","OLDER_ADULT"]},"contactsLocationsModule":{"centralContacts":[{"name":"Kevin N Sheth, MD","role":"CONTACT","phone":"443-615-4729","email":"kevin.sheth@yale.edu"},{"name":"Hooman Kamel, MD","role":"CONTACT","phone":"646-962-8284","email":"hok9010@med.cornell.edu"}],"overallOfficials":[{"name":"Kevin N Sheth, MD","affiliation":"Yale School of Medicine","role":"PRINCIPAL_INVESTIGATOR"},{"name":"Hooman Kamel, MD","affiliation":"Weill Medical College of Cornell University","role":"PRINCIPAL_INVESTIGATOR"}],"locations":[{"facility":"University of Alabama Hospital","status":"RECRUITING","city":"Birmingham","state":"Alabama","zip":"35294","country":"United States","contacts":[{"name":"Angela Shapshak, MD","role":"CONTACT"}],"geoPoint":{"lat":33.52066,"lon":-86.80249}},{"facility":"University of South Alabama University Hospital","status":"RECRUITING","city":"Mobile","state":"Alabama","zip":"36604","country":"United States","contacts":[{"name":"Taha Nisar, MD","role":"CONTACT"}],"geoPoint":{"lat":30.69436,"lon":-88.04305}},{"facility":"Chandler Regional Medical Center","status":"WITHDRAWN","city":"Chandler","state":"Arizona","zip":"85224","country":"United States","geoPoint":{"lat":33.30616,"lon":-111.84125}},{"facility":"Banner University Medical Center","status":"RECRUITING","city":"Tucson","state":"Arizona","zip":"85719","country":"United States","contacts":[{"name":"Firas Kaddouh, MD","role":"CONTACT"}],"geoPoint":{"lat":32.22174,"lon":-110.92648}},{"facility":"UAMS Medical Center","status":"RECRUITING","city":"Little Rock","state":"Arkansas","zip":"77205","country":"United States","contacts":[{"name":"Krishna Nalleballe, MD","role":"CONTACT"}],"geoPoint":{"lat":34.74648,"lon":-92.28959}},{"facility":"Mercy San Juan Medical Center","status":"RECRUITING","city":"Carmichael","state":"California","zip":"95608","country":"United States","contacts":[{"name":"Lucian Maidan","role":"CONTACT"}],"geoPoint":{"lat":38.61713,"lon":-121.32828}},{"facility":"Eden Medical Center, Castro Valley","status":"WITHDRAWN","city":"Castro Valley","state":"California","zip":"94546","country":"United States","geoPoint":{"lat":37.6941,"lon":-122.08635}},{"facility":"Arrowhead Regional Medical Center","status":"RECRUITING","city":"Colton","state":"California","zip":"92324","country":"United States","contacts":[{"name":"Dan Miulli, MD","role":"CONTACT"}],"geoPoint":{"lat":34.0739,"lon":-117.31365}},{"facility":"Rancho Los Amigos National Rehabilitation Center","status":"SUSPENDED","city":"Downey","state":"California","zip":"90242","country":"United States","geoPoint":{"lat":33.94001,"lon":-118.13257}},{"facility":"Kaiser Permanente Fontana Medical Center","status":"RECRUITING","city":"Fontana","state":"California","zip":"92335","country":"United States","contacts":[{"name":"Vaninder Chhabra","role":"CONTACT"}],"geoPoint":{"lat":34.09223,"lon":-117.43505}},{"facility":"Long Beach Memorial Medical Center","status":"RECRUITING","city":"Long Beach","state":"California","zip":"90806","country":"United States","contacts":[{"name":"Nima Ramezan-Arab, MD","role":"CONTACT"}],"geoPoint":{"lat":33.76696,"lon":-118.18923}},{"facility":"Los Alamitos Medical Center","status":"RECRUITING","city":"Los Alamitos","state":"California","zip":"90720","country":"United States","contacts":[{"name":"Nirav Patel, MD","role":"CONTACT"}],"geoPoint":{"lat":33.80307,"lon":-118.07256}},{"facility":"Kaiser Permanente Los Angeles Medical Center","status":"RECRUITING","city":"Los Angeles","state":"California","zip":"90027","country":"United States","contacts":[{"name":"Harsimran Brara, MD","role":"CONTACT"}],"geoPoint":{"lat":34.05223,"lon":-118.24368}},{"facility":"Cedars-Sinai Medical Center","status":"RECRUITING","city":"Los Angeles","state":"California","zip":"90048","country":"United States","contacts":[{"name":"Konrad Schlick, MD","role":"CONTACT"}],"geoPoint":{"lat":34.05223,"lon":-118.24368}},{"facility":"Ronald Reagan UCLA Medical Center","status":"RECRUITING","city":"Los Angeles","state":"California","zip":"90095","country":"United States","contacts":[{"name":"Latisha Sharma, MD","role":"CONTACT"}],"geoPoint":{"lat":34.05223,"lon":-118.24368}},{"facility":"Doctors Medical Center Modesto, Modesto, CA","status":"RECRUITING","city":"Modesto","state":"California","zip":"95350","country":"United States","contacts":[{"name":"James Jaffe, MD","role":"CONTACT"}],"geoPoint":{"lat":37.6391,"lon":-120.99688}},{"facility":"Hoag Hospital Newport Beach","status":"WITHDRAWN","city":"Newport Beach","state":"California","zip":"92663","country":"United States","geoPoint":{"lat":33.61891,"lon":-117.92895}},{"facility":"UC Irvine Medical Center","status":"RECRUITING","city":"Orange","state":"California","zip":"92868","country":"United States","contacts":[{"name":"Wengui Yu, MD","role":"CONTACT"}],"geoPoint":{"lat":33.78779,"lon":-117.85311}},{"facility":"Desert Regional Medical Center","status":"RECRUITING","city":"Palm Springs","state":"California","zip":"92262","country":"United States","contacts":[{"name":"Kevin Attenhofer, MD","role":"CONTACT"}],"geoPoint":{"lat":33.8303,"lon":-116.54529}},{"facility":"Huntington Memorial Hospital","status":"RECRUITING","city":"Pasadena","state":"California","zip":"91105","country":"United States","contacts":[{"name":"Arib Ohanian, MD","role":"CONTACT"}],"geoPoint":{"lat":34.14778,"lon":-118.14452}},{"facility":"Kaiser Permanente Redwood City Medical Center, Redwood City, CA","status":"RECRUITING","city":"Redwood City","state":"California","zip":"94063","country":"United States","contacts":[{"name":"Sheila Chan, MD","role":"CONTACT"}],"geoPoint":{"lat":37.48522,"lon":-122.23635}},{"facility":"UC Davis Medical Center","status":"RECRUITING","city":"Sacramento","state":"California","zip":"95817","country":"United States","contacts":[{"name":"Kwan Ng, MD","role":"CONTACT"}],"geoPoint":{"lat":38.58157,"lon":-121.4944}},{"facility":"Kaiser Permanente Sacramento Medical Center","status":"RECRUITING","city":"Sacramento","state":"California","zip":"95825","country":"United States","contacts":[{"name":"Yekaterina Axelrod, MD","role":"CONTACT"}],"geoPoint":{"lat":38.58157,"lon":-121.4944}},{"facility":"San Francisco General Hospital","status":"RECRUITING","city":"San Francisco","state":"California","zip":"94110","country":"United States","contacts":[{"name":"Claude Hemphill, MD","role":"CONTACT"}],"geoPoint":{"lat":37.77493,"lon":-122.41942}},{"facility":"Stanford University Medical Center","status":"RECRUITING","city":"Stanford","state":"California","zip":"94304","country":"United States","contacts":[{"name":"Chitra Venkat, MD","role":"CONTACT"}],"geoPoint":{"lat":37.42411,"lon":-122.16608}},{"facility":"PIH Health Hospital - Whittier","status":"RECRUITING","city":"Whittier","state":"California","zip":"90602","country":"United States","contacts":[{"name":"Gautam Ganguly, MD","role":"CONTACT"}],"geoPoint":{"lat":33.97918,"lon":-118.03284}},{"facility":"St. Mary's Medical Center","status":"WITHDRAWN","city":"Grand Junction","state":"Colorado","zip":"81501","country":"United States","geoPoint":{"lat":39.06387,"lon":-108.55065}},{"facility":"Danbury Hospital","status":"RECRUITING","city":"Danbury","state":"Connecticut","zip":"06810","country":"United States","contacts":[{"name":"Charles Guardia, MD","role":"CONTACT"}],"geoPoint":{"lat":41.39482,"lon":-73.45401}},{"facility":"Hartford Hospital","status":"RECRUITING","city":"Hartford","state":"Connecticut","zip":"06102","country":"United States","contacts":[{"name":"Mark Alberts, MD","role":"CONTACT"}],"geoPoint":{"lat":41.76371,"lon":-72.68509}},{"facility":"Yale New Haven Hospital","status":"RECRUITING","city":"New Haven","state":"Connecticut","zip":"06511","country":"United States","contacts":[{"name":"Guido Falcone, MD","role":"CONTACT"}],"geoPoint":{"lat":41.30815,"lon":-72.92816}},{"facility":"MedStar Georgetown University Hospital","status":"RECRUITING","city":"Washington","state":"District of Columbia","zip":"20007","country":"United States","contacts":[{"name":"Douglas Mayson, MD","role":"CONTACT"}],"geoPoint":{"lat":38.89511,"lon":-77.03637}},{"facility":"MedStar Washington Hospital Center","status":"WITHDRAWN","city":"Washington","state":"District of Columbia","zip":"20010","country":"United States","geoPoint":{"lat":38.89511,"lon":-77.03637}},{"facility":"Morton Plant Hospital","status":"RECRUITING","city":"Clearwater","state":"Florida","zip":"33756","country":"United States","contacts":[{"name":"Ajay Arora, MD","role":"CONTACT"}],"geoPoint":{"lat":27.96585,"lon":-82.8001}},{"facility":"Mayo Clinic","status":"RECRUITING","city":"Jacksonville","state":"Florida","zip":"32224","country":"United States","contacts":[{"name":"Jeffrey Peel, MD","role":"CONTACT"}],"geoPoint":{"lat":30.33218,"lon":-81.65565}},{"facility":"Jackson Memorial Hospital","status":"RECRUITING","city":"Miami","state":"Florida","zip":"33136","country":"United States","contacts":[{"name":"Sebastian Koch","role":"CONTACT"}],"geoPoint":{"lat":25.77427,"lon":-80.19366}},{"facility":"Ascension Sacred Heart Pensacola","status":"RECRUITING","city":"Pensacola","state":"Florida","zip":"32504","country":"United States","contacts":[{"name":"Terry Neill, MD","role":"CONTACT"}],"geoPoint":{"lat":30.42131,"lon":-87.21691}},{"facility":"Cleveland Clinic Tradition Hospital","status":"RECRUITING","city":"Port Saint Lucie","state":"Florida","zip":"34987","country":"United States","contacts":[{"name":"Marc Babi, MD","role":"CONTACT"}],"geoPoint":{"lat":27.29393,"lon":-80.35033}},{"facility":"Tampa General Hospital","status":"RECRUITING","city":"Tampa","state":"Florida","zip":"33606","country":"United States","contacts":[{"name":"Swetha Renati, MD","role":"CONTACT"}],"geoPoint":{"lat":27.94752,"lon":-82.45843}},{"facility":"St. Joseph's Hospital","status":"RECRUITING","city":"Tampa","state":"Florida","zip":"33607","country":"United States","contacts":[{"name":"Abilash Haridas, MD","role":"CONTACT"}],"geoPoint":{"lat":27.94752,"lon":-82.45843}},{"facility":"Grady Memorial Hospital","status":"RECRUITING","city":"Atlanta","state":"Georgia","zip":"30303","country":"United States","contacts":[{"name":"Daniel Schachter, MD","role":"CONTACT"}],"geoPoint":{"lat":33.749,"lon":-84.38798}},{"facility":"Emory University Hospital","status":"RECRUITING","city":"Atlanta","state":"Georgia","zip":"30322","country":"United States","contacts":[{"name":"Fadi Nahab, MD","role":"CONTACT"}],"geoPoint":{"lat":33.749,"lon":-84.38798}},{"facility":"Augusta University Medical Center","status":"RECRUITING","city":"Augusta","state":"Georgia","zip":"30912","country":"United States","contacts":[{"name":"Fenwick Nichols, MD","role":"CONTACT"}],"geoPoint":{"lat":33.47097,"lon":-81.97484}},{"facility":"WellStar Kennestone Hospital","status":"RECRUITING","city":"Marietta","state":"Georgia","zip":"30060","country":"United States","contacts":[{"name":"Christopher Horn, MD","role":"CONTACT"}],"geoPoint":{"lat":33.9526,"lon":-84.54993}},{"facility":"The Queen's Medical Center","status":"RECRUITING","city":"Honolulu","state":"Hawaii","zip":"96813","country":"United States","contacts":[{"name":"Kazuma Nakagawa, MD","role":"CONTACT"}],"geoPoint":{"lat":21.30694,"lon":-157.85833}},{"facility":"NCH Hospital, Arlington Heights","status":"WITHDRAWN","city":"Arlington Heights","state":"Illinois","zip":"60005","country":"United States","geoPoint":{"lat":42.08836,"lon":-87.98063}},{"facility":"Rush University Medical Center","status":"RECRUITING","city":"Chicago","state":"Illinois","zip":"60612","country":"United States","contacts":[{"name":"Rima Dafer, MD","role":"CONTACT"}],"geoPoint":{"lat":41.85003,"lon":-87.65005}},{"facility":"University of Illinois Hospital","status":"RECRUITING","city":"Chicago","state":"Illinois","zip":"60612","country":"United States","contacts":[{"name":"Ali Alaraj, MD","role":"CONTACT"}],"geoPoint":{"lat":41.85003,"lon":-87.65005}},{"facility":"University of Chicago Medical Center","status":"RECRUITING","city":"Chicago","state":"Illinois","zip":"60637","country":"United States","contacts":[{"name":"Scott Mendelson","role":"CONTACT"}],"geoPoint":{"lat":41.85003,"lon":-87.65005}},{"facility":"Loyola University Medical Center","status":"RECRUITING","city":"Maywood","state":"Illinois","zip":"60153","country":"United States","contacts":[{"name":"Sarkis Morales-Vidal, MD","role":"CONTACT"}],"geoPoint":{"lat":41.8792,"lon":-87.84312}},{"facility":"OSF St. Francis Medical Center","status":"RECRUITING","city":"Peoria","state":"Illinois","zip":"61637","country":"United States","contacts":[{"name":"Arun Talkad","role":"CONTACT"}],"geoPoint":{"lat":40.69365,"lon":-89.58899}},{"facility":"Javon Bea Hospital - Riverside","status":"RECRUITING","city":"Rockford","state":"Illinois","zip":"61114","country":"United States","contacts":[{"name":"Vibhav Bansal, MD","role":"CONTACT"}],"geoPoint":{"lat":42.27113,"lon":-89.094}},{"facility":"St. John's Hospital","status":"WITHDRAWN","city":"Springfield","state":"Illinois","zip":"62769","country":"United States","geoPoint":{"lat":39.80172,"lon":-89.64371}},{"facility":"Central DuPage Hospital","status":"RECRUITING","city":"Winfield","state":"Illinois","zip":"60190","country":"United States","contacts":[{"name":"Dhruvil Pandya, MD","role":"CONTACT"}],"geoPoint":{"lat":41.8617,"lon":-88.1609}},{"facility":"University of Iowa Hospitals & Clinics","status":"RECRUITING","city":"Iowa City","state":"Iowa","zip":"52242","country":"United States","contacts":[{"name":"Amir Shaban, MD","role":"CONTACT"}],"geoPoint":{"lat":41.66113,"lon":-91.53017}},{"facility":"University of Kansas Hospital","status":"RECRUITING","city":"Kansas City","state":"Kansas","zip":"66160","country":"United States","contacts":[{"name":"Kyle Carpenter, MD","role":"CONTACT"}],"geoPoint":{"lat":39.11417,"lon":-94.62746}},{"facility":"University of Kentucky Hospital","status":"RECRUITING","city":"Lexington","state":"Kentucky","zip":"40536","country":"United States","contacts":[{"name":"Suhas Gangadhara, MD","role":"CONTACT"}],"geoPoint":{"lat":37.98869,"lon":-84.47772}},{"facility":"University of Louisville Hospital","status":"WITHDRAWN","city":"Louisville","state":"Kentucky","zip":"40202","country":"United States","geoPoint":{"lat":38.25424,"lon":-85.75941}},{"facility":"Ochsner Medical Center - Main Campus","status":"RECRUITING","city":"New Orleans","state":"Louisiana","zip":"70121","country":"United States","contacts":[{"name":"Richard Zweifler","role":"CONTACT"}],"geoPoint":{"lat":29.95465,"lon":-90.07507}},{"facility":"Eastern Maine Medical Center","status":"WITHDRAWN","city":"Bangor","state":"Maine","zip":"04401","country":"United States","geoPoint":{"lat":44.80118,"lon":-68.77781}},{"facility":"Tufts Medical Center","status":"RECRUITING","city":"Boston","state":"Massachusetts","zip":"02111","country":"United States","contacts":[{"name":"Emiliya Melkumova, MD","role":"CONTACT"}],"geoPoint":{"lat":42.35843,"lon":-71.05977}},{"facility":"Massachusetts General Hospital","status":"RECRUITING","city":"Boston","state":"Massachusetts","zip":"02114","country":"United States","contacts":[{"name":"Mariel Kozberg, MD","role":"CONTACT"}],"geoPoint":{"lat":42.35843,"lon":-71.05977}},{"facility":"Boston Medical Center","status":"RECRUITING","city":"Boston","state":"Massachusetts","zip":"02118","country":"United States","contacts":[{"name":"Steven Feske, MD","role":"CONTACT"}],"geoPoint":{"lat":42.35843,"lon":-71.05977}},{"facility":"Beth Israel Deaconess Medical Center","status":"RECRUITING","city":"Boston","state":"Massachusetts","zip":"02215","country":"United States","contacts":[{"name":"Magdy Selim, MD","role":"CONTACT"}],"geoPoint":{"lat":42.35843,"lon":-71.05977}},{"facility":"Lahey Hospital & Medical Center","status":"RECRUITING","city":"Burlington","state":"Massachusetts","zip":"01805","country":"United States","contacts":[{"name":"Colin James Culbertson, MD","role":"CONTACT"}],"geoPoint":{"lat":42.50482,"lon":-71.19561}},{"facility":"Baystate Medical Center","status":"RECRUITING","city":"Springfield","state":"Massachusetts","zip":"01199","country":"United States","contacts":[{"name":"Gottfried Schlaug, MD","role":"CONTACT"}],"geoPoint":{"lat":42.10148,"lon":-72.58981}},{"facility":"UMass Memorial Medical Center","status":"RECRUITING","city":"Worcester","state":"Massachusetts","zip":"01655","country":"United States","contacts":[{"name":"Majaz Moonis, MD","role":"CONTACT"}],"geoPoint":{"lat":42.26259,"lon":-71.80229}},{"facility":"University of Michigan University Hospital","status":"RECRUITING","city":"Ann Arbor","state":"Michigan","zip":"48109","country":"United States","contacts":[{"name":"Aditya Pandey","role":"CONTACT"}],"geoPoint":{"lat":42.27756,"lon":-83.74088}},{"facility":"Henry Ford Hospital","status":"WITHDRAWN","city":"Detroit","state":"Michigan","zip":"48202","country":"United States","geoPoint":{"lat":42.33143,"lon":-83.04575}},{"facility":"McLaren Flint","status":"RECRUITING","city":"Flint","state":"Michigan","zip":"48532","country":"United States","contacts":[{"name":"Bharath Naravetla, MD","role":"CONTACT"}],"geoPoint":{"lat":43.01253,"lon":-83.68746}},{"facility":"Trinity Health Saint Mary's","status":"WITHDRAWN","city":"Grand Rapids","state":"Michigan","zip":"49503","country":"United States","geoPoint":{"lat":42.96336,"lon":-85.66809}},{"facility":"Trinity Health Saint Mary's","status":"RECRUITING","city":"Grand Rapids","state":"Michigan","zip":"49503","country":"United States","contacts":[{"name":"Muhammad Farooq, MD","role":"CONTACT"}],"geoPoint":{"lat":42.96336,"lon":-85.66809}},{"facility":"McLaren Macomb","status":"RECRUITING","city":"Mount Clemens","state":"Michigan","zip":"48043","country":"United States","contacts":[{"name":"Bharath Naravetla, MD","role":"CONTACT"}],"geoPoint":{"lat":42.59726,"lon":-82.87798}},{"facility":"Munson Medical Center","status":"RECRUITING","city":"Traverse City","state":"Michigan","zip":"49684","country":"United States","contacts":[{"name":"David Rosenbaum, MD","role":"CONTACT"}],"geoPoint":{"lat":44.76306,"lon":-85.62063}},{"facility":"Metro Health Hospital","status":"WITHDRAWN","city":"Wyoming","state":"Michigan","zip":"49519","country":"United States","geoPoint":{"lat":42.91336,"lon":-85.70531}},{"facility":"Abbott Northwestern Hospital","status":"RECRUITING","city":"Minneapolis","state":"Minnesota","zip":"55407","country":"United States","contacts":[{"name":"Ganesh Asaithambi, MD","role":"CONTACT"}],"geoPoint":{"lat":44.97997,"lon":-93.26384}},{"facility":"M Health Fairview University of Minnesota Medical Center","status":"RECRUITING","city":"Minneapolis","state":"Minnesota","zip":"55455","country":"United States","contacts":[{"name":"Oladi Bentho, MD","role":"CONTACT"}],"geoPoint":{"lat":44.97997,"lon":-93.26384}},{"facility":"St. Cloud Hospital","status":"RECRUITING","city":"Saint Cloud","state":"Minnesota","zip":"56303","country":"United States","contacts":[{"name":"Muhammad Fareed Suri, MD","role":"CONTACT"}],"geoPoint":{"lat":45.5608,"lon":-94.16249}},{"facility":"HealthPartners Methodist Hospital","status":"RECRUITING","city":"Saint Louis Park","state":"Minnesota","zip":"55426","country":"United States","contacts":[{"name":"Darwin Ramirez Abreu, MD","role":"CONTACT"}],"geoPoint":{"lat":44.9483,"lon":-93.34801}},{"facility":"Regions Hospital","status":"RECRUITING","city":"Saint Paul","state":"Minnesota","zip":"55101","country":"United States","contacts":[{"name":"Darwin Ramirez-Abreu, MD","role":"CONTACT"}],"geoPoint":{"lat":44.94441,"lon":-93.09327}},{"facility":"United Hospital, St. Paul","status":"WITHDRAWN","city":"Saint Paul","state":"Minnesota","zip":"55102","country":"United States","geoPoint":{"lat":44.94441,"lon":-93.09327}},{"facility":"University of Mississippi Medical Center","status":"RECRUITING","city":"Jackson","state":"Mississippi","zip":"39216","country":"United States","contacts":[{"name":"Allison Strickland, MD","role":"CONTACT"}],"geoPoint":{"lat":32.29876,"lon":-90.18481}},{"facility":"Barnes Jewish Hospital","status":"RECRUITING","city":"Saint Louis","state":"Missouri","zip":"63110","country":"United States","contacts":[{"name":"Yan Wang, MD","role":"CONTACT"}],"geoPoint":{"lat":38.62727,"lon":-90.19789}},{"facility":"Cox Medical Center South","status":"RECRUITING","city":"Springfield","state":"Missouri","zip":"65807","country":"United States","contacts":[{"name":"Benjamin Lisle, MD","role":"CONTACT"}],"geoPoint":{"lat":37.21533,"lon":-93.29824}},{"facility":"University of Nebraska Medical Center","status":"RECRUITING","city":"Omaha","state":"Nebraska","zip":"68105","country":"United States","contacts":[{"name":"Marco Gonzalez Castellon, MD","role":"CONTACT"}],"geoPoint":{"lat":41.25626,"lon":-95.94043}},{"facility":"Overlook Medical Center","status":"RECRUITING","city":"Summit","state":"New Jersey","zip":"07901","country":"United States","contacts":[{"name":"John Hanna, MD","role":"CONTACT"}],"geoPoint":{"lat":40.71562,"lon":-74.36468}},{"facility":"Capital Health Regional Medical Center","status":"WITHDRAWN","city":"Trenton","state":"New Jersey","zip":"08638","country":"United States","geoPoint":{"lat":40.21705,"lon":-74.74294}},{"facility":"University of New Mexico Hospital","status":"RECRUITING","city":"Albuquerque","state":"New Mexico","zip":"87106","country":"United States","contacts":[{"name":"Tarun Girotra, MD","role":"CONTACT"}],"geoPoint":{"lat":35.08449,"lon":-106.65114}},{"facility":"Montefiore Medical Center","status":"RECRUITING","city":"Bronx","state":"New York","zip":"10467","country":"United States","contacts":[{"name":"Kathryn Kirchoff-Torres, MD","role":"CONTACT"}],"geoPoint":{"lat":40.84985,"lon":-73.86641}},{"facility":"Kings County Hospital Center","status":"RECRUITING","city":"Brooklyn","state":"New York","zip":"11203","country":"United States","contacts":[{"name":"Susan Law, MD","role":"CONTACT"}],"geoPoint":{"lat":40.6501,"lon":-73.94958}},{"facility":"NewYork-Presbyterian Brooklyn Methodist Hospital","status":"ACTIVE_NOT_RECRUITING","city":"Brooklyn","state":"New York","zip":"11215","country":"United States","geoPoint":{"lat":40.6501,"lon":-73.94958}},{"facility":"Maimonides Medical Center","status":"RECRUITING","city":"Brooklyn","state":"New York","zip":"11219","country":"United States","contacts":[{"name":"Quingliang Wang, MD","role":"CONTACT"}],"geoPoint":{"lat":40.6501,"lon":-73.94958}},{"facility":"NYU Langone Hospital - Brooklyn","status":"RECRUITING","city":"Brooklyn","state":"New York","zip":"11220","country":"United States","contacts":[{"name":"Jennifer Frontera","role":"CONTACT"}],"geoPoint":{"lat":40.6501,"lon":-73.94958}},{"facility":"Buffalo General Medical Center","status":"ACTIVE_NOT_RECRUITING","city":"Buffalo","state":"New York","zip":"14202","country":"United States","geoPoint":{"lat":42.88645,"lon":-78.87837}},{"facility":"North Shore University Hospital","status":"RECRUITING","city":"Manhasset","state":"New York","zip":"11030","country":"United States","contacts":[{"name":"Rohan Arora, MD","role":"CONTACT"}],"geoPoint":{"lat":40.79788,"lon":-73.69957}},{"facility":"Mount Sinai West","status":"RECRUITING","city":"New York","state":"New York","zip":"10019","country":"United States","contacts":[{"name":"Neha Dangayach, MD","role":"CONTACT"}],"geoPoint":{"lat":40.71427,"lon":-74.00597}},{"facility":"The Mount Sinai Hospital","status":"RECRUITING","city":"New York","state":"New York","zip":"10029","country":"United States","contacts":[{"name":"Neha Dangayach, MD","role":"CONTACT"}],"geoPoint":{"lat":40.71427,"lon":-74.00597}},{"facility":"NYP Columbia University Medical Center","status":"RECRUITING","city":"New York","state":"New York","zip":"10032","country":"United States","contacts":[{"name":"Imama Naqvi, MD","role":"CONTACT"}],"geoPoint":{"lat":40.71427,"lon":-74.00597}},{"facility":"NYP Weill Cornell Medical Center","status":"RECRUITING","city":"New York","state":"New York","zip":"10065","country":"United States","contacts":[{"name":"Hooman Kamel, MD","role":"CONTACT"}],"geoPoint":{"lat":40.71427,"lon":-74.00597}},{"facility":"Vassar Brothers Medical Center","status":"RECRUITING","city":"Poughkeepsie","state":"New York","zip":"12601","country":"United States","contacts":[{"name":"Paul Wright, MD","role":"CONTACT"}],"geoPoint":{"lat":41.70037,"lon":-73.92097}},{"facility":"Strong Memorial Hospital","status":"RECRUITING","city":"Rochester","state":"New York","zip":"14642","country":"United States","contacts":[{"name":"Curtis Benesch, MD","role":"CONTACT"}],"geoPoint":{"lat":43.15478,"lon":-77.61556}},{"facility":"Staten Island University Hospital - North Campus","status":"WITHDRAWN","city":"Staten Island","state":"New York","zip":"10305","country":"United States","geoPoint":{"lat":40.56233,"lon":-74.13986}},{"facility":"Stony Brook University Hospital","status":"RECRUITING","city":"Stony Brook","state":"New York","zip":"11794","country":"United States","contacts":[{"name":"Jason Mathew, MD","role":"CONTACT"}],"geoPoint":{"lat":40.92565,"lon":-73.14094}},{"facility":"SUNY Upstate Medical University","status":"RECRUITING","city":"Syracuse","state":"New York","zip":"13210","country":"United States","contacts":[{"name":"Claribel Wee, MD","role":"CONTACT"}],"geoPoint":{"lat":43.04812,"lon":-76.14742}},{"facility":"Westchester Medical Center","status":"RECRUITING","city":"Valhalla","state":"New York","zip":"10595","country":"United States","contacts":[{"name":"Stephan Mayer, MD","role":"CONTACT"}],"geoPoint":{"lat":41.07482,"lon":-73.77513}},{"facility":"University of North Carolina Medical Center","status":"RECRUITING","city":"Chapel Hill","state":"North Carolina","zip":"27514","country":"United States","contacts":[{"name":"David Huang, MD","role":"CONTACT"}],"geoPoint":{"lat":35.9132,"lon":-79.05584}},{"facility":"Carolinas Medical Center","status":"WITHDRAWN","city":"Charlotte","state":"North Carolina","zip":"28204","country":"United States","geoPoint":{"lat":35.22709,"lon":-80.84313}},{"facility":"Moses H. Cone Memorial Hospital","status":"ACTIVE_NOT_RECRUITING","city":"Greensboro","state":"North Carolina","zip":"27401","country":"United States","geoPoint":{"lat":36.07264,"lon":-79.79198}},{"facility":"Forsyth Medical Center","status":"RECRUITING","city":"Winston-Salem","state":"North Carolina","zip":"27103","country":"United States","contacts":[{"name":"Lauren Peruski, MD","role":"CONTACT"}],"geoPoint":{"lat":36.09986,"lon":-80.24422}},{"facility":"Wake Forest Baptist Medical Center","status":"RECRUITING","city":"Winston-Salem","state":"North Carolina","zip":"27157","country":"United States","contacts":[{"name":"Stacey Wolfe, MD","role":"CONTACT"}],"geoPoint":{"lat":36.09986,"lon":-80.24422}},{"facility":"Cleveland Clinic Akron General","status":"RECRUITING","city":"Akron","state":"Ohio","zip":"44307","country":"United States","contacts":[{"name":"Ahmed Itrat, MD","role":"CONTACT"}],"geoPoint":{"lat":41.08144,"lon":-81.51901}},{"facility":"University of Cincinnati Medical Center","status":"RECRUITING","city":"Cincinnati","state":"Ohio","zip":"45219","country":"United States","contacts":[{"name":"Rob Stanton, MD","role":"CONTACT"}],"geoPoint":{"lat":39.12713,"lon":-84.51435}},{"facility":"Good Samaritan Hospital","status":"RECRUITING","city":"Cincinnati","state":"Ohio","zip":"45220","country":"United States","contacts":[{"name":"Christopher Zammit, MD","role":"CONTACT"}],"geoPoint":{"lat":39.12713,"lon":-84.51435}},{"facility":"UH Cleveland Medical Center","status":"RECRUITING","city":"Cleveland","state":"Ohio","zip":"44106","country":"United States","contacts":[{"name":"Abhishek Ray, MD","role":"CONTACT"}],"geoPoint":{"lat":41.4995,"lon":-81.69541}},{"facility":"MetroHealth Medical Center","status":"RECRUITING","city":"Cleveland","state":"Ohio","zip":"44109","country":"United States","contacts":[{"name":"Ardelt Agnieszka, MD","role":"CONTACT"}],"geoPoint":{"lat":41.4995,"lon":-81.69541}},{"facility":"Cleveland Clinic","status":"RECRUITING","city":"Cleveland","state":"Ohio","zip":"44195","country":"United States","contacts":[{"name":"Blake Buletko","role":"CONTACT"}],"geoPoint":{"lat":41.4995,"lon":-81.69541}},{"facility":"OSU Wexner Medical Center","status":"RECRUITING","city":"Columbus","state":"Ohio","zip":"43210","country":"United States","contacts":[{"name":"Yousef Hannawi, MD","role":"CONTACT"}],"geoPoint":{"lat":39.96118,"lon":-82.99879}},{"facility":"Riverside Methodist Hospital","status":"RECRUITING","city":"Columbus","state":"Ohio","zip":"43214","country":"United States","contacts":[{"name":"Vivek Rai, MD","role":"CONTACT"}],"geoPoint":{"lat":39.96118,"lon":-82.99879}},{"facility":"OU Medical Center","status":"RECRUITING","city":"Oklahoma City","state":"Oklahoma","zip":"73104","country":"United States","contacts":[{"name":"Evgeny Sidorov","role":"CONTACT"}],"geoPoint":{"lat":35.46756,"lon":-97.51643}},{"facility":"Ascension St. John Medical Center","status":"RECRUITING","city":"Tulsa","state":"Oklahoma","zip":"74104","country":"United States","contacts":[{"name":"Rahul Rahangdale, MD","role":"CONTACT"}],"geoPoint":{"lat":36.15398,"lon":-95.99277}},{"facility":"St. John Medical Center","status":"RECRUITING","city":"Tulsa","state":"Oklahoma","zip":"74104","country":"United States","contacts":[{"name":"Rahul Rahangdale, MD","role":"CONTACT"}],"geoPoint":{"lat":36.15398,"lon":-95.99277}},{"facility":"Oregon Health & Science University Hospital","status":"RECRUITING","city":"Portland","state":"Oregon","zip":"92739","country":"United States","contacts":[{"name":"Wayne Clark","role":"CONTACT"}],"geoPoint":{"lat":45.52345,"lon":-122.67621}},{"facility":"Providence St. Vincent Medical Center","status":"RECRUITING","city":"Portland","state":"Oregon","zip":"97213","country":"United States","contacts":[{"name":"John Zurasky","role":"CONTACT"}],"geoPoint":{"lat":45.52345,"lon":-122.67621}},{"facility":"PeaceHealth Sacred Heart Medical Center - RiverBend","status":"RECRUITING","city":"Springfield","state":"Oregon","zip":"97477","country":"United States","contacts":[{"name":"Elaine Skalabrin, MD","role":"CONTACT"}],"geoPoint":{"lat":44.04624,"lon":-123.02203}},{"facility":"Jefferson Abington Hospital","status":"RECRUITING","city":"Abington","state":"Pennsylvania","zip":"19001","country":"United States","contacts":[{"name":"Larami MacKenzie, MD","role":"CONTACT"}],"geoPoint":{"lat":40.12067,"lon":-75.11795}},{"facility":"Lehigh Valley Hospital - Cedar Crest","status":"WITHDRAWN","city":"Allentown","state":"Pennsylvania","zip":"18103","country":"United States","geoPoint":{"lat":40.60843,"lon":-75.49018}},{"facility":"Geisinger Medical Center","status":"RECRUITING","city":"Danville","state":"Pennsylvania","zip":"17822","country":"United States","contacts":[{"name":"Clemens Schirmer, MD","role":"CONTACT"}],"geoPoint":{"lat":40.96342,"lon":-76.61273}},{"facility":"Penn State Hershey Medical Center","status":"RECRUITING","city":"Hershey","state":"Pennsylvania","zip":"17033","country":"United States","contacts":[{"name":"Nandakumar Nagaraja, MD","role":"CONTACT"}],"geoPoint":{"lat":40.28592,"lon":-76.65025}},{"facility":"Hospital of the University of Pennsylvania","status":"RECRUITING","city":"Philadelphia","state":"Pennsylvania","zip":"19104","country":"United States","contacts":[{"name":"Jens Witsch, MD","role":"CONTACT"}],"geoPoint":{"lat":39.95233,"lon":-75.16379}},{"facility":"Thomas Jefferson University Hospital","status":"RECRUITING","city":"Philadelphia","state":"Pennsylvania","zip":"19107","country":"United States","contacts":[{"name":"Diana Tzeng, MD","role":"CONTACT"}],"geoPoint":{"lat":39.95233,"lon":-75.16379}},{"facility":"Temple University Hospital","status":"RECRUITING","city":"Philadelphia","state":"Pennsylvania","zip":"19140","country":"United States","contacts":[{"name":"Paul Katz, MD","role":"CONTACT"}],"geoPoint":{"lat":39.95233,"lon":-75.16379}},{"facility":"UPMC Presbyterian Hospital","status":"RECRUITING","city":"Pittsburgh","state":"Pennsylvania","zip":"15213","country":"United States","contacts":[{"name":"Marcelo Rocha","role":"CONTACT"}],"geoPoint":{"lat":40.44062,"lon":-79.99589}},{"facility":"Rhode Island Hospital","status":"RECRUITING","city":"Providence","state":"Rhode Island","zip":"02903","country":"United States","contacts":[{"name":"Torrey Birch, MD","role":"CONTACT"}],"geoPoint":{"lat":41.82399,"lon":-71.41283}},{"facility":"Medical University of South Carolina University Hospital","status":"RECRUITING","city":"Charleston","state":"South Carolina","zip":"29425","country":"United States","contacts":[{"name":"Christine Holmstedt, MD","role":"CONTACT"}],"geoPoint":{"lat":32.77657,"lon":-79.93092}},{"facility":"Greenville Hospital System","status":"RECRUITING","city":"Greenville","state":"South Carolina","zip":"29605","country":"United States","contacts":[{"name":"Sanjeev Sivakumar, MD","role":"CONTACT"}],"geoPoint":{"lat":34.85262,"lon":-82.39401}},{"facility":"Avera Research Institute","status":"RECRUITING","city":"Sioux Falls","state":"South Dakota","zip":"57108","country":"United States","contacts":[{"name":"Jonathon Cooke, MD","role":"CONTACT"}],"geoPoint":{"lat":43.54997,"lon":-96.70033}},{"facility":"Erlanger Health System","status":"RECRUITING","city":"Chattanooga","state":"Tennessee","zip":"37403","country":"United States","contacts":[{"name":"Mounzer Kassab, MD","role":"CONTACT"}],"geoPoint":{"lat":35.04563,"lon":-85.30968}},{"facility":"Methodist University Hospital","status":"RECRUITING","city":"Memphis","state":"Tennessee","zip":"38104","country":"United States","contacts":[{"name":"Balaji Krishnaiah, MD","role":"CONTACT"}],"geoPoint":{"lat":35.14953,"lon":-90.04898}},{"facility":"Vanderbilt University Hospital","status":"RECRUITING","city":"Nashville","state":"Tennessee","zip":"37232","country":"United States","contacts":[{"name":"Deborah Kerrigan, MD","role":"CONTACT"}],"geoPoint":{"lat":36.16589,"lon":-86.78444}},{"facility":"St. David's Medical Center","status":"WITHDRAWN","city":"Austin","state":"Texas","zip":"78705","country":"United States","geoPoint":{"lat":30.26715,"lon":-97.74306}},{"facility":"UT Southwestern Medical Center","status":"WITHDRAWN","city":"Dallas","state":"Texas","zip":"75390","country":"United States","geoPoint":{"lat":32.78306,"lon":-96.80667}},{"facility":"Baylor College of Medicine Medical Center","status":"SUSPENDED","city":"Houston","state":"Texas","zip":"77030","country":"United States","geoPoint":{"lat":29.76328,"lon":-95.36327}},{"facility":"Houston Methodist Hospital","status":"RECRUITING","city":"Houston","state":"Texas","zip":"77030","country":"United States","contacts":[{"name":"Britz Britz, MD","role":"CONTACT"}],"geoPoint":{"lat":29.76328,"lon":-95.36327}},{"facility":"Memorial Hermann Texas Medical Center","status":"RECRUITING","city":"Houston","state":"Texas","zip":"77030","country":"United States","contacts":[{"name":"Andrew Barreto, MD","role":"CONTACT"}],"geoPoint":{"lat":29.76328,"lon":-95.36327}},{"facility":"University of Texas Health Science Center San Antonio","status":"RECRUITING","city":"San Antonio","state":"Texas","zip":"78229","country":"United States","contacts":[{"name":"Reza Behrouz, MD","role":"CONTACT"}],"geoPoint":{"lat":29.42412,"lon":-98.49363}},{"facility":"University of Utah Healthcare","status":"RECRUITING","city":"Salt Lake City","state":"Utah","zip":"84112","country":"United States","contacts":[{"name":"Nabeel Chauhan, MD","role":"CONTACT"}],"geoPoint":{"lat":40.76078,"lon":-111.89105}},{"facility":"The University of Vermont Medical Center","status":"RECRUITING","city":"Burlington","state":"Vermont","zip":"05401","country":"United States","contacts":[{"name":"Chris Commichau","role":"CONTACT"}],"geoPoint":{"lat":44.47588,"lon":-73.21207}},{"facility":"UVA Medical Center","status":"RECRUITING","city":"Charlottesville","state":"Virginia","zip":"22908","country":"United States","contacts":[{"name":"Brad Worral, MD","role":"CONTACT"}],"geoPoint":{"lat":38.02931,"lon":-78.47668}},{"facility":"Inova Fairfax Hospital","status":"RECRUITING","city":"Falls Church","state":"Virginia","zip":"22042","country":"United States","contacts":[{"name":"Saqib Chaudhry, MD","role":"CONTACT"}],"geoPoint":{"lat":38.88233,"lon":-77.17109}},{"facility":"VCU Medical Center","status":"RECRUITING","city":"Richmond","state":"Virginia","zip":"23298","country":"United States","contacts":[{"name":"Shraddha Mainali, MD","role":"CONTACT"}],"geoPoint":{"lat":37.55376,"lon":-77.46026}},{"facility":"Virginia Mason Medical Center","status":"WITHDRAWN","city":"Seattle","state":"Washington","zip":"98101","country":"United States","geoPoint":{"lat":47.60621,"lon":-122.33207}},{"facility":"Harborview Medical Center","status":"RECRUITING","city":"Seattle","state":"Washington","zip":"98104","country":"United States","contacts":[{"name":"David Tirschwell, MD","role":"CONTACT"}],"geoPoint":{"lat":47.60621,"lon":-122.33207}},{"facility":"Swedish Medical Center - Cherry Hill Campus","status":"RECRUITING","city":"Seattle","state":"Washington","zip":"98122","country":"United States","contacts":[{"name":"James Bartscher, MD","role":"CONTACT"}],"geoPoint":{"lat":47.60621,"lon":-122.33207}},{"facility":"WVU Healthcare Ruby Memorial Hospital","status":"RECRUITING","city":"Morgantown","state":"West Virginia","zip":"26506","country":"United States","contacts":[{"name":"Amelia Adcock, MD","role":"CONTACT"}],"geoPoint":{"lat":39.62953,"lon":-79.9559}},{"facility":"Froedtert Hospital","status":"RECRUITING","city":"Milwaukee","state":"Wisconsin","zip":"53226","country":"United States","contacts":[{"name":"Hatim Attar, MD","role":"CONTACT"}],"geoPoint":{"lat":43.0389,"lon":-87.90647}}]}},"derivedSection":{"miscInfoModule":{"versionHolder":"2024-02-14"},"conditionBrowseModule":{"meshes":[{"id":"D000002543","term":"Cerebral Hemorrhage"},{"id":"D000001281","term":"Atrial Fibrillation"},{"id":"D000006470","term":"Hemorrhage"}],"ancestors":[{"id":"D000001145","term":"Arrhythmias, Cardiac"},{"id":"D000006331","term":"Heart Diseases"},{"id":"D000002318","term":"Cardiovascular Diseases"},{"id":"D000010335","term":"Pathologic Processes"},{"id":"D000020300","term":"Intracranial Hemorrhages"},{"id":"D000002561","term":"Cerebrovascular Disorders"},{"id":"D000001927","term":"Brain Diseases"},{"id":"D000002493","term":"Central Nervous System Diseases"},{"id":"D000009422","term":"Nervous System Diseases"},{"id":"D000014652","term":"Vascular Diseases"}],"browseLeaves":[{"id":"M21996","name":"Stroke","relevance":"LOW"},{"id":"M9246","name":"Hemorrhage","asFound":"Hemorrhage","relevance":"HIGH"},{"id":"M4276","name":"Atrial Fibrillation","asFound":"Atrial Fibrillation","relevance":"HIGH"},{"id":"M5482","name":"Cerebral Hemorrhage","asFound":"Intracerebral Hemorrhage","relevance":"HIGH"},{"id":"M4143","name":"Arrhythmias, Cardiac","relevance":"LOW"},{"id":"M9109","name":"Heart Diseases","relevance":"LOW"},{"id":"M21803","name":"Intracranial Hemorrhages","relevance":"LOW"},{"id":"M5500","name":"Cerebrovascular Disorders","relevance":"LOW"},{"id":"M4894","name":"Brain Diseases","relevance":"LOW"},{"id":"M5432","name":"Central Nervous System Diseases","relevance":"LOW"},{"id":"M17090","name":"Vascular Diseases","relevance":"LOW"}],"browseBranches":[{"abbrev":"BC10","name":"Nervous System Diseases"},{"abbrev":"BC14","name":"Heart and Blood Diseases"},{"abbrev":"All","name":"All Conditions"},{"abbrev":"BC23","name":"Symptoms and General Pathology"}]},"interventionBrowseModule":{"meshes":[{"id":"D000001241","term":"Aspirin"},{"id":"C000522181","term":"Apixaban"}],"ancestors":[{"id":"D000000894","term":"Anti-Inflammatory Agents, Non-Steroidal"},{"id":"D000018712","term":"Analgesics, Non-Narcotic"},{"id":"D000000700","term":"Analgesics"},{"id":"D000018689","term":"Sensory System Agents"},{"id":"D000018373","term":"Peripheral Nervous System Agents"},{"id":"D000045505","term":"Physiological Effects of Drugs"},{"id":"D000000893","term":"Anti-Inflammatory Agents"},{"id":"D000018501","term":"Antirheumatic Agents"},{"id":"D000005343","term":"Fibrinolytic Agents"},{"id":"D000050299","term":"Fibrin Modulating Agents"},{"id":"D000045504","term":"Molecular Mechanisms of Pharmacological Action"},{"id":"D000010975","term":"Platelet Aggregation Inhibitors"},{"id":"D000016861","term":"Cyclooxygenase Inhibitors"},{"id":"D000004791","term":"Enzyme Inhibitors"},{"id":"D000058633","term":"Antipyretics"},{"id":"D000065427","term":"Factor Xa Inhibitors"},{"id":"D000000991","term":"Antithrombins"},{"id":"D000015842","term":"Serine Proteinase Inhibitors"},{"id":"D000011480","term":"Protease Inhibitors"},{"id":"D000000925","term":"Anticoagulants"}],"browseLeaves":[{"id":"M19823","name":"Itraconazole","relevance":"LOW"},{"id":"M4238","name":"Aspirin","asFound":"Knee","relevance":"HIGH"},{"id":"M19275","name":"Clarithromycin","relevance":"LOW"},{"id":"M256146","name":"Hydroxyitraconazole","relevance":"LOW"},{"id":"M288142","name":"Apixaban","asFound":"Extraction","relevance":"HIGH"},{"id":"M3934","name":"Anticoagulants","relevance":"LOW"},{"id":"M30203","name":"Factor Xa Inhibitors","relevance":"LOW"},{"id":"M21084","name":"Ritonavir","relevance":"LOW"},{"id":"M13555","name":"Platelet Aggregation Inhibitors","relevance":"LOW"},{"id":"M10369","name":"Ketoconazole","relevance":"LOW"},{"id":"M3907","name":"Anti-Inflammatory Agents","relevance":"LOW"},{"id":"M3908","name":"Anti-Inflammatory Agents, Non-Steroidal","relevance":"LOW"},{"id":"M3722","name":"Analgesics","relevance":"LOW"},{"id":"M20476","name":"Analgesics, Non-Narcotic","relevance":"LOW"},{"id":"M20294","name":"Antirheumatic Agents","relevance":"LOW"},{"id":"M8163","name":"Fibrinolytic Agents","relevance":"LOW"},{"id":"M18899","name":"Cyclooxygenase Inhibitors","relevance":"LOW"},{"id":"M7641","name":"Enzyme Inhibitors","relevance":"LOW"},{"id":"M28866","name":"Antipyretics","relevance":"LOW"},{"id":"M3997","name":"Antithrombins","relevance":"LOW"},{"id":"M3996","name":"Antithrombin III","relevance":"LOW"},{"id":"M14033","name":"Protease Inhibitors","relevance":"LOW"},{"id":"M18081","name":"Serine Proteinase Inhibitors","relevance":"LOW"},{"id":"M19299","name":"HIV Protease Inhibitors","relevance":"LOW"},{"id":"T18","name":"Serine","relevance":"LOW"}],"browseBranches":[{"abbrev":"Infe","name":"Anti-Infective Agents"},{"abbrev":"All","name":"All Drugs and Chemicals"},{"abbrev":"Antipy","name":"Antipyretics"},{"abbrev":"Infl","name":"Anti-Inflammatory Agents"},{"abbrev":"ARhu","name":"Antirheumatic Agents"},{"abbrev":"FiAg","name":"Fibrinolytic Agents"},{"abbrev":"Analg","name":"Analgesics"},{"abbrev":"PlAggInh","name":"Platelet Aggregation Inhibitors"},{"abbrev":"AnCoag","name":"Anticoagulants"},{"abbrev":"AA","name":"Amino Acids"}]}},"hasResults":false}