{"protocolSection":{"identificationModule":{"nctId":"NCT00927836","orgStudyIdInfo":{"id":"AX200-101"},"secondaryIdInfos":[{"id":"EudraCT 2008-006444-19"}],"organization":{"fullName":"Sygnis Bioscience GmbH & Co KG","class":"INDUSTRY"},"briefTitle":"AXIS 2: AX200 for the Treatment of Ischemic Stroke","officialTitle":"AXIS 2: AX200 for the Treatment of Ischemic Stroke - A Multinational, Multicenter, Randomized, Doubleblind, Placebo-controlled Phase II Trial","acronym":"AXIS-2"},"statusModule":{"statusVerifiedDate":"2011-08","overallStatus":"COMPLETED","expandedAccessInfo":{"hasExpandedAccess":false},"startDateStruct":{"date":"2009-05"},"primaryCompletionDateStruct":{"date":"2011-11","type":"ACTUAL"},"completionDateStruct":{"date":"2011-11","type":"ACTUAL"},"studyFirstSubmitDate":"2009-06-24","studyFirstSubmitQcDate":"2009-06-24","studyFirstPostDateStruct":{"date":"2009-06-25","type":"ESTIMATED"},"lastUpdateSubmitDate":"2011-12-12","lastUpdatePostDateStruct":{"date":"2011-12-13","type":"ESTIMATED"}},"sponsorCollaboratorsModule":{"responsibleParty":{"type":"SPONSOR"},"leadSponsor":{"name":"Sygnis Bioscience GmbH & Co KG","class":"INDUSTRY"}},"oversightModule":{"oversightHasDmc":true},"descriptionModule":{"briefSummary":"The purpose of this study is to assess the efficacy of AX200 (filgrastim) in the treatment of acute ischemic stroke and to assess the safety and tolerability of AX200."},"conditionsModule":{"conditions":["Acute Ischemic Stroke"]},"designModule":{"studyType":"INTERVENTIONAL","phases":["PHASE2"],"designInfo":{"allocation":"RANDOMIZED","interventionModel":"PARALLEL","primaryPurpose":"TREATMENT","maskingInfo":{"masking":"QUADRUPLE","whoMasked":["PARTICIPANT","CARE_PROVIDER","INVESTIGATOR","OUTCOMES_ASSESSOR"]}},"enrollmentInfo":{"count":328,"type":"ACTUAL"}},"armsInterventionsModule":{"armGroups":[{"label":"AX200","type":"EXPERIMENTAL","interventionNames":["Biological: Filgrastim"]},{"label":"Placebo","type":"PLACEBO_COMPARATOR","interventionNames":["Drug: Sodium chloride solution"]}],"interventions":[{"type":"BIOLOGICAL","name":"Filgrastim","description":"135 μg/kg body weight total dose Short term infusion (20 to 30 minutes) and continuous infusion over 3 days","armGroupLabels":["AX200"]},{"type":"DRUG","name":"Sodium chloride solution","description":"Short term infusion (20 to 30 minutes) and continuous infusion over 3 days","armGroupLabels":["Placebo"]}]},"outcomesModule":{"primaryOutcomes":[{"measure":"Improvement on mRS relative to placebo-treated patients","timeFrame":"day 90"}],"secondaryOutcomes":[{"measure":"Improvement on NIHSS relative to placebo-treated patients","timeFrame":"day 90"}]},"eligibilityModule":{"eligibilityCriteria":"Major Inclusion Criteria:\n\n* diagnosis of acute ischemic stroke with an onset within 9 hours prior to start of study agent administration\n* ischemic stroke in the MCA territory confirmed by MRI (diffusion)\n* age ≥18 years and ≤85 years\n* lesion size on DWI ≥15 ccm\n* written informed consent\n\nMajor Exclusion Criteria:\n\n* prior to current stroke: inability to walk or to lead an independent life\n* life expectancy less or equal 6 months\n* stupor or coma\n* lacunar infarct\n* any evidence of ICH\n* malignant hypertension\n* presence of history of active malignancies\n* platelet count \\<100/nl at randomization\n* leukocyte count \\>20/nl at randomization\n* congenital neutropenia\n* pregnant or lactating women","healthyVolunteers":false,"sex":"ALL","minimumAge":"18 Years","maximumAge":"85 Years","stdAges":["ADULT","OLDER_ADULT"]},"contactsLocationsModule":{"overallOfficials":[{"name":"Frank Rathgeb, Dr.","affiliation":"Sygnis Bioscience GmbH & Co KG","role":"STUDY_CHAIR"},{"name":"Rico Laage, Dr.","affiliation":"Sygnis Bioscience GmbH & Co KG","role":"STUDY_DIRECTOR"}],"locations":[{"facility":"Landes-Nervenklinik Wagner-Jauregg","city":"Linz","zip":"4020","country":"Austria","geoPoint":{"lat":48.30639,"lon":14.28611}},{"facility":"AHK Linz","city":"Linz","zip":"4021","country":"Austria","geoPoint":{"lat":48.30639,"lon":14.28611}},{"facility":"Wilhelminenspital","city":"Wien","zip":"1160","country":"Austria","geoPoint":{"lat":48.20849,"lon":16.37208}},{"facility":"AZ Sint-Jan AV","city":"Brugge","zip":"8000","country":"Belgium","geoPoint":{"lat":51.20892,"lon":3.22424}},{"facility":"Cliniques Universitaires Saint-Luc","city":"Bruxelles","zip":"1200","country":"Belgium","geoPoint":{"lat":50.85045,"lon":4.34878}},{"facility":"Universitair Ziekenhuis Gent","city":"Gent","zip":"9000","country":"Belgium","geoPoint":{"lat":51.05,"lon":3.71667}},{"facility":"UZ Gasthuisberg","city":"Leuven","zip":"3000","country":"Belgium","geoPoint":{"lat":50.87959,"lon":4.70093}},{"facility":"St. Anne's Faculty Hospital","city":"Brno","zip":"656 91","country":"Czech Republic","geoPoint":{"lat":49.19522,"lon":16.60796}},{"facility":"Faculty Hospital","city":"Olomouc","zip":"775 20","country":"Czech Republic","geoPoint":{"lat":49.59552,"lon":17.25175}},{"facility":"Faculty Hospital Ostrava","city":"Ostrava","zip":"708 52","country":"Czech Republic","geoPoint":{"lat":49.83465,"lon":18.28204}},{"facility":"Municipal Hospital Ostrava","city":"Ostrava","zip":"728 80","country":"Czech Republic","geoPoint":{"lat":49.83465,"lon":18.28204}},{"facility":"Faculty Hospital 1","city":"Plzeň - Lochotín","zip":"304 60","country":"Czech Republic","geoPoint":{"lat":49.74747,"lon":13.37759}},{"facility":"General Faculty Hospital","city":"Praha","zip":"120 00","country":"Czech Republic","geoPoint":{"lat":50.08804,"lon":14.42076}},{"facility":"Faculty Hospital Motol","city":"Praha","zip":"150 06","country":"Czech Republic","geoPoint":{"lat":50.08804,"lon":14.42076}},{"facility":"Universitätsklinikum der RWTH Aachen","city":"Aachen","zip":"52074","country":"Germany","geoPoint":{"lat":50.77664,"lon":6.08342}},{"facility":"Kreiskrankenhaus Altenburg gGmbH","city":"Altenburg","zip":"04600","country":"Germany","geoPoint":{"lat":50.98763,"lon":12.43684}},{"facility":"Charité Universitätsmedizin Berlin","city":"Berlin","zip":"10117","country":"Germany","geoPoint":{"lat":52.52437,"lon":13.41053}},{"facility":"Charite Universitätsklinikum \"Benjamin Franklin\" Klinik und Poliklinik für Neurologie","city":"Berlin","zip":"12200","country":"Germany","geoPoint":{"lat":52.52437,"lon":13.41053}},{"facility":"Evangelisches Krankenhaus Bielefeld","city":"Bielefeld","zip":"33617","country":"Germany","geoPoint":{"lat":52.03333,"lon":8.53333}},{"facility":"Klinikum Bremen-Mitte gGmbH","city":"Bremen","zip":"28177","country":"Germany","geoPoint":{"lat":53.07516,"lon":8.80777}},{"facility":"Klinik für Neurologie Chemnitz","city":"Chemnitz","zip":"09131","country":"Germany","geoPoint":{"lat":50.8357,"lon":12.92922}},{"facility":"Marienhospital Düsseldorf","city":"Düsseldorf","zip":"40479","country":"Germany","geoPoint":{"lat":51.22172,"lon":6.77616}},{"facility":"Universität Erlangen-Nürnberg","city":"Erlangen","zip":"91054","country":"Germany","geoPoint":{"lat":49.59099,"lon":11.00783}},{"facility":"Universitätsklinikum Essen","city":"Essen","zip":"45122","country":"Germany","geoPoint":{"lat":51.45657,"lon":7.01228}},{"facility":"Neurologische Universitätsklinik Freiburg","city":"Freiburg","zip":"79106","country":"Germany","geoPoint":{"lat":47.9959,"lon":7.85222}},{"facility":"Berufsgenossenschaftliche Kliniken Bergmannstrost","city":"Halle (Saale)","zip":"06112","country":"Germany","geoPoint":{"lat":51.48159,"lon":11.97948}},{"facility":"Universitätsklinik Hamburg Eppendorf","city":"Hamburg","zip":"20246","country":"Germany","geoPoint":{"lat":53.57532,"lon":10.01534}},{"facility":"Universität Heidelberg","city":"Heidelberg","zip":"69120","country":"Germany","geoPoint":{"lat":49.40768,"lon":8.69079}},{"facility":"Friedrich-Schiller-Universitätsklinikum","city":"Jena","zip":"07747","country":"Germany","geoPoint":{"lat":50.92878,"lon":11.5899}},{"facility":"Universitätsklinikum Leipzig","city":"Leipzig","zip":"04103","country":"Germany","geoPoint":{"lat":51.33962,"lon":12.37129}},{"facility":"Klinikum der Stadt Ludwigshafen","city":"Ludwigshafen","zip":"67063","country":"Germany","geoPoint":{"lat":49.48121,"lon":8.44641}},{"facility":"Philipps-Universität Marburg","city":"Marburg","zip":"35039","country":"Germany","geoPoint":{"lat":50.80904,"lon":8.77069}},{"facility":"Technische Universität München Klinikum rechts der Isar","city":"München","zip":"81675","country":"Germany","geoPoint":{"lat":48.13743,"lon":11.57549}},{"facility":"Universitätsklinikum Münster","city":"Münster","zip":"48149","country":"Germany","geoPoint":{"lat":51.96236,"lon":7.62571}},{"facility":"Klinikum Osnabrück GmbH","city":"Osnabrück","zip":"49076","country":"Germany","geoPoint":{"lat":52.27264,"lon":8.0498}},{"facility":"Asklepios Fachklinikum Teupitz","city":"Teupitz","zip":"15755","country":"Germany","geoPoint":{"lat":52.12967,"lon":13.6196}},{"facility":"Neurologische Klinik, Eberhard-Karls-Universität Tübingen","city":"Tübingen","zip":"72076","country":"Germany","geoPoint":{"lat":48.52266,"lon":9.05222}},{"facility":"Universitätsklinikum Ulm","city":"Ulm","zip":"89081","country":"Germany","geoPoint":{"lat":48.39841,"lon":9.99155}},{"facility":"Klinika Neurologii z Pododdziałem Udarowym","city":"Białystok","zip":"15-276","country":"Poland","geoPoint":{"lat":53.13333,"lon":23.16433}},{"facility":"Wojewódzki Szpital Specjalistyczny im. Mikołaja Kopernika w Gdańsku, Oddział Neurologiczny i Leczenia Udarów Mózgu","city":"Gdańsk","zip":"80-803","country":"Poland","geoPoint":{"lat":54.35205,"lon":18.64637}},{"facility":"II Klinika Neurologii","city":"Warszawa","zip":"02-957","country":"Poland","geoPoint":{"lat":52.22977,"lon":21.01178}},{"facility":"Instytut Psychiatrii i Neurologii, I Klinika neurologii","city":"Warszawa","zip":"02-957","country":"Poland","geoPoint":{"lat":52.22977,"lon":21.01178}},{"facility":"Uniwersytecki Szpital Kliniczny im. Wojskowej Akademii Medycznej Uniwersytetu Medycznego w Łodzi, Centralny Szpital Weteranów, Klinika neurologii i epileptologii z oddziałem udarowym","city":"Łódź","zip":"90-549","country":"Poland","geoPoint":{"lat":51.75,"lon":19.46667}},{"facility":"Comenius University Bratislava","city":"Bratislava","zip":"813 69","country":"Slovakia","geoPoint":{"lat":48.14816,"lon":17.10674}},{"facility":"4. Faculty Hospital with Policlinic","city":"Bratislava","zip":"826 06","country":"Slovakia","geoPoint":{"lat":48.14816,"lon":17.10674}},{"facility":"Faculty Hospital L. Derer","city":"Bratislava","zip":"833 05","country":"Slovakia","geoPoint":{"lat":48.14816,"lon":17.10674}},{"facility":"Faculty Hospital","city":"Košice","zip":"041 66","country":"Slovakia","geoPoint":{"lat":48.71395,"lon":21.25808}},{"facility":"Faculty Hospital","city":"Martin","zip":"036 59","country":"Slovakia","geoPoint":{"lat":49.06651,"lon":18.92399}},{"facility":"Faculty Hospital Nitra","city":"Nitra","zip":"949 01","country":"Slovakia","geoPoint":{"lat":48.30763,"lon":18.08453}},{"facility":"Fakultna nemocnica Trnava","city":"Trnava","zip":"917 75","country":"Slovakia","geoPoint":{"lat":48.37741,"lon":17.58723}},{"facility":"Hospital Santa Creu i Sant Pau","city":"Barcelona","zip":"08025","country":"Spain","geoPoint":{"lat":41.38879,"lon":2.15899}},{"facility":"Hospital Clínic de Barcelona","city":"Barcelona","zip":"08036","country":"Spain","geoPoint":{"lat":41.38879,"lon":2.15899}},{"facility":"Hospital Dr. Josep Trueta","city":"Girona","zip":"17017","country":"Spain","geoPoint":{"lat":41.98311,"lon":2.82493}},{"facility":"Hospital de la Princesa","city":"Madrid","zip":"28006","country":"Spain","geoPoint":{"lat":40.4165,"lon":-3.70256}},{"facility":"Hospital Ramon y Cajal / Fundacion para le Investigacion Biomedica del Hospital Ramon y Cajal","city":"Madrid","zip":"28034","country":"Spain","geoPoint":{"lat":40.4165,"lon":-3.70256}},{"facility":"Hopsital Univ. La Paz / Fundacion para la Investigacion","city":"Madrid","zip":"28046","country":"Spain","geoPoint":{"lat":40.4165,"lon":-3.70256}},{"facility":"Hospital Univ. Virgen del Rocio","city":"Sevilla","zip":"41013","country":"Spain","geoPoint":{"lat":37.38283,"lon":-5.97317}},{"facility":"Hospital Clínico Universitario","city":"Valencia","zip":"46010","country":"Spain","geoPoint":{"lat":39.46975,"lon":-0.37739}}]},"referencesModule":{"references":[{"pmid":"33980046","type":"DERIVED","citation":"Scheldeman L, Wouters A, Dupont P, Christensen S, Boutitie F, Cheng B, Ebinger M, Endres M, Fiebach JB, Gerloff C, Muir KW, Nighoghossian N, Pedraza S, Simonsen CZ, Ringelstein EB, Chamorro A, Grond M, Laage R, Schneider A, Thomalla G, Thijs V, Lemmens R. Reversible Edema in the Penumbra Correlates With Severity of Hypoperfusion. Stroke. 2021 Jul;52(7):2338-2346. doi: 10.1161/STROKEAHA.120.033071. Epub 2021 May 13."},{"pmid":"33504185","type":"DERIVED","citation":"Bu N, Khlif MS, Lemmens R, Wouters A, Fiebach JB, Chamorro A, Ringelstein EB, Norrving B, Laage R, Grond M, Wilms G, Brodtmann A, Thijs V. Imaging Markers of Brain Frailty and Outcome in Patients With Acute Ischemic Stroke. Stroke. 2021 Mar;52(3):1004-1011. doi: 10.1161/STROKEAHA.120.029841. Epub 2021 Jan 28."},{"pmid":"25765724","type":"DERIVED","citation":"Kufner A, Wouters A, Bracoud L, Laage R, Schneider A, Schabitz WR, Hermier M, Thijs V, Fiebach JB; AXIS2 investigators. Infarct volume-based subgroup selection in acute ischemic stroke trials. Stroke. 2015 May;46(5):1368-70. doi: 10.1161/STROKEAHA.114.008115. Epub 2015 Mar 12."},{"pmid":"23963331","type":"DERIVED","citation":"Ringelstein EB, Thijs V, Norrving B, Chamorro A, Aichner F, Grond M, Saver J, Laage R, Schneider A, Rathgeb F, Vogt G, Charisse G, Fiebach JB, Schwab S, Schabitz WR, Kollmar R, Fisher M, Brozman M, Skoloudik D, Gruber F, Serena Leal J, Veltkamp R, Kohrmann M, Berrouschot J; AXIS 2 Investigators. Granulocyte colony-stimulating factor in patients with acute ischemic stroke: results of the AX200 for Ischemic Stroke trial. Stroke. 2013 Oct;44(10):2681-7. doi: 10.1161/STROKEAHA.113.001531. Epub 2013 Aug 20."}]}},"derivedSection":{"miscInfoModule":{"versionHolder":"2024-02-14","removedCountries":["Sweden"]},"conditionBrowseModule":{"meshes":[{"id":"D000020521","term":"Stroke"},{"id":"D000083242","term":"Ischemic Stroke"},{"id":"D000002544","term":"Cerebral Infarction"},{"id":"D000007511","term":"Ischemia"}],"ancestors":[{"id":"D000002561","term":"Cerebrovascular Disorders"},{"id":"D000001927","term":"Brain Diseases"},{"id":"D000002493","term":"Central Nervous System Diseases"},{"id":"D000009422","term":"Nervous System Diseases"},{"id":"D000014652","term":"Vascular Diseases"},{"id":"D000002318","term":"Cardiovascular Diseases"},{"id":"D000010335","term":"Pathologic Processes"},{"id":"D000020520","term":"Brain Infarction"},{"id":"D000002545","term":"Brain Ischemia"},{"id":"D000007238","term":"Infarction"},{"id":"D000009336","term":"Necrosis"}],"browseLeaves":[{"id":"M21996","name":"Stroke","asFound":"Stroke","relevance":"HIGH"},{"id":"M10233","name":"Ischemia","asFound":"Ischemic","relevance":"HIGH"},{"id":"M2401","name":"Ischemic Stroke","asFound":"Ischemic Stroke","relevance":"HIGH"},{"id":"M9972","name":"Infarction","relevance":"LOW"},{"id":"M5483","name":"Cerebral Infarction","asFound":"Ischemic Stroke","relevance":"HIGH"},{"id":"M5500","name":"Cerebrovascular Disorders","relevance":"LOW"},{"id":"M4894","name":"Brain Diseases","relevance":"LOW"},{"id":"M5432","name":"Central Nervous System Diseases","relevance":"LOW"},{"id":"M17090","name":"Vascular Diseases","relevance":"LOW"},{"id":"M21995","name":"Brain Infarction","relevance":"LOW"},{"id":"M5484","name":"Brain Ischemia","relevance":"LOW"},{"id":"M11974","name":"Necrosis","relevance":"LOW"},{"id":"T170","name":"Acute Graft Versus Host Disease","relevance":"LOW"}],"browseBranches":[{"abbrev":"BC10","name":"Nervous System Diseases"},{"abbrev":"BC14","name":"Heart and Blood Diseases"},{"abbrev":"All","name":"All Conditions"},{"abbrev":"BC23","name":"Symptoms and General Pathology"},{"abbrev":"Rare","name":"Rare Diseases"}]},"interventionBrowseModule":{"meshes":[{"id":"D000078224","term":"Lenograstim"}],"ancestors":[{"id":"D000000276","term":"Adjuvants, Immunologic"},{"id":"D000007155","term":"Immunologic Factors"},{"id":"D000045505","term":"Physiological Effects of Drugs"}],"browseLeaves":[{"id":"M21550","name":"Pharmaceutical Solutions","relevance":"LOW"},{"id":"M1945","name":"Lenograstim","asFound":"Pulmonary","relevance":"HIGH"},{"id":"M3318","name":"Adjuvants, Immunologic","relevance":"LOW"},{"id":"M9891","name":"Immunologic Factors","relevance":"LOW"}],"browseBranches":[{"abbrev":"PhSol","name":"Pharmaceutical Solutions"},{"abbrev":"All","name":"All Drugs and Chemicals"}]}},"hasResults":false}