{"protocolSection":{"identificationModule":{"nctId":"NCT05739383","orgStudyIdInfo":{"id":"CKJX839D12302"},"organization":{"fullName":"Novartis","class":"INDUSTRY"},"briefTitle":"A Study of Inclisiran to Prevent Cardiovascular Events in High-risk Primary Prevention Patients.","officialTitle":"A Randomized, Double-blind, Placebo-controlled Multicenter Study to Evaluate the Effect of Inclisiran on Preventing Major Adverse Cardiovascular Events in High-risk Primary Prevention Patients (VICTORION-1 PREVENT)"},"statusModule":{"statusVerifiedDate":"2024-01","overallStatus":"RECRUITING","expandedAccessInfo":{"hasExpandedAccess":false},"startDateStruct":{"date":"2023-03-09","type":"ACTUAL"},"primaryCompletionDateStruct":{"date":"2029-04-16","type":"ESTIMATED"},"completionDateStruct":{"date":"2029-04-16","type":"ESTIMATED"},"studyFirstSubmitDate":"2023-02-13","studyFirstSubmitQcDate":"2023-02-13","studyFirstPostDateStruct":{"date":"2023-02-22","type":"ACTUAL"},"lastUpdateSubmitDate":"2024-01-26","lastUpdatePostDateStruct":{"date":"2024-01-29","type":"ACTUAL"}},"sponsorCollaboratorsModule":{"responsibleParty":{"type":"SPONSOR"},"leadSponsor":{"name":"Novartis Pharmaceuticals","class":"INDUSTRY"}},"oversightModule":{"oversightHasDmc":true,"isFdaRegulatedDrug":true,"isFdaRegulatedDevice":false},"descriptionModule":{"briefSummary":"CKJX839D12302 is a pivotal Phase III study designed to test the hypothesis that treatment with inclisiran sodium 300 milligram (mg) subcutaneous (s.c.) administered on Day 1, Day 90, and every 6 months thereafter in patients at high cardiovascular (CV) risk without a prior major atherosclerotic cardiovascular disease (ASCVD) event will significantly reduce the risk of 4-Point-Major Adverse Cardiovascular Events (4P-MACE) defined as a composite of CV death, non-fatal myocardial infarction (MI), non-fatal ischemic stroke, and urgent coronary revascularization, compared to placebo.","detailedDescription":"The purpose of this study is to evaluate inclisiran sodium 300 mg s.c. (equivalent to 284 mg inclisiran) compared to placebo on reducing the risk of 4P-MACE in adult patients at high risk for their first major adverse cardiovascular event.\n\nRandomized participants will receive study medication (inclisiran or placebo), administered s.c. on Day 1, Day 90, then every 6 months thereafter. This is an event-driven study. Therefore, the study will continue until the required number of clinical events have occurred across both treatment arms, and all participants have a minimum of 3 years of follow-up during the double-blind treatment period."},"conditionsModule":{"conditions":["Primary Prevention of Atherosclerotic Cardiovascular Disease"],"keywords":["Inclisiran","PCSK9","primary prevention","cardiovascular disease","MACE","myocardial infarction","stroke","LDL-C","hyperlipidemia","hypercholesterolemia","dyslipidemia","cholesterol","Coronary Artery Disease (CAD)","Non-Obstructive Coronary Artery Disease (NOCAD)","Coronary Artery Calcium","Coronary artery stenosis","Coronary angiogram"]},"designModule":{"studyType":"INTERVENTIONAL","phases":["PHASE3"],"designInfo":{"allocation":"RANDOMIZED","interventionModel":"PARALLEL","primaryPurpose":"PREVENTION","maskingInfo":{"masking":"QUADRUPLE","whoMasked":["PARTICIPANT","CARE_PROVIDER","INVESTIGATOR","OUTCOMES_ASSESSOR"]}},"enrollmentInfo":{"count":14000,"type":"ESTIMATED"}},"armsInterventionsModule":{"armGroups":[{"label":"Inclisiran sodium 300mg","type":"EXPERIMENTAL","description":"Inclisiran sodium 300 mg in 1.5 mL solution for injection (subcutaneous) in pre-filled syringe.\n\nRandomized in a 1:1 ratio with matching placebo","interventionNames":["Drug: Inclisiran sodium 300 mg (equivalent to 284 mg inclisiran) in 1.5 mL"]},{"label":"Placebo","type":"PLACEBO_COMPARATOR","description":"Matching placebo in 1.5ml pre-filled syringe. Randomized in a 1:1 ratio with Inclisiran.","interventionNames":["Drug: Placebo in 1.5ml"]}],"interventions":[{"type":"DRUG","name":"Inclisiran sodium 300 mg (equivalent to 284 mg inclisiran) in 1.5 mL","description":"Subcutaneous injection in pre-filled syringe.","armGroupLabels":["Inclisiran sodium 300mg"],"otherNames":["KJX839"]},{"type":"DRUG","name":"Placebo in 1.5ml","description":"Matching placebo in 1.5ml solution for injection","armGroupLabels":["Placebo"]}]},"outcomesModule":{"primaryOutcomes":[{"measure":"Time to the first occurrence of 4P-MACE","description":"4-Point-Major Adverse Cardiovascular Events (4P-MACE): composite of cardiovascular death, non-fatal myocardial infarction, non-fatal ischemic stroke, and urgent coronary revascularization.","timeFrame":"Time to the first occurrence of 4P-MACE (up to approximately 75 months)"}],"secondaryOutcomes":[{"measure":"Time to the first occurrence of 3P-MACE","description":"3-Point-Major Adverse Cardiovascular Events (3P-MACE): composite of cardiovascular death, non-fatal myocardial infarction, and non-fatal ischemic stroke)","timeFrame":"Time to the first occurrence of 3P-MACE (up to approximately 75 months)"},{"measure":"Total number of first or repeated CV events (4P MACE)","description":"Total 4P-MACE (composite of cardiovascular death, non-fatal myocardial infarction, non-fatal ischemic stroke, and urgent coronary revascularization)","timeFrame":"up to 75 months"},{"measure":"Total number of first or repeated CV events (3P MACE)","description":"Total 3P-MACE (composite of cardiovascular death, non-fatal myocardial infarction, and non-fatal ischemic stroke)","timeFrame":"up to 75 months"},{"measure":"Time to occurrence of Cardiovascular death","description":"CV death is defined as death due to cardiovascular events.","timeFrame":"Time to Cardiovascular death (up to 75 months)"},{"measure":"Time to occurrence of death due to any reason","description":"All-cause mortality is death due to any reason.","timeFrame":"Time to all-cause mortality (up to 75 months)"}]},"eligibilityModule":{"eligibilityCriteria":"Inclusion Criteria:\n\n* At an increased risk for a first MACE (i.e., no prior major ASCVD event), defined as any one of the following:\n\n  1. Evidence of atherosclerotic coronary artery disease (CAD) on computer tomography (CT) or invasive coronary angiogram defined as a coronary artery stenosis ≥20% but \\<50% in the left main coronary artery or stenosis ≥20% but \\<70% in any other major epicardial coronary artery, or\n  2. Coronary artery calcium (CAC) score obtained by CT-scan ≥100 Agatston units, or\n  3. High 10-year ASCVD risk ≥20%, or\n  4. Intermediate 10-year ASCVD risk 7.5% - \\<20% with at least 2 risk-enhancing factors.\n* LDL-C ≥70 mg/dL (≥1.81 mmol/L) but \\<190 mg/dL (\\<4.91 mmol/L) at the screening visit. If on a background lipid lowering therapy, the dose should be stable for at least 4 weeks prior to the screening visit and the participant should be willing to remain on this background therapy for the entire duration of the study.\n\nExclusion Criteria:\n\n* History of major ASCVD event.\n* History of, or planned, ischemia-driven revascularization in a coronary or extracoronary arterial bed prior to randomization\n* Absence of coronary atherosclerosis on a CT angiogram or an invasive coronary angiogram in the 2 years prior to randomization\n* Coronary artery calcium (CAC) score of 0 obtained in the 2 years prior to randomization\n* Active liver disease or hepatic dysfunction\n* Previous, current, or planned treatment with a monoclonal antibody (mAb) directed toward proprotein convertase subtilisin/kexin type 9 (PCSK9) (e.g., evolocumab, alirocumab)\n* Pregnant or nursing (lactating) women\n* Women of childbearing potential unless they are using effective methods of contraception while taking study treatment which includes for 6 months after last study drug administration\n\nOther protocol-defined inclusion/exclusion criteria may apply.","healthyVolunteers":false,"sex":"ALL","minimumAge":"40 Years","maximumAge":"79 Years","stdAges":["ADULT","OLDER_ADULT"]},"contactsLocationsModule":{"centralContacts":[{"name":"Novartis Pharmaceuticals","role":"CONTACT","phone":"1-888-669-6682","email":"novartis.email@novartis.com"},{"name":"Novartis Pharmaceuticals","role":"CONTACT","phone":"+41613241111"}],"overallOfficials":[{"name":"Novartis Pharmaceuticals","affiliation":"Novartis Pharmaceuticals","role":"STUDY_DIRECTOR"}],"locations":[{"facility":"Novartis Investigative Site","status":"RECRUITING","city":"Birmingham","state":"Alabama","zip":"35209","country":"United States","geoPoint":{"lat":33.52066,"lon":-86.80249}},{"facility":"Novartis Investigative Site","status":"RECRUITING","city":"Birmingham","state":"Alabama","zip":"35211","country":"United States","geoPoint":{"lat":33.52066,"lon":-86.80249}},{"facility":"Novartis Investigative Site","status":"RECRUITING","city":"Fairhope","state":"Alabama","zip":"36532","country":"United States","geoPoint":{"lat":30.52297,"lon":-87.90333}},{"facility":"Novartis Investigative Site","status":"RECRUITING","city":"Foley","state":"Alabama","zip":"36535","country":"United States","geoPoint":{"lat":30.40659,"lon":-87.6836}},{"facility":"Novartis Investigative Site","status":"RECRUITING","city":"Huntsville","state":"Alabama","zip":"35801","country":"United States","geoPoint":{"lat":34.7304,"lon":-86.58594}},{"facility":"Novartis Investigative Site","status":"RECRUITING","city":"Mobile","state":"Alabama","zip":"36608","country":"United States","geoPoint":{"lat":30.69436,"lon":-88.04305}},{"facility":"Novartis Investigative Site","status":"RECRUITING","city":"Anchorage","state":"Alaska","zip":"99508","country":"United States","geoPoint":{"lat":61.21806,"lon":-149.90028}},{"facility":"Novartis Investigative Site","status":"RECRUITING","city":"Glendale","state":"Arizona","zip":"85306","country":"United States","geoPoint":{"lat":33.53865,"lon":-112.18599}},{"facility":"Novartis Investigative Site","status":"RECRUITING","city":"Glendale","state":"Arizona","zip":"85308","country":"United States","geoPoint":{"lat":33.53865,"lon":-112.18599}},{"facility":"Novartis Investigative Site","status":"RECRUITING","city":"Phoenix","state":"Arizona","zip":"85044","country":"United States","geoPoint":{"lat":33.44838,"lon":-112.07404}},{"facility":"Novartis Investigative Site","status":"RECRUITING","city":"Sun City West","state":"Arizona","zip":"85375","country":"United States","geoPoint":{"lat":33.66198,"lon":-112.34127}},{"facility":"Novartis Investigative Site","status":"RECRUITING","city":"Tucson","state":"Arizona","zip":"85741","country":"United States","geoPoint":{"lat":32.22174,"lon":-110.92648}},{"facility":"Novartis Investigative Site","status":"RECRUITING","city":"Beverly Hills","state":"California","zip":"90210","country":"United States","geoPoint":{"lat":34.07362,"lon":-118.40036}},{"facility":"Novartis Investigative Site","status":"RECRUITING","city":"Beverly Hills","state":"California","zip":"90211","country":"United States","geoPoint":{"lat":34.07362,"lon":-118.40036}},{"facility":"Novartis Investigative Site","status":"RECRUITING","city":"Canoga Park","state":"California","zip":"91303","country":"United States","geoPoint":{"lat":34.20112,"lon":-118.59814}},{"facility":"Novartis Investigative Site","status":"RECRUITING","city":"Newhall","state":"California","zip":"91321","country":"United States","geoPoint":{"lat":34.38472,"lon":-118.53092}},{"facility":"Novartis Investigative Site","status":"RECRUITING","city":"Northridge","state":"California","zip":"91325","country":"United States","geoPoint":{"lat":34.22834,"lon":-118.53675}},{"facility":"Novartis Investigative Site","status":"RECRUITING","city":"Sacramento","state":"California","zip":"95821-2134","country":"United States","geoPoint":{"lat":38.58157,"lon":-121.4944}},{"facility":"Novartis Investigative Site","status":"RECRUITING","city":"Sacramento","state":"California","zip":"95841","country":"United States","geoPoint":{"lat":38.58157,"lon":-121.4944}},{"facility":"Novartis Investigative Site","status":"RECRUITING","city":"San Diego","state":"California","zip":"92103","country":"United States","geoPoint":{"lat":32.71533,"lon":-117.15726}},{"facility":"Novartis Investigative Site","status":"RECRUITING","city":"San Diego","state":"California","zip":"92108","country":"United States","geoPoint":{"lat":32.71533,"lon":-117.15726}},{"facility":"Novartis Investigative Site","status":"RECRUITING","city":"San Diego","state":"California","zip":"92120","country":"United States","geoPoint":{"lat":32.71533,"lon":-117.15726}},{"facility":"Novartis Investigative Site","status":"RECRUITING","city":"Spring Valley","state":"California","zip":"91978","country":"United States","geoPoint":{"lat":32.74477,"lon":-116.99892}},{"facility":"Novartis Investigative Site","status":"RECRUITING","city":"Stanford","state":"California","zip":"94305","country":"United States","geoPoint":{"lat":37.42411,"lon":-122.16608}},{"facility":"Novartis Investigative Site","status":"RECRUITING","city":"Tustin","state":"California","zip":"92780","country":"United States","geoPoint":{"lat":33.74585,"lon":-117.82617}},{"facility":"Novartis Investigative Site","status":"RECRUITING","city":"Ventura","state":"California","zip":"93003","country":"United States","geoPoint":{"lat":34.27834,"lon":-119.29317}},{"facility":"Novartis Investigative Site","status":"RECRUITING","city":"Vista","state":"California","zip":"92081","country":"United States","geoPoint":{"lat":33.20004,"lon":-117.24254}},{"facility":"Novartis Investigative Site","status":"RECRUITING","city":"West Hills","state":"California","zip":"91307","country":"United States","geoPoint":{"lat":34.19731,"lon":-118.64398}},{"facility":"Novartis Investigative Site","status":"RECRUITING","city":"Littleton","state":"Colorado","zip":"80120","country":"United States","geoPoint":{"lat":39.61332,"lon":-105.01665}},{"facility":"Novartis Investigative Site","status":"RECRUITING","city":"Stamford","state":"Connecticut","zip":"06905","country":"United States","geoPoint":{"lat":41.05343,"lon":-73.53873}},{"facility":"Novartis Investigative Site","status":"RECRUITING","city":"Boca Raton","state":"Florida","zip":"33434","country":"United States","geoPoint":{"lat":26.3669,"lon":-80.13033}},{"facility":"Novartis Investigative Site","status":"RECRUITING","city":"Bradenton","state":"Florida","zip":"34209","country":"United States","geoPoint":{"lat":27.49893,"lon":-82.57482}},{"facility":"Novartis Investigative Site","status":"RECRUITING","city":"Clearwater","state":"Florida","zip":"33756","country":"United States","geoPoint":{"lat":27.96585,"lon":-82.8001}},{"facility":"Novartis Investigative Site","status":"RECRUITING","city":"Clearwater","state":"Florida","zip":"33761","country":"United States","geoPoint":{"lat":27.96585,"lon":-82.8001}},{"facility":"Novartis Investigative Site","status":"RECRUITING","city":"Daytona Beach","state":"Florida","zip":"32117","country":"United States","geoPoint":{"lat":29.21081,"lon":-81.02283}},{"facility":"Novartis Investigative Site","status":"RECRUITING","city":"DeLand","state":"Florida","zip":"32720","country":"United States","geoPoint":{"lat":29.02832,"lon":-81.30312}},{"facility":"Novartis Investigative Site","status":"RECRUITING","city":"Fleming Island","state":"Florida","zip":"32003","country":"United States","geoPoint":{"lat":30.0933,"lon":-81.71898}},{"facility":"Novartis Investigative Site","status":"RECRUITING","city":"Fort Lauderdale","state":"Florida","zip":"33308","country":"United States","geoPoint":{"lat":26.12231,"lon":-80.14338}},{"facility":"Novartis Investigative Site","status":"RECRUITING","city":"Hialeah","state":"Florida","zip":"33012","country":"United States","geoPoint":{"lat":25.8576,"lon":-80.27811}},{"facility":"Novartis Investigative Site","status":"RECRUITING","city":"Hialeah","state":"Florida","zip":"33013","country":"United States","geoPoint":{"lat":25.8576,"lon":-80.27811}},{"facility":"Novartis Investigative Site","status":"RECRUITING","city":"Hollywood","state":"Florida","zip":"33021","country":"United States","geoPoint":{"lat":26.0112,"lon":-80.14949}},{"facility":"Novartis Investigative Site","status":"RECRUITING","city":"Jacksonville","state":"Florida","zip":"32223","country":"United States","geoPoint":{"lat":30.33218,"lon":-81.65565}},{"facility":"Novartis Investigative Site","status":"RECRUITING","city":"Miami Gardens","state":"Florida","zip":"33014","country":"United States","geoPoint":{"lat":25.94298,"lon":-80.24452}},{"facility":"Novartis Investigative Site","status":"RECRUITING","city":"Miami Lakes","state":"Florida","zip":"33014","country":"United States","geoPoint":{"lat":25.90871,"lon":-80.30866}},{"facility":"Novartis Investigative Site","status":"RECRUITING","city":"Miami","state":"Florida","zip":"33125","country":"United States","geoPoint":{"lat":25.77427,"lon":-80.19366}},{"facility":"Novartis Investigative Site","status":"RECRUITING","city":"Miami","state":"Florida","zip":"33126","country":"United States","geoPoint":{"lat":25.77427,"lon":-80.19366}},{"facility":"Novartis Investigative Site","status":"RECRUITING","city":"Miami","state":"Florida","zip":"33133","country":"United States","geoPoint":{"lat":25.77427,"lon":-80.19366}},{"facility":"Novartis Investigative Site","status":"RECRUITING","city":"Miami","state":"Florida","zip":"33135","country":"United States","geoPoint":{"lat":25.77427,"lon":-80.19366}},{"facility":"Novartis Investigative Site","status":"RECRUITING","city":"Miami","state":"Florida","zip":"33143","country":"United States","geoPoint":{"lat":25.77427,"lon":-80.19366}},{"facility":"Novartis Investigative Site","status":"RECRUITING","city":"Miami","state":"Florida","zip":"33144","country":"United States","geoPoint":{"lat":25.77427,"lon":-80.19366}},{"facility":"Novartis Investigative Site","status":"RECRUITING","city":"Miami","state":"Florida","zip":"33156","country":"United States","geoPoint":{"lat":25.77427,"lon":-80.19366}},{"facility":"Novartis Investigative Site","status":"RECRUITING","city":"Miami","state":"Florida","zip":"33186","country":"United States","geoPoint":{"lat":25.77427,"lon":-80.19366}},{"facility":"Novartis Investigative Site","status":"RECRUITING","city":"Miramar","state":"Florida","zip":"33027","country":"United States","geoPoint":{"lat":25.98731,"lon":-80.23227}},{"facility":"Novartis Investigative Site","status":"RECRUITING","city":"Ocala","state":"Florida","zip":"34480","country":"United States","geoPoint":{"lat":29.1872,"lon":-82.14009}},{"facility":"Novartis Investigative Site","status":"RECRUITING","city":"Palm Springs","state":"Florida","zip":"33406","country":"United States","geoPoint":{"lat":26.6359,"lon":-80.09615}},{"facility":"Novartis Investigative Site","status":"RECRUITING","city":"Pembroke Pines","state":"Florida","zip":"33029","country":"United States","geoPoint":{"lat":26.00315,"lon":-80.22394}},{"facility":"Novartis Investigative Site","status":"RECRUITING","city":"Pinellas Park","state":"Florida","zip":"33781","country":"United States","geoPoint":{"lat":27.8428,"lon":-82.69954}},{"facility":"Novartis Investigative Site","status":"RECRUITING","city":"Plant City","state":"Florida","zip":"33563","country":"United States","geoPoint":{"lat":28.01888,"lon":-82.11469}},{"facility":"Novartis Investigative Site","status":"RECRUITING","city":"Ponte Vedra","state":"Florida","zip":"32801","country":"United States","geoPoint":{"lat":30.22746,"lon":-81.38008}},{"facility":"Novartis Investigative Site","status":"RECRUITING","city":"Port Charlotte","state":"Florida","zip":"33952","country":"United States","geoPoint":{"lat":26.97617,"lon":-82.09064}},{"facility":"Novartis Investigative Site","status":"RECRUITING","city":"Saint Augustine","state":"Florida","zip":"32086","country":"United States","geoPoint":{"lat":29.89469,"lon":-81.31452}},{"facility":"Novartis Investigative Site","status":"RECRUITING","city":"Saint Petersburg","state":"Florida","zip":"33713","country":"United States","geoPoint":{"lat":27.77086,"lon":-82.67927}},{"facility":"Novartis Investigative Site","status":"RECRUITING","city":"Sarasota","state":"Florida","zip":"34239","country":"United States","geoPoint":{"lat":27.33643,"lon":-82.53065}},{"facility":"Novartis Investigative Site","status":"RECRUITING","city":"Wellington","state":"Florida","zip":"33449","country":"United States","geoPoint":{"lat":26.65868,"lon":-80.24144}},{"facility":"Novartis Investigative Site","status":"RECRUITING","city":"Canton","state":"Georgia","zip":"30114","country":"United States","geoPoint":{"lat":34.23676,"lon":-84.49076}},{"facility":"Novartis Investigative Site","status":"RECRUITING","city":"Fayetteville","state":"Georgia","zip":"30214","country":"United States","geoPoint":{"lat":33.44873,"lon":-84.45493}},{"facility":"Novartis Investigative Site","status":"RECRUITING","city":"Peachtree Corners","state":"Georgia","zip":"30092","country":"United States","geoPoint":{"lat":33.9701,"lon":-84.22159}},{"facility":"Novartis Investigative Site","status":"RECRUITING","city":"Tucker","state":"Georgia","zip":"30084","country":"United States","geoPoint":{"lat":33.85455,"lon":-84.21714}},{"facility":"Novartis Investigative Site","status":"RECRUITING","city":"Honolulu","state":"Hawaii","zip":"96814","country":"United States","geoPoint":{"lat":21.30694,"lon":-157.85833}},{"facility":"Novartis Investigative Site","status":"RECRUITING","city":"Arlington Heights","state":"Illinois","zip":"60005","country":"United States","geoPoint":{"lat":42.08836,"lon":-87.98063}},{"facility":"Novartis Investigative Site","status":"RECRUITING","city":"Chicago","state":"Illinois","zip":"60607","country":"United States","geoPoint":{"lat":41.85003,"lon":-87.65005}},{"facility":"Novartis Investigative Site","status":"RECRUITING","city":"Valparaiso","state":"Indiana","zip":"46383","country":"United States","geoPoint":{"lat":41.47309,"lon":-87.06114}},{"facility":"Novartis Investigative Site","status":"RECRUITING","city":"Council Bluffs","state":"Iowa","zip":"51501","country":"United States","geoPoint":{"lat":41.26194,"lon":-95.86083}},{"facility":"Novartis Investigative Site","status":"RECRUITING","city":"Lexington","state":"Kentucky","zip":"40503","country":"United States","geoPoint":{"lat":37.98869,"lon":-84.47772}},{"facility":"Novartis Investigative Site","status":"RECRUITING","city":"Owensboro","state":"Kentucky","zip":"42303","country":"United States","geoPoint":{"lat":37.77422,"lon":-87.11333}},{"facility":"Novartis Investigative Site","status":"RECRUITING","city":"Alexandria","state":"Louisiana","zip":"71301","country":"United States","geoPoint":{"lat":31.31129,"lon":-92.44514}},{"facility":"Novartis Investigative Site","status":"RECRUITING","city":"Covington","state":"Louisiana","zip":"70433","country":"United States","geoPoint":{"lat":30.47549,"lon":-90.10042}},{"facility":"Novartis Investigative Site","status":"RECRUITING","city":"Crowley","state":"Louisiana","zip":"70526","country":"United States","geoPoint":{"lat":30.21409,"lon":-92.37458}},{"facility":"Novartis Investigative Site","status":"RECRUITING","city":"Hammond","state":"Louisiana","zip":"70403","country":"United States","geoPoint":{"lat":30.50463,"lon":-90.46293}},{"facility":"Novartis Investigative Site","status":"RECRUITING","city":"Mandeville","state":"Louisiana","zip":"70448","country":"United States","geoPoint":{"lat":30.35825,"lon":-90.06563}},{"facility":"Novartis Investigative Site","status":"RECRUITING","city":"Marrero","state":"Louisiana","zip":"70072","country":"United States","geoPoint":{"lat":29.89937,"lon":-90.10035}},{"facility":"Novartis Investigative Site","status":"RECRUITING","city":"Metairie","state":"Louisiana","zip":"70006","country":"United States","geoPoint":{"lat":29.98409,"lon":-90.15285}},{"facility":"Novartis Investigative Site","status":"RECRUITING","city":"Natchitoches","state":"Louisiana","zip":"71457","country":"United States","geoPoint":{"lat":31.76072,"lon":-93.08627}},{"facility":"Novartis Investigative Site","status":"RECRUITING","city":"Opelousas","state":"Louisiana","zip":"70570","country":"United States","geoPoint":{"lat":30.53353,"lon":-92.08151}},{"facility":"Novartis Investigative Site","status":"RECRUITING","city":"Shreveport","state":"Louisiana","zip":"71103","country":"United States","geoPoint":{"lat":32.52515,"lon":-93.75018}},{"facility":"Novartis Investigative Site","status":"RECRUITING","city":"Slidell","state":"Louisiana","zip":"70458","country":"United States","geoPoint":{"lat":30.27519,"lon":-89.78117}},{"facility":"Novartis Investigative Site","status":"RECRUITING","city":"Zachary","state":"Louisiana","zip":"70791","country":"United States","geoPoint":{"lat":30.64852,"lon":-91.1565}},{"facility":"Novartis Investigative Site","status":"RECRUITING","city":"Baltimore","state":"Maryland","zip":"21229","country":"United States","geoPoint":{"lat":39.29038,"lon":-76.61219}},{"facility":"Novartis Investigative Site","status":"RECRUITING","city":"Beltsville","state":"Maryland","zip":"20705","country":"United States","geoPoint":{"lat":39.03483,"lon":-76.90747}},{"facility":"Novartis Investigative Site","status":"RECRUITING","city":"Fort Washington","state":"Maryland","zip":"20744","country":"United States","geoPoint":{"lat":38.70734,"lon":-77.02303}},{"facility":"Novartis Investigative Site","status":"RECRUITING","city":"Towson","state":"Maryland","zip":"21204","country":"United States","geoPoint":{"lat":39.4015,"lon":-76.60191}},{"facility":"Novartis Investigative Site","status":"RECRUITING","city":"Worcester","state":"Massachusetts","zip":"01655","country":"United States","geoPoint":{"lat":42.26259,"lon":-71.80229}},{"facility":"Novartis Investigative Site","status":"RECRUITING","city":"Detroit","state":"Michigan","zip":"48202","country":"United States","geoPoint":{"lat":42.33143,"lon":-83.04575}},{"facility":"Novartis Investigative Site","status":"RECRUITING","city":"Flint","state":"Michigan","zip":"48504","country":"United States","geoPoint":{"lat":43.01253,"lon":-83.68746}},{"facility":"Novartis Investigative Site","status":"RECRUITING","city":"Midland","state":"Michigan","zip":"48670","country":"United States","geoPoint":{"lat":43.61558,"lon":-84.24721}},{"facility":"Novartis Investigative Site","status":"RECRUITING","city":"Troy","state":"Michigan","zip":"48098","country":"United States","geoPoint":{"lat":42.60559,"lon":-83.14993}},{"facility":"Novartis Investigative Site","status":"RECRUITING","city":"Ypsilanti","state":"Michigan","zip":"48197","country":"United States","geoPoint":{"lat":42.24115,"lon":-83.61299}},{"facility":"Novartis Investigative Site","status":"RECRUITING","city":"Duluth","state":"Minnesota","zip":"55805","country":"United States","geoPoint":{"lat":46.78327,"lon":-92.10658}},{"facility":"Novartis Investigative Site","status":"RECRUITING","city":"Minneapolis","state":"Minnesota","zip":"55407-3799","country":"United States","geoPoint":{"lat":44.97997,"lon":-93.26384}},{"facility":"Novartis Investigative Site","status":"RECRUITING","city":"Richfield","state":"Minnesota","zip":"55432","country":"United States","geoPoint":{"lat":44.8833,"lon":-93.283}},{"facility":"Novartis Investigative Site","status":"RECRUITING","city":"Saint Louis Park","state":"Minnesota","zip":"55416","country":"United States","geoPoint":{"lat":44.9483,"lon":-93.34801}},{"facility":"Novartis Investigative Site","status":"RECRUITING","city":"Jackson","state":"Mississippi","zip":"39211","country":"United States","geoPoint":{"lat":32.29876,"lon":-90.18481}},{"facility":"Novartis Investigative Site","status":"RECRUITING","city":"Tupelo","state":"Mississippi","zip":"38801","country":"United States","geoPoint":{"lat":34.25807,"lon":-88.70464}},{"facility":"Novartis Investigative Site","status":"RECRUITING","city":"Kansas City","state":"Missouri","zip":"64128","country":"United States","geoPoint":{"lat":39.09973,"lon":-94.57857}},{"facility":"Novartis Investigative Site","status":"RECRUITING","city":"Saint Louis","state":"Missouri","zip":"63125-4181","country":"United States","geoPoint":{"lat":38.62727,"lon":-90.19789}},{"facility":"Novartis Investigative Site","status":"RECRUITING","city":"Saint Louis","state":"Missouri","zip":"63141","country":"United States","geoPoint":{"lat":38.62727,"lon":-90.19789}},{"facility":"Novartis Investigative Site","status":"RECRUITING","city":"Saint Peters","state":"Missouri","zip":"63303","country":"United States","geoPoint":{"lat":38.80033,"lon":-90.62651}},{"facility":"Novartis Investigative Site","status":"RECRUITING","city":"Butte","state":"Montana","zip":"59701","country":"United States","geoPoint":{"lat":46.00382,"lon":-112.53474}},{"facility":"Novartis Investigative Site","status":"RECRUITING","city":"Lincoln","state":"Nebraska","zip":"68516","country":"United States","geoPoint":{"lat":40.8,"lon":-96.66696}},{"facility":"Novartis Investigative Site","status":"RECRUITING","city":"Omaha","state":"Nebraska","zip":"68114","country":"United States","geoPoint":{"lat":41.25626,"lon":-95.94043}},{"facility":"Novartis Investigative Site","status":"RECRUITING","city":"Henderson","state":"Nevada","zip":"89074","country":"United States","geoPoint":{"lat":36.0397,"lon":-114.98194}},{"facility":"Novartis Investigative Site","status":"RECRUITING","city":"Las Vegas","state":"Nevada","zip":"89119","country":"United States","geoPoint":{"lat":36.17497,"lon":-115.13722}},{"facility":"Novartis Investigative Site","status":"RECRUITING","city":"Las Vegas","state":"Nevada","zip":"89121","country":"United States","geoPoint":{"lat":36.17497,"lon":-115.13722}},{"facility":"Novartis Investigative Site","status":"RECRUITING","city":"Bridgewater","state":"New Jersey","zip":"08807","country":"United States","geoPoint":{"lat":40.60079,"lon":-74.64815}},{"facility":"Novartis Investigative Site","status":"RECRUITING","city":"Linden","state":"New Jersey","zip":"07036","country":"United States","geoPoint":{"lat":40.62205,"lon":-74.24459}},{"facility":"Novartis Investigative Site","status":"RECRUITING","city":"Albany","state":"New York","zip":"12206","country":"United States","geoPoint":{"lat":42.65258,"lon":-73.75623}},{"facility":"Novartis Investigative Site","status":"RECRUITING","city":"Albany","state":"New York","zip":"12211","country":"United States","geoPoint":{"lat":42.65258,"lon":-73.75623}},{"facility":"Novartis Investigative Site","status":"RECRUITING","city":"Bronx","state":"New York","zip":"10468","country":"United States","geoPoint":{"lat":40.84985,"lon":-73.86641}},{"facility":"Novartis Investigative Site","status":"RECRUITING","city":"New Windsor","state":"New York","zip":"12553","country":"United States","geoPoint":{"lat":41.47676,"lon":-74.02375}},{"facility":"Novartis Investigative Site","status":"RECRUITING","city":"Westfield","state":"New York","zip":"14787","country":"United States","geoPoint":{"lat":42.32228,"lon":-79.5781}},{"facility":"Novartis Investigative Site","status":"RECRUITING","city":"Cary","state":"North Carolina","zip":"27511","country":"United States","geoPoint":{"lat":35.79154,"lon":-78.78112}},{"facility":"Novartis Investigative Site","status":"RECRUITING","city":"Greensboro","state":"North Carolina","zip":"27403","country":"United States","geoPoint":{"lat":36.07264,"lon":-79.79198}},{"facility":"Novartis Investigative Site","status":"RECRUITING","city":"Greensboro","state":"North Carolina","zip":"27408","country":"United States","geoPoint":{"lat":36.07264,"lon":-79.79198}},{"facility":"Novartis Investigative Site","status":"RECRUITING","city":"Raleigh","state":"North Carolina","zip":"27609","country":"United States","geoPoint":{"lat":35.7721,"lon":-78.63861}},{"facility":"Novartis Investigative Site","status":"RECRUITING","city":"Statesville","state":"North Carolina","zip":"28625","country":"United States","geoPoint":{"lat":35.78264,"lon":-80.8873}},{"facility":"Novartis Investigative Site","status":"RECRUITING","city":"Winston-Salem","state":"North Carolina","zip":"27157","country":"United States","geoPoint":{"lat":36.09986,"lon":-80.24422}},{"facility":"Novartis Investigative Site","status":"RECRUITING","city":"Fargo","state":"North Dakota","zip":"58103","country":"United States","geoPoint":{"lat":46.87719,"lon":-96.7898}},{"facility":"Novartis Investigative Site","status":"RECRUITING","city":"Grand Forks","state":"North Dakota","zip":"58201","country":"United States","geoPoint":{"lat":47.92526,"lon":-97.03285}},{"facility":"Novartis Investigative Site","status":"RECRUITING","city":"Canton","state":"Ohio","zip":"44710","country":"United States","geoPoint":{"lat":40.79895,"lon":-81.37845}},{"facility":"Novartis Investigative Site","status":"RECRUITING","city":"Cincinnati","state":"Ohio","zip":"45236","country":"United States","geoPoint":{"lat":39.12713,"lon":-84.51435}},{"facility":"Novartis Investigative Site","status":"RECRUITING","city":"Columbus","state":"Ohio","zip":"43212","country":"United States","geoPoint":{"lat":39.96118,"lon":-82.99879}},{"facility":"Novartis Investigative Site","status":"RECRUITING","city":"Dayton","state":"Ohio","zip":"45429","country":"United States","geoPoint":{"lat":39.75895,"lon":-84.19161}},{"facility":"Novartis Investigative Site","status":"RECRUITING","city":"Dayton","state":"Ohio","zip":"45439","country":"United States","geoPoint":{"lat":39.75895,"lon":-84.19161}},{"facility":"Novartis Investigative Site","status":"RECRUITING","city":"Lima","state":"Ohio","zip":"45805","country":"United States","geoPoint":{"lat":40.74255,"lon":-84.10523}},{"facility":"Novartis Investigative Site","status":"RECRUITING","city":"Marion","state":"Ohio","zip":"43302","country":"United States","geoPoint":{"lat":40.58867,"lon":-83.12852}},{"facility":"Novartis Investigative Site","status":"RECRUITING","city":"Springfield","state":"Ohio","zip":"45504","country":"United States","geoPoint":{"lat":39.92423,"lon":-83.80882}},{"facility":"Novartis Investigative Site","status":"RECRUITING","city":"Oklahoma City","state":"Oklahoma","zip":"73134","country":"United States","geoPoint":{"lat":35.46756,"lon":-97.51643}},{"facility":"Novartis Investigative Site","status":"RECRUITING","city":"Oklahoma City","state":"Oklahoma","zip":"73135","country":"United States","geoPoint":{"lat":35.46756,"lon":-97.51643}},{"facility":"Novartis Investigative Site","status":"RECRUITING","city":"Hatboro","state":"Pennsylvania","zip":"19040","country":"United States","geoPoint":{"lat":40.17428,"lon":-75.10684}},{"facility":"Novartis Investigative Site","status":"RECRUITING","city":"Newport","state":"Pennsylvania","zip":"17074","country":"United States","geoPoint":{"lat":40.47786,"lon":-77.13054}},{"facility":"Novartis Investigative Site","status":"RECRUITING","city":"Pittsburgh","state":"Pennsylvania","zip":"15212","country":"United States","geoPoint":{"lat":40.44062,"lon":-79.99589}},{"facility":"Novartis Investigative Site","status":"RECRUITING","city":"Warwick","state":"Rhode Island","zip":"02886","country":"United States","geoPoint":{"lat":41.7001,"lon":-71.41617}},{"facility":"Novartis Investigative Site","status":"RECRUITING","city":"Anderson","state":"South Carolina","zip":"29621","country":"United States","geoPoint":{"lat":34.50344,"lon":-82.65013}},{"facility":"Novartis Investigative Site","status":"RECRUITING","city":"Greenville","state":"South Carolina","zip":"29607","country":"United States","geoPoint":{"lat":34.85262,"lon":-82.39401}},{"facility":"Novartis Investigative Site","status":"RECRUITING","city":"Greer","state":"South Carolina","zip":"29651","country":"United States","geoPoint":{"lat":34.93873,"lon":-82.22706}},{"facility":"Novartis Investigative Site","status":"RECRUITING","city":"Ladson","state":"South Carolina","zip":"29465","country":"United States","geoPoint":{"lat":32.98573,"lon":-80.10981}},{"facility":"Novartis Investigative Site","status":"RECRUITING","city":"Little River","state":"South Carolina","zip":"29566","country":"United States","geoPoint":{"lat":33.87323,"lon":-78.61418}},{"facility":"Novartis Investigative Site","status":"RECRUITING","city":"Rapid City","state":"South Dakota","zip":"57701","country":"United States","geoPoint":{"lat":44.08054,"lon":-103.23101}},{"facility":"Novartis Investigative Site","status":"RECRUITING","city":"Greenville","state":"Tennessee","zip":"37745","country":"United States","geoPoint":{"lat":36.297,"lon":-86.88833}},{"facility":"Novartis Investigative Site","status":"RECRUITING","city":"Jackson","state":"Tennessee","zip":"38301","country":"United States","geoPoint":{"lat":35.61452,"lon":-88.81395}},{"facility":"Novartis Investigative Site","status":"RECRUITING","city":"Kingsport","state":"Tennessee","zip":"37660","country":"United States","geoPoint":{"lat":36.54843,"lon":-82.56182}},{"facility":"Novartis Investigative Site","status":"RECRUITING","city":"Powell","state":"Tennessee","zip":"37849","country":"United States","geoPoint":{"lat":36.03175,"lon":-84.02797}},{"facility":"Novartis Investigative Site","status":"RECRUITING","city":"Tullahoma","state":"Tennessee","zip":"37388","country":"United States","geoPoint":{"lat":35.36202,"lon":-86.20943}},{"facility":"Novartis Investigative Site","status":"RECRUITING","city":"Amarillo","state":"Texas","zip":"79106","country":"United States","geoPoint":{"lat":35.222,"lon":-101.8313}},{"facility":"Novartis Investigative Site","status":"RECRUITING","city":"Amarillo","state":"Texas","zip":"79124","country":"United States","geoPoint":{"lat":35.222,"lon":-101.8313}},{"facility":"Novartis Investigative Site","status":"RECRUITING","city":"Bedford","state":"Texas","zip":"76021","country":"United States","geoPoint":{"lat":32.84402,"lon":-97.14307}},{"facility":"Novartis Investigative Site","status":"RECRUITING","city":"Dallas","state":"Texas","zip":"75216","country":"United States","geoPoint":{"lat":32.78306,"lon":-96.80667}},{"facility":"Novartis Investigative Site","status":"RECRUITING","city":"Dallas","state":"Texas","zip":"75230","country":"United States","geoPoint":{"lat":32.78306,"lon":-96.80667}},{"facility":"Novartis Investigative Site","status":"RECRUITING","city":"Dallas","state":"Texas","zip":"75235","country":"United States","geoPoint":{"lat":32.78306,"lon":-96.80667}},{"facility":"Novartis Investigative Site","status":"RECRUITING","city":"Edinburg","state":"Texas","zip":"78539","country":"United States","geoPoint":{"lat":26.30174,"lon":-98.16334}},{"facility":"Novartis Investigative Site","status":"RECRUITING","city":"El Paso","state":"Texas","zip":"79905","country":"United States","geoPoint":{"lat":31.75872,"lon":-106.48693}},{"facility":"Novartis Investigative Site","status":"RECRUITING","city":"Houston","state":"Texas","zip":"77002","country":"United States","geoPoint":{"lat":29.76328,"lon":-95.36327}},{"facility":"Novartis Investigative Site","status":"RECRUITING","city":"Houston","state":"Texas","zip":"77024","country":"United States","geoPoint":{"lat":29.76328,"lon":-95.36327}},{"facility":"Novartis Investigative Site","status":"RECRUITING","city":"Houston","state":"Texas","zip":"77070","country":"United States","geoPoint":{"lat":29.76328,"lon":-95.36327}},{"facility":"Novartis Investigative Site","status":"RECRUITING","city":"Houston","state":"Texas","zip":"77079","country":"United States","geoPoint":{"lat":29.76328,"lon":-95.36327}},{"facility":"Novartis Investigative Site","status":"RECRUITING","city":"Houston","state":"Texas","zip":"77084","country":"United States","geoPoint":{"lat":29.76328,"lon":-95.36327}},{"facility":"Novartis Investigative Site","status":"RECRUITING","city":"Houston","state":"Texas","zip":"77095","country":"United States","geoPoint":{"lat":29.76328,"lon":-95.36327}},{"facility":"Novartis Investigative Site","status":"RECRUITING","city":"Kingwood","state":"Texas","zip":"77339","country":"United States","geoPoint":{"lat":30.03355,"lon":-95.26104}},{"facility":"Novartis Investigative Site","status":"RECRUITING","city":"Lewisville","state":"Texas","zip":"75057","country":"United States","geoPoint":{"lat":33.04623,"lon":-96.99417}},{"facility":"Novartis Investigative Site","status":"RECRUITING","city":"Livingston","state":"Texas","zip":"77351","country":"United States","geoPoint":{"lat":30.71103,"lon":-94.93299}},{"facility":"Novartis Investigative Site","status":"RECRUITING","city":"Pflugerville","state":"Texas","zip":"78660-3015","country":"United States","geoPoint":{"lat":30.43937,"lon":-97.62}},{"facility":"Novartis Investigative Site","status":"RECRUITING","city":"Shavano Park","state":"Texas","zip":"78231","country":"United States","geoPoint":{"lat":29.58495,"lon":-98.55252}},{"facility":"Novartis Investigative Site","status":"RECRUITING","city":"Stephenville","state":"Texas","zip":"76401","country":"United States","geoPoint":{"lat":32.2207,"lon":-98.20226}},{"facility":"Novartis Investigative Site","status":"RECRUITING","city":"Tomball","state":"Texas","zip":"77375","country":"United States","geoPoint":{"lat":30.09716,"lon":-95.61605}},{"facility":"Novartis Investigative Site","status":"RECRUITING","city":"Weslaco","state":"Texas","zip":"78596","country":"United States","geoPoint":{"lat":26.15952,"lon":-97.99084}},{"facility":"Novartis Investigative Site","status":"RECRUITING","city":"Murray","state":"Utah","zip":"84123","country":"United States","geoPoint":{"lat":40.66689,"lon":-111.88799}},{"facility":"Novartis Investigative Site","status":"RECRUITING","city":"Sandy","state":"Utah","zip":"84093","country":"United States","geoPoint":{"lat":40.59161,"lon":-111.8841}},{"facility":"Novartis Investigative Site","status":"RECRUITING","city":"Burke","state":"Virginia","zip":"22015","country":"United States","geoPoint":{"lat":38.79345,"lon":-77.27165}},{"facility":"Novartis Investigative Site","status":"RECRUITING","city":"Falls Church","state":"Virginia","zip":"22042","country":"United States","geoPoint":{"lat":38.88233,"lon":-77.17109}},{"facility":"Novartis Investigative Site","status":"RECRUITING","city":"Hopewell","state":"Virginia","zip":"23860","country":"United States","geoPoint":{"lat":37.30432,"lon":-77.2872}},{"facility":"Novartis Investigative Site","status":"RECRUITING","city":"Manassas","state":"Virginia","zip":"20109","country":"United States","geoPoint":{"lat":38.75095,"lon":-77.47527}},{"facility":"Novartis Investigative Site","status":"RECRUITING","city":"Manassas","state":"Virginia","zip":"20110","country":"United States","geoPoint":{"lat":38.75095,"lon":-77.47527}},{"facility":"Novartis Investigative Site","status":"RECRUITING","city":"Roanoke","state":"Virginia","zip":"24014","country":"United States","geoPoint":{"lat":37.27097,"lon":-79.94143}},{"facility":"Novartis Investigative Site","status":"RECRUITING","city":"Suffolk","state":"Virginia","zip":"23434","country":"United States","geoPoint":{"lat":36.72836,"lon":-76.58496}},{"facility":"Novartis Investigative Site","status":"RECRUITING","city":"Puyallup","state":"Washington","zip":"98372","country":"United States","geoPoint":{"lat":47.18538,"lon":-122.2929}},{"facility":"Novartis Investigative Site","status":"RECRUITING","city":"Tacoma","state":"Washington","zip":"98405","country":"United States","geoPoint":{"lat":47.25288,"lon":-122.44429}},{"facility":"Novartis Investigative Site","status":"RECRUITING","city":"Wenatchee","state":"Washington","zip":"98801","country":"United States","geoPoint":{"lat":47.42346,"lon":-120.31035}},{"facility":"Novartis Investigative Site","status":"RECRUITING","city":"Milwaukee","state":"Wisconsin","zip":"53215","country":"United States","geoPoint":{"lat":43.0389,"lon":-87.90647}},{"facility":"Novartis Investigative Site","status":"RECRUITING","city":"Caba","state":"Buenos Aires","zip":"1407","country":"Argentina","geoPoint":{"lat":-34.61315,"lon":-58.37723}},{"facility":"Novartis Investigative Site","status":"RECRUITING","city":"Caba","state":"Buenos Aires","zip":"1425","country":"Argentina","geoPoint":{"lat":-34.61315,"lon":-58.37723}},{"facility":"Novartis Investigative Site","status":"RECRUITING","city":"Caba","state":"Buenos Aires","zip":"C1280AEB","country":"Argentina","geoPoint":{"lat":-34.61315,"lon":-58.37723}},{"facility":"Novartis Investigative Site","status":"RECRUITING","city":"Caba","state":"Buenos Aires","zip":"C1406BOA","country":"Argentina","geoPoint":{"lat":-34.61315,"lon":-58.37723}},{"facility":"Novartis Investigative Site","status":"RECRUITING","city":"Caba","state":"Buenos Aires","zip":"C1414AIF","country":"Argentina","geoPoint":{"lat":-34.61315,"lon":-58.37723}},{"facility":"Novartis Investigative Site","status":"RECRUITING","city":"Caba","state":"Buenos Aires","zip":"C1425AGC","country":"Argentina","geoPoint":{"lat":-34.61315,"lon":-58.37723}},{"facility":"Novartis Investigative Site","status":"RECRUITING","city":"Ciudad Autonoma de Bs As","state":"Buenos Aires","zip":"C1015ABO","country":"Argentina","geoPoint":{"lat":-34.61315,"lon":-58.37723}},{"facility":"Novartis Investigative Site","status":"RECRUITING","city":"Ciudad Autonoma de Bs As","state":"Buenos Aires","zip":"C1119ACN","country":"Argentina","geoPoint":{"lat":-34.61315,"lon":-58.37723}},{"facility":"Novartis Investigative Site","status":"RECRUITING","city":"Lanus","state":"Buenos Aires","zip":"B8000XAV","country":"Argentina","geoPoint":{"lat":-34.70252,"lon":-58.3955}},{"facility":"Novartis Investigative Site","status":"RECRUITING","city":"Mar del Plata","state":"Buenos Aires","zip":"7600","country":"Argentina","geoPoint":{"lat":-38.00228,"lon":-57.55754}},{"facility":"Novartis Investigative Site","status":"RECRUITING","city":"Ramos Mejia","state":"Buenos Aires","zip":"B1704ETD","country":"Argentina","geoPoint":{"lat":-34.6551,"lon":-58.55318}},{"facility":"Novartis Investigative Site","status":"RECRUITING","city":"Concepcion del Uruguay","state":"Entre Ríos","zip":"3260","country":"Argentina","geoPoint":{"lat":-32.48249,"lon":-58.23722}},{"facility":"Novartis Investigative Site","status":"RECRUITING","city":"Ciudad de Formosa","state":"Formosa","zip":"P3600","country":"Argentina","geoPoint":{"lat":-26.17753,"lon":-58.17814}},{"facility":"Novartis Investigative Site","status":"RECRUITING","city":"Ciudad de Salta","state":"Provincia De Salta","zip":"A4406BPF","country":"Argentina","geoPoint":{"lat":-24.7859,"lon":-65.41166}},{"facility":"Novartis Investigative Site","status":"RECRUITING","city":"Santa Fe","state":"Rosario","zip":"S2000DBS","country":"Argentina","geoPoint":{"lat":-31.63333,"lon":-60.7}},{"facility":"Novartis Investigative Site","status":"RECRUITING","city":"Tucuman","state":"San Miguel De Tucuman","zip":"T4000ICL","country":"Argentina","geoPoint":{"lat":-26.82414,"lon":-65.2226}},{"facility":"Novartis Investigative Site","status":"RECRUITING","city":"Grandero Baigorria","state":"Santa Fe","zip":"S2152","country":"Argentina"},{"facility":"Novartis Investigative Site","status":"RECRUITING","city":"Rosario","state":"Santa Fe","zip":"S2000DSV","country":"Argentina","geoPoint":{"lat":-32.94682,"lon":-60.63932}},{"facility":"Novartis Investigative Site","status":"RECRUITING","city":"Rosario","state":"Santa Fe","zip":"S200CVD","country":"Argentina","geoPoint":{"lat":-32.94682,"lon":-60.63932}},{"facility":"Novartis Investigative Site","status":"RECRUITING","city":"San Miguel de Tucuman","state":"Tucuman","zip":"T4000IFL","country":"Argentina","geoPoint":{"lat":-26.82414,"lon":-65.2226}},{"facility":"Novartis Investigative Site","status":"RECRUITING","city":"San Miguel Del Tucuman","state":"Tucuman","zip":"4400","country":"Argentina"},{"facility":"Novartis Investigative Site","status":"RECRUITING","city":"Buenos Aires","zip":"C1114AAP","country":"Argentina","geoPoint":{"lat":-34.61315,"lon":-58.37723}},{"facility":"Novartis Investigative Site","status":"RECRUITING","city":"Buenos Aires","zip":"C1428DCO","country":"Argentina","geoPoint":{"lat":-34.61315,"lon":-58.37723}},{"facility":"Novartis Investigative Site","status":"RECRUITING","city":"Buenos Aires","zip":"C1430EGF","country":"Argentina","geoPoint":{"lat":-34.61315,"lon":-58.37723}},{"facility":"Novartis Investigative Site","status":"RECRUITING","city":"Buenos Aires","zip":"W3400ABH","country":"Argentina","geoPoint":{"lat":-34.61315,"lon":-58.37723}},{"facility":"Novartis Investigative Site","status":"RECRUITING","city":"Capital Federal","zip":"C1023AAB","country":"Argentina","geoPoint":{"lat":-34.61315,"lon":-58.37723}},{"facility":"Novartis Investigative Site","status":"RECRUITING","city":"Ciudad de Buenos Aires","zip":"C1426","country":"Argentina","geoPoint":{"lat":-34.61315,"lon":-58.37723}},{"facility":"Novartis Investigative Site","status":"RECRUITING","city":"Cordoba","zip":"X5000JHA","country":"Argentina","geoPoint":{"lat":-31.4135,"lon":-64.18105}},{"facility":"Novartis Investigative Site","status":"RECRUITING","city":"Cordoba","zip":"X5000JHQ","country":"Argentina","geoPoint":{"lat":-31.4135,"lon":-64.18105}},{"facility":"Novartis Investigative Site","status":"RECRUITING","city":"Cordoba","zip":"X5003DCE","country":"Argentina","geoPoint":{"lat":-31.4135,"lon":-64.18105}},{"facility":"Novartis Investigative Site","status":"RECRUITING","city":"Cordoba","zip":"X5003DCP","country":"Argentina","geoPoint":{"lat":-31.4135,"lon":-64.18105}},{"facility":"Novartis Investigative Site","status":"RECRUITING","city":"Mendoza","zip":"5500","country":"Argentina","geoPoint":{"lat":-32.89084,"lon":-68.82717}},{"facility":"Novartis Investigative Site","status":"RECRUITING","city":"Parana","zip":"3100","country":"Argentina","geoPoint":{"lat":-31.73197,"lon":-60.5238}},{"facility":"Novartis Investigative Site","status":"RECRUITING","city":"San Luis","zip":"D5702JRS","country":"Argentina","geoPoint":{"lat":-33.29501,"lon":-66.33563}},{"facility":"Novartis Investigative Site","status":"RECRUITING","city":"Santa Fe","zip":"S3000EOZ","country":"Argentina","geoPoint":{"lat":-31.63333,"lon":-60.7}},{"facility":"Novartis Investigative Site","status":"RECRUITING","city":"Santa Fe","zip":"S3000FWO","country":"Argentina","geoPoint":{"lat":-31.63333,"lon":-60.7}},{"facility":"Novartis Investigative Site","status":"RECRUITING","city":"Canberra","state":"Australian Capital Territory","zip":"2605","country":"Australia","geoPoint":{"lat":-35.28346,"lon":149.12807}},{"facility":"Novartis Investigative Site","status":"RECRUITING","city":"Camperdown","state":"New South Wales","zip":"2050","country":"Australia","geoPoint":{"lat":-33.88965,"lon":151.17642}},{"facility":"Novartis Investigative Site","status":"RECRUITING","city":"Concord","state":"New South Wales","zip":"2139","country":"Australia","geoPoint":{"lat":-33.84722,"lon":151.10381}},{"facility":"Novartis Investigative Site","status":"RECRUITING","city":"Auchenflower","state":"Queensland","zip":"4066","country":"Australia","geoPoint":{"lat":-27.47443,"lon":152.99213}},{"facility":"Novartis Investigative Site","status":"RECRUITING","city":"Woolloongabba","state":"Queensland","zip":"4102","country":"Australia","geoPoint":{"lat":-27.48855,"lon":153.03655}},{"facility":"Novartis Investigative Site","status":"RECRUITING","city":"Adelaide","state":"South Australia","zip":"5000","country":"Australia","geoPoint":{"lat":-34.92866,"lon":138.59863}},{"facility":"Novartis Investigative Site","status":"RECRUITING","city":"Leabrook","state":"South Australia","zip":"5068","country":"Australia","geoPoint":{"lat":-34.92976,"lon":138.65862}},{"facility":"Novartis Investigative Site","status":"RECRUITING","city":"Hobart","state":"Tasmania","zip":"7000","country":"Australia","geoPoint":{"lat":-42.87936,"lon":147.32941}},{"facility":"Novartis Investigative Site","status":"RECRUITING","city":"Clayton","state":"Victoria","zip":"3168","country":"Australia","geoPoint":{"lat":-37.91667,"lon":145.11667}},{"facility":"Novartis Investigative Site","status":"RECRUITING","city":"Heidelberg Heights","state":"Victoria","zip":"3081","country":"Australia","geoPoint":{"lat":-37.74313,"lon":145.05695}},{"facility":"Novartis Investigative Site","status":"RECRUITING","city":"Malvern East","state":"Victoria","zip":"3145","country":"Australia","geoPoint":{"lat":-37.87397,"lon":145.04253}},{"facility":"Novartis Investigative Site","status":"RECRUITING","city":"Murdoch","state":"Western Australia","zip":"6150","country":"Australia","geoPoint":{"lat":-32.06987,"lon":115.83757}},{"facility":"Novartis Investigative Site","status":"RECRUITING","city":"Braunau","zip":"A5280","country":"Austria"},{"facility":"Novartis Investigative Site","status":"RECRUITING","city":"Graz","zip":"A-8036","country":"Austria","geoPoint":{"lat":47.06667,"lon":15.45}},{"facility":"Novartis Investigative Site","status":"RECRUITING","city":"Linz","zip":"4021","country":"Austria","geoPoint":{"lat":48.30639,"lon":14.28611}},{"facility":"Novartis Investigative Site","status":"RECRUITING","city":"Wien","zip":"1190","country":"Austria","geoPoint":{"lat":48.20849,"lon":16.37208}},{"facility":"Novartis Investigative Site","status":"RECRUITING","city":"Maceio","state":"AL","zip":"57051-160","country":"Brazil","geoPoint":{"lat":-9.66583,"lon":-35.73528}},{"facility":"Novartis Investigative Site","status":"RECRUITING","city":"Salvador","state":"BA","zip":"40170-130","country":"Brazil","geoPoint":{"lat":-12.97111,"lon":-38.51083}},{"facility":"Novartis Investigative Site","status":"RECRUITING","city":"Salvador","state":"BA","zip":"41820-011","country":"Brazil","geoPoint":{"lat":-12.97111,"lon":-38.51083}},{"facility":"Novartis Investigative Site","status":"RECRUITING","city":"Brasilia","state":"DF","zip":"70390-903","country":"Brazil","geoPoint":{"lat":-15.77972,"lon":-47.92972}},{"facility":"Novartis Investigative Site","status":"RECRUITING","city":"Brasilia","state":"DF","zip":"71625-009","country":"Brazil","geoPoint":{"lat":-15.77972,"lon":-47.92972}},{"facility":"Novartis Investigative Site","status":"RECRUITING","city":"Brasilia","state":"Distrito Federal","zip":"70710-100","country":"Brazil","geoPoint":{"lat":-15.77972,"lon":-47.92972}},{"facility":"Novartis Investigative Site","status":"RECRUITING","city":"Vitoria","state":"ES","zip":"29055-450","country":"Brazil","geoPoint":{"lat":-20.31944,"lon":-40.33778}},{"facility":"Novartis Investigative Site","status":"RECRUITING","city":"Belo Horizonte","state":"MG","zip":"30140 062","country":"Brazil","geoPoint":{"lat":-19.92083,"lon":-43.93778}},{"facility":"Novartis Investigative Site","status":"RECRUITING","city":"Belo Horizonte","state":"MG","zip":"30150-320","country":"Brazil","geoPoint":{"lat":-19.92083,"lon":-43.93778}},{"facility":"Novartis Investigative Site","status":"RECRUITING","city":"Uberlandia","state":"Minas Gerais","zip":"38400 500","country":"Brazil","geoPoint":{"lat":-18.91861,"lon":-48.27722}},{"facility":"Novartis Investigative Site","status":"RECRUITING","city":"Curitiba","state":"Parana","zip":"80045-170","country":"Brazil","geoPoint":{"lat":-25.42778,"lon":-49.27306}},{"facility":"Novartis Investigative Site","status":"RECRUITING","city":"Curitiba","state":"PR","zip":"80730-150","country":"Brazil","geoPoint":{"lat":-25.42778,"lon":-49.27306}},{"facility":"Novartis Investigative Site","status":"RECRUITING","city":"Canoas","state":"RS","zip":"92425 900","country":"Brazil","geoPoint":{"lat":-29.91778,"lon":-51.18361}},{"facility":"Novartis Investigative Site","status":"RECRUITING","city":"Pelotas","state":"RS","zip":"96015-290","country":"Brazil","geoPoint":{"lat":-31.77194,"lon":-52.3425}},{"facility":"Novartis Investigative Site","status":"RECRUITING","city":"Porto Alegre","state":"RS","zip":"90160093","country":"Brazil","geoPoint":{"lat":-30.03306,"lon":-51.23}},{"facility":"Novartis Investigative Site","status":"RECRUITING","city":"Porto Alegre","state":"RS","zip":"90560 030","country":"Brazil","geoPoint":{"lat":-30.03306,"lon":-51.23}},{"facility":"Novartis Investigative Site","status":"RECRUITING","city":"Porto Alegre","state":"RS","zip":"90880-480","country":"Brazil","geoPoint":{"lat":-30.03306,"lon":-51.23}},{"facility":"Novartis Investigative Site","status":"RECRUITING","city":"Blumenau","state":"Santa Catarina","zip":"89020 430","country":"Brazil","geoPoint":{"lat":-26.91944,"lon":-49.06611}},{"facility":"Novartis Investigative Site","status":"RECRUITING","city":"Santo Andre","state":"Sao Paulo","zip":"09030-010","country":"Brazil","geoPoint":{"lat":-23.66389,"lon":-46.53833}},{"facility":"Novartis Investigative Site","status":"RECRUITING","city":"Aracaju","state":"SE","zip":"49055530","country":"Brazil","geoPoint":{"lat":-10.91111,"lon":-37.07167}},{"facility":"Novartis Investigative Site","status":"RECRUITING","city":"Campinas","state":"SP","zip":"13060 080","country":"Brazil","geoPoint":{"lat":-22.90556,"lon":-47.06083}},{"facility":"Novartis Investigative Site","status":"RECRUITING","city":"Ribeirao Preto","state":"SP","zip":"14048-900","country":"Brazil","geoPoint":{"lat":-21.1775,"lon":-47.81028}},{"facility":"Novartis Investigative Site","status":"RECRUITING","city":"Sao Jose do Rio Preto","state":"SP","zip":"15090 000","country":"Brazil","geoPoint":{"lat":-20.81972,"lon":-49.37944}},{"facility":"Novartis Investigative Site","status":"RECRUITING","city":"Sao Jose dos Campos","state":"SP","zip":"12243280","country":"Brazil","geoPoint":{"lat":-23.17944,"lon":-45.88694}},{"facility":"Novartis Investigative Site","status":"RECRUITING","city":"Sao Paulo","state":"SP","zip":"01323 000","country":"Brazil","geoPoint":{"lat":-23.5475,"lon":-46.63611}},{"facility":"Novartis Investigative Site","status":"RECRUITING","city":"Sao Paulo","state":"SP","zip":"01323001","country":"Brazil","geoPoint":{"lat":-23.5475,"lon":-46.63611}},{"facility":"Novartis Investigative Site","status":"RECRUITING","city":"Sao Paulo","state":"SP","zip":"04012-909","country":"Brazil","geoPoint":{"lat":-23.5475,"lon":-46.63611}},{"facility":"Novartis Investigative Site","status":"RECRUITING","city":"Sao Paulo","state":"SP","zip":"04266 010","country":"Brazil","geoPoint":{"lat":-23.5475,"lon":-46.63611}},{"facility":"Novartis Investigative Site","status":"RECRUITING","city":"Votuporanga","state":"SP","zip":"15501-504","country":"Brazil","geoPoint":{"lat":-20.42278,"lon":-49.97278}},{"facility":"Novartis Investigative Site","status":"RECRUITING","city":"Campinas","zip":"13092-133","country":"Brazil","geoPoint":{"lat":-22.90556,"lon":-47.06083}},{"facility":"Novartis Investigative Site","status":"RECRUITING","city":"Rio de Janeiro","zip":"20241-180","country":"Brazil","geoPoint":{"lat":-22.90278,"lon":-43.2075}},{"facility":"Novartis Investigative Site","status":"RECRUITING","city":"Rio de Janeiro","zip":"22061-080","country":"Brazil","geoPoint":{"lat":-22.90278,"lon":-43.2075}},{"facility":"Novartis Investigative Site","status":"RECRUITING","city":"Blagoevgrad","zip":"270 0","country":"Bulgaria","geoPoint":{"lat":42.01667,"lon":23.1}},{"facility":"Novartis Investigative Site","status":"RECRUITING","city":"Burgas","zip":"8000","country":"Bulgaria","geoPoint":{"lat":42.50606,"lon":27.46781}},{"facility":"Novartis Investigative Site","status":"RECRUITING","city":"Gabrovo","zip":"5300","country":"Bulgaria","geoPoint":{"lat":42.87472,"lon":25.33417}},{"facility":"Novartis Investigative Site","status":"RECRUITING","city":"Pernik","zip":"2300","country":"Bulgaria","geoPoint":{"lat":42.6,"lon":23.03333}},{"facility":"Novartis Investigative Site","status":"RECRUITING","city":"Pleven","zip":"5800","country":"Bulgaria","geoPoint":{"lat":43.41667,"lon":24.61667}},{"facility":"Novartis Investigative Site","status":"RECRUITING","city":"Plovdiv","zip":"4002","country":"Bulgaria","geoPoint":{"lat":42.15,"lon":24.75}},{"facility":"Novartis Investigative Site","status":"RECRUITING","city":"Sandanski","zip":"2280","country":"Bulgaria","geoPoint":{"lat":41.56667,"lon":23.28333}},{"facility":"Novartis Investigative Site","status":"RECRUITING","city":"Sofia","zip":"1202","country":"Bulgaria","geoPoint":{"lat":42.69751,"lon":23.32415}},{"facility":"Novartis Investigative Site","status":"RECRUITING","city":"Sofia","zip":"1233","country":"Bulgaria","geoPoint":{"lat":42.69751,"lon":23.32415}},{"facility":"Novartis Investigative Site","status":"RECRUITING","city":"Sofia","zip":"1504","country":"Bulgaria","geoPoint":{"lat":42.69751,"lon":23.32415}},{"facility":"Novartis Investigative Site","status":"RECRUITING","city":"Sofia","zip":"1510","country":"Bulgaria","geoPoint":{"lat":42.69751,"lon":23.32415}},{"facility":"Novartis Investigative Site","status":"RECRUITING","city":"Sofia","zip":"1606","country":"Bulgaria","geoPoint":{"lat":42.69751,"lon":23.32415}},{"facility":"Novartis Investigative Site","status":"RECRUITING","city":"Sofia","zip":"1709","country":"Bulgaria","geoPoint":{"lat":42.69751,"lon":23.32415}},{"facility":"Novartis Investigative Site","status":"RECRUITING","city":"Stara Zagora","zip":"6000","country":"Bulgaria","geoPoint":{"lat":42.43278,"lon":25.64194}},{"facility":"Novartis Investigative Site","status":"RECRUITING","city":"Varna","zip":"9010","country":"Bulgaria","geoPoint":{"lat":43.21667,"lon":27.91667}},{"facility":"Novartis Investigative Site","status":"RECRUITING","city":"Calgary","state":"Alberta","zip":"T2H 2G4","country":"Canada","geoPoint":{"lat":51.05011,"lon":-114.08529}},{"facility":"Novartis Investigative Site","status":"RECRUITING","city":"Edmonton","state":"Alberta","zip":"T6K 4C1","country":"Canada","geoPoint":{"lat":53.55014,"lon":-113.46871}},{"facility":"Novartis Investigative Site","status":"RECRUITING","city":"Red Deer","state":"Alberta","zip":"T4N 6V7","country":"Canada","geoPoint":{"lat":52.26682,"lon":-113.802}},{"facility":"Novartis Investigative Site","status":"RECRUITING","city":"Kamloops","state":"British Columbia","zip":"V2C 5T1","country":"Canada","geoPoint":{"lat":50.66648,"lon":-120.3192}},{"facility":"Novartis Investigative Site","status":"RECRUITING","city":"Kelowna","state":"British Columbia","zip":"V1Y 3J8","country":"Canada","geoPoint":{"lat":49.88307,"lon":-119.48568}},{"facility":"Novartis Investigative Site","status":"RECRUITING","city":"Vancouver","state":"British Columbia","zip":"V6Z 1Y6","country":"Canada","geoPoint":{"lat":49.24966,"lon":-123.11934}},{"facility":"Novartis Investigative Site","status":"RECRUITING","city":"Moncton","state":"New Brunswick","zip":"E1G 1A7","country":"Canada","geoPoint":{"lat":46.09454,"lon":-64.7965}},{"facility":"Novartis Investigative Site","status":"RECRUITING","city":"Halifax","state":"Nova Scotia","zip":"B3H 2Y9","country":"Canada","geoPoint":{"lat":44.64533,"lon":-63.57239}},{"facility":"Novartis Investigative Site","status":"RECRUITING","city":"New Minas","state":"Nova Scotia","zip":"B4N 3R7","country":"Canada","geoPoint":{"lat":45.0691,"lon":-64.46958}},{"facility":"Novartis Investigative Site","status":"RECRUITING","city":"Barrie","state":"Ontario","zip":"L4N 7L3","country":"Canada","geoPoint":{"lat":44.40011,"lon":-79.66634}},{"facility":"Novartis Investigative Site","status":"RECRUITING","city":"Brampton","state":"Ontario","zip":"L6S 0C9","country":"Canada","geoPoint":{"lat":43.68341,"lon":-79.76633}},{"facility":"Novartis Investigative Site","status":"RECRUITING","city":"Cambridge","state":"Ontario","zip":"N1R 7R1","country":"Canada","geoPoint":{"lat":43.3601,"lon":-80.31269}},{"facility":"Novartis Investigative Site","status":"RECRUITING","city":"Etobicoke","state":"Ontario","zip":"M9R 4E1","country":"Canada","geoPoint":{"lat":43.65421,"lon":-79.56711}},{"facility":"Novartis Investigative Site","status":"RECRUITING","city":"Guelph","state":"Ontario","zip":"N1H 1B1","country":"Canada","geoPoint":{"lat":43.54594,"lon":-80.25599}},{"facility":"Novartis Investigative Site","status":"RECRUITING","city":"Hamilton","state":"Ontario","zip":"L8M 1K7","country":"Canada","geoPoint":{"lat":43.25011,"lon":-79.84963}},{"facility":"Novartis Investigative Site","status":"RECRUITING","city":"London","state":"Ontario","zip":"N6A 5A5","country":"Canada","geoPoint":{"lat":42.98339,"lon":-81.23304}},{"facility":"Novartis Investigative Site","status":"RECRUITING","city":"Napean","state":"Ontario","zip":"K2J 0V2","country":"Canada"},{"facility":"Novartis Investigative Site","status":"RECRUITING","city":"Newmarket","state":"Ontario","zip":"L3Y 2P6","country":"Canada","geoPoint":{"lat":44.05011,"lon":-79.46631}},{"facility":"Novartis Investigative Site","status":"RECRUITING","city":"North York","state":"Ontario","zip":"M6B 3H7","country":"Canada","geoPoint":{"lat":43.76681,"lon":-79.4163}},{"facility":"Novartis Investigative Site","status":"RECRUITING","city":"Oshawa","state":"Ontario","zip":"L1J 2K9","country":"Canada","geoPoint":{"lat":43.90012,"lon":-78.84957}},{"facility":"Novartis Investigative Site","status":"RECRUITING","city":"Peterborough","state":"Ontario","zip":"K9J 0B2","country":"Canada","geoPoint":{"lat":44.30012,"lon":-78.31623}},{"facility":"Novartis Investigative Site","status":"RECRUITING","city":"Scarborough","state":"Ontario","zip":"M1B 5N1","country":"Canada","geoPoint":{"lat":43.77223,"lon":-79.25666}},{"facility":"Novartis Investigative Site","status":"RECRUITING","city":"Thornhill","state":"Ontario","zip":"L4J 8L7","country":"Canada"},{"facility":"Novartis Investigative Site","status":"RECRUITING","city":"Toronto","state":"Ontario","zip":"M4G 3E8","country":"Canada","geoPoint":{"lat":43.70011,"lon":-79.4163}},{"facility":"Novartis Investigative Site","status":"RECRUITING","city":"Levis","state":"Quebec","zip":"G6W 5M6","country":"Canada","geoPoint":{"lat":46.80326,"lon":-71.17793}},{"facility":"Novartis Investigative Site","status":"RECRUITING","city":"Mirabel","state":"Quebec","zip":"J7J 2K8","country":"Canada","geoPoint":{"lat":45.65008,"lon":-74.08251}},{"facility":"Novartis Investigative Site","status":"RECRUITING","city":"Montreal","state":"Quebec","zip":"H4A 3J1","country":"Canada","geoPoint":{"lat":45.50884,"lon":-73.58781}},{"facility":"Novartis Investigative Site","status":"RECRUITING","city":"Montreal","state":"Quebec","zip":"H4T 1Z9","country":"Canada","geoPoint":{"lat":45.50884,"lon":-73.58781}},{"facility":"Novartis Investigative Site","status":"RECRUITING","city":"Sainte Foy","state":"Quebec","zip":"G1V 4G5","country":"Canada","geoPoint":{"lat":46.75615,"lon":-71.29543}},{"facility":"Novartis Investigative Site","status":"RECRUITING","city":"Terrebonne","state":"Quebec","zip":"J6X 4P7","country":"Canada","geoPoint":{"lat":45.70004,"lon":-73.64732}},{"facility":"Novartis Investigative Site","status":"RECRUITING","city":"Trois Rivieres","state":"Quebec","zip":"G9A 4P3","country":"Canada","geoPoint":{"lat":46.34515,"lon":-72.5477}},{"facility":"Novartis Investigative Site","status":"RECRUITING","city":"Victoriaville","state":"Quebec","zip":"G6P 6P6","country":"Canada","geoPoint":{"lat":46.05007,"lon":-71.96579}},{"facility":"Novartis Investigative Site","status":"RECRUITING","city":"Quebec","zip":"G2J 0C4","country":"Canada","geoPoint":{"lat":46.81228,"lon":-71.21454}},{"facility":"Novartis Investigative Site","status":"RECRUITING","city":"Guangzhou City","state":"Guangdong","zip":"510000","country":"China"},{"facility":"Novartis Investigative Site","status":"RECRUITING","city":"Nanning","state":"Guangxi","zip":"530021","country":"China","geoPoint":{"lat":22.81667,"lon":108.31667}},{"facility":"Novartis Investigative Site","status":"RECRUITING","city":"Cangzhou","state":"Hebei","zip":"061002","country":"China","geoPoint":{"lat":38.31667,"lon":116.86667}},{"facility":"Novartis Investigative Site","status":"RECRUITING","city":"Tangshan","state":"Hebei","zip":"063000","country":"China","geoPoint":{"lat":39.63333,"lon":118.18333}},{"facility":"Novartis Investigative Site","status":"RECRUITING","city":"Xingtai","state":"Hebei","zip":"054000","country":"China","geoPoint":{"lat":37.06306,"lon":114.49417}},{"facility":"Novartis Investigative Site","status":"RECRUITING","city":"Daqing","state":"Heilongjiang","zip":"163001","country":"China","geoPoint":{"lat":46.58333,"lon":125.0}},{"facility":"Novartis Investigative Site","status":"RECRUITING","city":"Harbin","state":"Heilongjiang","zip":"150000","country":"China","geoPoint":{"lat":45.75,"lon":126.65}},{"facility":"Novartis Investigative Site","status":"RECRUITING","city":"Harbin","state":"Heilongjiang","zip":"150001","country":"China","geoPoint":{"lat":45.75,"lon":126.65}},{"facility":"Novartis Investigative Site","status":"RECRUITING","city":"Luoyang","state":"Henan","zip":"471002","country":"China","geoPoint":{"lat":34.68361,"lon":112.45361}},{"facility":"Novartis Investigative Site","status":"RECRUITING","city":"Pingdingshan","state":"Henan","zip":"467000","country":"China","geoPoint":{"lat":33.73847,"lon":113.30119}},{"facility":"Novartis Investigative Site","status":"RECRUITING","city":"Zhengzhou","state":"Henan","zip":"450052","country":"China","geoPoint":{"lat":34.75778,"lon":113.64861}},{"facility":"Novartis Investigative Site","status":"RECRUITING","city":"Huangshi","state":"Hubei","zip":"435000","country":"China","geoPoint":{"lat":30.24706,"lon":115.04814}},{"facility":"Novartis Investigative Site","status":"RECRUITING","city":"Wuhan","state":"Hubei","zip":"430081","country":"China","geoPoint":{"lat":30.58333,"lon":114.26667}},{"facility":"Novartis Investigative Site","status":"RECRUITING","city":"Changsha","state":"Hunan","zip":"410005","country":"China","geoPoint":{"lat":28.19874,"lon":112.97087}},{"facility":"Novartis Investigative Site","status":"RECRUITING","city":"Changsha","state":"Hunan","zip":"410011","country":"China","geoPoint":{"lat":28.19874,"lon":112.97087}},{"facility":"Novartis Investigative Site","status":"RECRUITING","city":"Hohhot","state":"Inner Mongolia","zip":"010017","country":"China","geoPoint":{"lat":40.81056,"lon":111.65222}},{"facility":"Novartis Investigative Site","status":"RECRUITING","city":"Changzhou","state":"Jiangsu","zip":"213004","country":"China","geoPoint":{"lat":31.77359,"lon":119.95401}},{"facility":"Novartis Investigative Site","status":"RECRUITING","city":"Xuzhou","state":"Jiangsu","zip":"221003","country":"China","geoPoint":{"lat":34.18045,"lon":117.15707}},{"facility":"Novartis Investigative Site","status":"RECRUITING","city":"Nanchang","state":"Jiangxi","zip":"330009","country":"China","geoPoint":{"lat":28.68396,"lon":115.85306}},{"facility":"Novartis Investigative Site","status":"RECRUITING","city":"Tonghua","state":"Jilin","zip":"134000","country":"China","geoPoint":{"lat":41.71972,"lon":125.92639}},{"facility":"Novartis Investigative Site","status":"RECRUITING","city":"Yanji","state":"Jilin","zip":"133001","country":"China","geoPoint":{"lat":42.9075,"lon":129.50778}},{"facility":"Novartis Investigative Site","status":"RECRUITING","city":"Dalian","state":"Liaoning","zip":"116000","country":"China","geoPoint":{"lat":38.91222,"lon":121.60222}},{"facility":"Novartis Investigative Site","status":"RECRUITING","city":"Jinzhou","state":"Liaoning","zip":"121001","country":"China","geoPoint":{"lat":41.10778,"lon":121.14167}},{"facility":"Novartis Investigative Site","status":"RECRUITING","city":"Shenyang","state":"Liaoning","zip":"110016","country":"China","geoPoint":{"lat":41.79222,"lon":123.43278}},{"facility":"Novartis Investigative Site","status":"RECRUITING","city":"Yinchuan","state":"Ningxia","zip":"100039","country":"China","geoPoint":{"lat":38.46806,"lon":106.27306}},{"facility":"Novartis Investigative Site","status":"RECRUITING","city":"Xianyang","state":"Shaanxi","zip":"712000","country":"China","geoPoint":{"lat":34.33778,"lon":108.70261}},{"facility":"Novartis Investigative Site","status":"RECRUITING","city":"Jinan","state":"Shandong","zip":"250021","country":"China","geoPoint":{"lat":36.66833,"lon":116.99722}},{"facility":"Novartis Investigative Site","status":"RECRUITING","city":"Jining","state":"Shandong","zip":"272000","country":"China","geoPoint":{"lat":35.405,"lon":116.58139}},{"facility":"Novartis Investigative Site","status":"RECRUITING","city":"Qingdao","state":"Shandong","zip":"266011","country":"China","geoPoint":{"lat":36.06488,"lon":120.38042}},{"facility":"Novartis Investigative Site","status":"RECRUITING","city":"Zibo","state":"Shandong","zip":"255400","country":"China","geoPoint":{"lat":36.79056,"lon":118.06333}},{"facility":"Novartis Investigative Site","status":"RECRUITING","city":"Xian","state":"Shanxi","zip":"710061","country":"China","geoPoint":{"lat":34.25833,"lon":108.92861}},{"facility":"Novartis Investigative Site","status":"RECRUITING","city":"Tianjin","state":"Tianjin","zip":"300121","country":"China","geoPoint":{"lat":39.14222,"lon":117.17667}},{"facility":"Novartis Investigative Site","status":"RECRUITING","city":"Hangzhou","state":"Zhejiang","zip":"310000","country":"China","geoPoint":{"lat":30.29365,"lon":120.16142}},{"facility":"Novartis Investigative Site","status":"RECRUITING","city":"Hangzhou","state":"Zhejiang","zip":"310006","country":"China","geoPoint":{"lat":30.29365,"lon":120.16142}},{"facility":"Novartis Investigative Site","status":"RECRUITING","city":"Lishui City","state":"Zhejiang","zip":"323000","country":"China"},{"facility":"Novartis Investigative Site","status":"RECRUITING","city":"Wenzhou","state":"Zhejiang","zip":"325000","country":"China","geoPoint":{"lat":27.99942,"lon":120.66682}},{"facility":"Novartis Investigative Site","status":"RECRUITING","city":"Beijing","zip":"100083","country":"China","geoPoint":{"lat":39.9075,"lon":116.39723}},{"facility":"Novartis Investigative Site","status":"RECRUITING","city":"Beijing","zip":"100730","country":"China","geoPoint":{"lat":39.9075,"lon":116.39723}},{"facility":"Novartis Investigative Site","status":"RECRUITING","city":"Guang Zhou","zip":"510080","country":"China"},{"facility":"Novartis Investigative Site","status":"RECRUITING","city":"Jining","zip":"272011","country":"China","geoPoint":{"lat":35.405,"lon":116.58139}},{"facility":"Novartis Investigative Site","status":"RECRUITING","city":"Shanghai","zip":"200040","country":"China","geoPoint":{"lat":31.22222,"lon":121.45806}},{"facility":"Novartis Investigative Site","status":"RECRUITING","city":"Shanghai","zip":"200120","country":"China","geoPoint":{"lat":31.22222,"lon":121.45806}},{"facility":"Novartis Investigative Site","status":"RECRUITING","city":"Shijiazhuang","zip":"050000","country":"China","geoPoint":{"lat":38.04139,"lon":114.47861}},{"facility":"Novartis Investigative Site","status":"RECRUITING","city":"Tianjin","zip":"300140","country":"China","geoPoint":{"lat":39.14222,"lon":117.17667}},{"facility":"Novartis Investigative Site","status":"RECRUITING","city":"Medellin","state":"Antioquia","zip":"050010","country":"Colombia","geoPoint":{"lat":6.25184,"lon":-75.56359}},{"facility":"Novartis Investigative Site","status":"RECRUITING","city":"Medellin","state":"Antioquia","zip":"050030","country":"Colombia","geoPoint":{"lat":6.25184,"lon":-75.56359}},{"facility":"Novartis Investigative Site","status":"RECRUITING","city":"Barranquilla","state":"Atlantico","zip":"080002","country":"Colombia","geoPoint":{"lat":10.96854,"lon":-74.78132}},{"facility":"Novartis Investigative Site","status":"RECRUITING","city":"Floridablanca","state":"Santander","zip":"57-7","country":"Colombia","geoPoint":{"lat":7.06222,"lon":-73.08644}},{"facility":"Novartis Investigative Site","status":"RECRUITING","city":"Barranquilla","zip":"080020","country":"Colombia","geoPoint":{"lat":10.96854,"lon":-74.78132}},{"facility":"Novartis Investigative Site","status":"RECRUITING","city":"Bogota","zip":"110221","country":"Colombia","geoPoint":{"lat":4.60971,"lon":-74.08175}},{"facility":"Novartis Investigative Site","status":"RECRUITING","city":"Manizales","zip":"170008","country":"Colombia","geoPoint":{"lat":5.06889,"lon":-75.51738}},{"facility":"Novartis Investigative Site","status":"RECRUITING","city":"Medellin","zip":"050012","country":"Colombia","geoPoint":{"lat":6.25184,"lon":-75.56359}},{"facility":"Novartis Investigative Site","status":"RECRUITING","city":"Osijek","state":"Osijek Baranja","zip":"31000","country":"Croatia","geoPoint":{"lat":45.55111,"lon":18.69389}},{"facility":"Novartis Investigative Site","status":"RECRUITING","city":"Krapinske toplice","zip":"49 217","country":"Croatia","geoPoint":{"lat":46.09333,"lon":15.84333}},{"facility":"Novartis Investigative Site","status":"RECRUITING","city":"Krapinske Toplice","zip":"49217","country":"Croatia","geoPoint":{"lat":46.09333,"lon":15.84333}},{"facility":"Novartis Investigative Site","status":"RECRUITING","city":"Opatija","zip":"51410","country":"Croatia","geoPoint":{"lat":45.33773,"lon":14.30519}},{"facility":"Novartis Investigative Site","status":"RECRUITING","city":"Pula","zip":"52100","country":"Croatia","geoPoint":{"lat":44.86833,"lon":13.84806}},{"facility":"Novartis Investigative Site","status":"RECRUITING","city":"Slavonski Brod","zip":"35000","country":"Croatia","geoPoint":{"lat":45.16028,"lon":18.01556}},{"facility":"Novartis Investigative Site","status":"RECRUITING","city":"Zagreb","zip":"10000","country":"Croatia","geoPoint":{"lat":45.81444,"lon":15.97798}},{"facility":"Novartis Investigative Site","status":"RECRUITING","city":"Brandys nad Labem","state":"Czech Republic","zip":"250 01","country":"Czechia","geoPoint":{"lat":50.18356,"lon":14.67244}},{"facility":"Novartis Investigative Site","status":"RECRUITING","city":"Brno","state":"Czech Republic","zip":"60200","country":"Czechia","geoPoint":{"lat":49.19522,"lon":16.60796}},{"facility":"Novartis Investigative Site","status":"RECRUITING","city":"Cesky Krumlov","state":"Czech Republic","zip":"381 01","country":"Czechia","geoPoint":{"lat":48.81091,"lon":14.31521}},{"facility":"Novartis Investigative Site","status":"RECRUITING","city":"Liberec","state":"Czech Republic","zip":"46063","country":"Czechia","geoPoint":{"lat":50.76711,"lon":15.05619}},{"facility":"Novartis Investigative Site","status":"RECRUITING","city":"Louny","state":"Czech Republic","zip":"440 01","country":"Czechia","geoPoint":{"lat":50.35699,"lon":13.79667}},{"facility":"Novartis Investigative Site","status":"RECRUITING","city":"Ostrava","state":"Czech Republic","zip":"70200","country":"Czechia","geoPoint":{"lat":49.83465,"lon":18.28204}},{"facility":"Novartis Investigative Site","status":"RECRUITING","city":"Pardubice","state":"Czech Republic","zip":"532 03","country":"Czechia","geoPoint":{"lat":50.04075,"lon":15.77659}},{"facility":"Novartis Investigative Site","status":"RECRUITING","city":"Usti nad Labem","state":"Czech Republic","zip":"400 01","country":"Czechia","geoPoint":{"lat":50.6607,"lon":14.03227}},{"facility":"Novartis Investigative Site","status":"RECRUITING","city":"Znojmo","state":"Czech Republic","zip":"66902","country":"Czechia","geoPoint":{"lat":48.8555,"lon":16.0488}},{"facility":"Novartis Investigative Site","status":"RECRUITING","city":"Praha 2","state":"CZE","zip":"128 08","country":"Czechia","geoPoint":{"lat":50.08804,"lon":14.42076}},{"facility":"Novartis Investigative Site","status":"RECRUITING","city":"Trutnov","state":"CZE","zip":"46063","country":"Czechia","geoPoint":{"lat":50.56101,"lon":15.9127}},{"facility":"Novartis Investigative Site","status":"RECRUITING","city":"Prerov","state":"Olomoucky Kraj","zip":"750 02","country":"Czechia","geoPoint":{"lat":49.45511,"lon":17.4509}},{"facility":"Novartis Investigative Site","status":"RECRUITING","city":"Chlumec nad Cidlinou","zip":"50351","country":"Czechia","geoPoint":{"lat":50.1544,"lon":15.46026}},{"facility":"Novartis Investigative Site","status":"RECRUITING","city":"Hlucin","zip":"748 01","country":"Czechia","geoPoint":{"lat":49.89795,"lon":18.19196}},{"facility":"Novartis Investigative Site","status":"RECRUITING","city":"Hodonin","zip":"695 01","country":"Czechia","geoPoint":{"lat":48.84893,"lon":17.13244}},{"facility":"Novartis Investigative Site","status":"RECRUITING","city":"JIhlava","zip":"586 01","country":"Czechia","geoPoint":{"lat":49.3961,"lon":15.59124}},{"facility":"Novartis Investigative Site","status":"RECRUITING","city":"Kolin","zip":"280 20","country":"Czechia","geoPoint":{"lat":50.02806,"lon":15.1998}},{"facility":"Novartis Investigative Site","status":"RECRUITING","city":"Marianske lazne","zip":"353 01","country":"Czechia","geoPoint":{"lat":49.96459,"lon":12.70118}},{"facility":"Novartis Investigative Site","status":"RECRUITING","city":"Nachod","zip":"547 01","country":"Czechia","geoPoint":{"lat":50.4167,"lon":16.16289}},{"facility":"Novartis Investigative Site","status":"RECRUITING","city":"Olomouc","zip":"772 00","country":"Czechia","geoPoint":{"lat":49.59552,"lon":17.25175}},{"facility":"Novartis Investigative Site","status":"RECRUITING","city":"Ostrava","zip":"700 30","country":"Czechia","geoPoint":{"lat":49.83465,"lon":18.28204}},{"facility":"Novartis Investigative Site","status":"RECRUITING","city":"Ostrava","zip":"71000","country":"Czechia","geoPoint":{"lat":49.83465,"lon":18.28204}},{"facility":"Novartis Investigative Site","status":"RECRUITING","city":"Plzen","zip":"30599","country":"Czechia","geoPoint":{"lat":49.74747,"lon":13.37759}},{"facility":"Novartis Investigative Site","status":"RECRUITING","city":"Prague 5","zip":"158 00","country":"Czechia","geoPoint":{"lat":50.08804,"lon":14.42076}},{"facility":"Novartis Investigative Site","status":"RECRUITING","city":"Praha 11","zip":"14900","country":"Czechia","geoPoint":{"lat":50.08804,"lon":14.42076}},{"facility":"Novartis Investigative Site","status":"RECRUITING","city":"Praha","zip":"10034","country":"Czechia","geoPoint":{"lat":50.08804,"lon":14.42076}},{"facility":"Novartis Investigative Site","status":"RECRUITING","city":"Praha","zip":"10400","country":"Czechia","geoPoint":{"lat":50.08804,"lon":14.42076}},{"facility":"Novartis Investigative Site","status":"RECRUITING","city":"Praha","zip":"140 21","country":"Czechia","geoPoint":{"lat":50.08804,"lon":14.42076}},{"facility":"Novartis Investigative Site","status":"RECRUITING","city":"Uherske Hradiste","zip":"68601","country":"Czechia","geoPoint":{"lat":49.06975,"lon":17.45969}},{"facility":"Novartis Investigative Site","status":"RECRUITING","city":"Usti nad Labem","zip":"40001","country":"Czechia","geoPoint":{"lat":50.6607,"lon":14.03227}},{"facility":"Novartis Investigative Site","status":"RECRUITING","city":"Zlin","zip":"76001","country":"Czechia","geoPoint":{"lat":49.22645,"lon":17.67065}},{"facility":"Novartis Investigative Site","status":"RECRUITING","city":"Esbjerg","zip":"DK-6700","country":"Denmark","geoPoint":{"lat":55.47028,"lon":8.45187}},{"facility":"Novartis Investigative Site","status":"RECRUITING","city":"Gandrup","zip":"9362","country":"Denmark","geoPoint":{"lat":56.74249,"lon":9.82298}},{"facility":"Novartis Investigative Site","status":"RECRUITING","city":"Herlev","zip":"2730","country":"Denmark","geoPoint":{"lat":55.72366,"lon":12.43998}},{"facility":"Novartis Investigative Site","status":"RECRUITING","city":"Roskilde","zip":"4000","country":"Denmark","geoPoint":{"lat":55.64152,"lon":12.08035}},{"facility":"Novartis Investigative Site","status":"RECRUITING","city":"Svendborg","zip":"5700","country":"Denmark","geoPoint":{"lat":55.05982,"lon":10.60677}},{"facility":"Novartis Investigative Site","status":"RECRUITING","city":"Vejle","zip":"7100","country":"Denmark","geoPoint":{"lat":55.70927,"lon":9.5357}},{"facility":"Novartis Investigative Site","status":"RECRUITING","city":"Parnu","zip":"80018","country":"Estonia","geoPoint":{"lat":58.38588,"lon":24.49711}},{"facility":"Novartis Investigative Site","status":"RECRUITING","city":"Tallinn","zip":"10128","country":"Estonia","geoPoint":{"lat":59.43696,"lon":24.75353}},{"facility":"Novartis Investigative Site","status":"RECRUITING","city":"Tallinn","zip":"10138","country":"Estonia","geoPoint":{"lat":59.43696,"lon":24.75353}},{"facility":"Novartis Investigative Site","status":"RECRUITING","city":"Tallinn","zip":"13419","country":"Estonia","geoPoint":{"lat":59.43696,"lon":24.75353}},{"facility":"Novartis Investigative Site","status":"RECRUITING","city":"Tartu","zip":"50406","country":"Estonia","geoPoint":{"lat":58.38062,"lon":26.72509}},{"facility":"Novartis Investigative Site","status":"RECRUITING","city":"Grenoble Cedex 1","state":"Isere","zip":"38028","country":"France","geoPoint":{"lat":45.16667,"lon":5.71667}},{"facility":"Novartis Investigative Site","status":"RECRUITING","city":"Bobigny cedex","state":"Seine Saint Denis","zip":"93009","country":"France","geoPoint":{"lat":48.9,"lon":2.45}},{"facility":"Novartis Investigative Site","status":"RECRUITING","city":"Avignon","zip":"84000","country":"France","geoPoint":{"lat":43.94834,"lon":4.80892}},{"facility":"Novartis Investigative Site","status":"RECRUITING","city":"Besancon Cedex","zip":"25030","country":"France","geoPoint":{"lat":47.24878,"lon":6.01815}},{"facility":"Novartis Investigative Site","status":"RECRUITING","city":"Beziers Cedex","zip":"34525","country":"France","geoPoint":{"lat":43.34122,"lon":3.21402}},{"facility":"Novartis Investigative Site","status":"RECRUITING","city":"Bois Guillaume Cedex","zip":"76233","country":"France","geoPoint":{"lat":49.4602,"lon":1.12219}},{"facility":"Novartis Investigative Site","status":"RECRUITING","city":"Bordeaux Cedex","zip":"33075","country":"France","geoPoint":{"lat":44.84044,"lon":-0.5805}},{"facility":"Novartis Investigative Site","status":"RECRUITING","city":"Caen Cedex9","zip":"14033","country":"France"},{"facility":"Novartis Investigative Site","status":"RECRUITING","city":"Compiègne","zip":"60321","country":"France","geoPoint":{"lat":49.41794,"lon":2.82606}},{"facility":"Novartis Investigative Site","status":"RECRUITING","city":"Dijon","zip":"21034","country":"France","geoPoint":{"lat":47.31667,"lon":5.01667}},{"facility":"Novartis Investigative Site","status":"RECRUITING","city":"Marseille","zip":"13385","country":"France","geoPoint":{"lat":43.29551,"lon":5.38958}},{"facility":"Novartis Investigative Site","status":"RECRUITING","city":"Montauban","zip":"82017","country":"France","geoPoint":{"lat":44.01667,"lon":1.35}},{"facility":"Novartis Investigative Site","status":"RECRUITING","city":"Montpellier Cedex 5","zip":"34295","country":"France","geoPoint":{"lat":43.61092,"lon":3.87723}},{"facility":"Novartis Investigative Site","status":"RECRUITING","city":"Nantes Cedex 1","zip":"44093","country":"France","geoPoint":{"lat":47.21725,"lon":-1.55336}},{"facility":"Novartis Investigative Site","status":"RECRUITING","city":"Nice","zip":"06202","country":"France","geoPoint":{"lat":43.70313,"lon":7.26608}},{"facility":"Novartis Investigative Site","status":"RECRUITING","city":"Orleans","zip":"45100","country":"France","geoPoint":{"lat":47.90289,"lon":1.90389}},{"facility":"Novartis Investigative Site","status":"RECRUITING","city":"Paris 13","zip":"75651","country":"France","geoPoint":{"lat":48.85341,"lon":2.3488}},{"facility":"Novartis Investigative Site","status":"RECRUITING","city":"Paris","zip":"75012","country":"France","geoPoint":{"lat":48.85341,"lon":2.3488}},{"facility":"Novartis Investigative Site","status":"RECRUITING","city":"Paris","zip":"75015","country":"France","geoPoint":{"lat":48.85341,"lon":2.3488}},{"facility":"Novartis Investigative Site","status":"RECRUITING","city":"Paris","zip":"75018","country":"France","geoPoint":{"lat":48.85341,"lon":2.3488}},{"facility":"Novartis Investigative Site","status":"RECRUITING","city":"Poitiers","zip":"86021","country":"France","geoPoint":{"lat":46.58333,"lon":0.33333}},{"facility":"Novartis Investigative Site","status":"RECRUITING","city":"Rouen","zip":"76000","country":"France","geoPoint":{"lat":49.44313,"lon":1.09932}},{"facility":"Novartis Investigative Site","status":"RECRUITING","city":"Strasbourg Cedex","zip":"67091","country":"France","geoPoint":{"lat":48.58392,"lon":7.74553}},{"facility":"Novartis Investigative Site","status":"RECRUITING","city":"Tourcoing","zip":"59208","country":"France","geoPoint":{"lat":50.72391,"lon":3.16117}},{"facility":"Novartis Investigative Site","status":"RECRUITING","city":"Valenciennes","zip":"59300","country":"France","geoPoint":{"lat":50.35,"lon":3.53333}},{"facility":"Novartis Investigative Site","status":"RECRUITING","city":"Vandoeuvre Les Nnacy","zip":"54511","country":"France"},{"facility":"Novartis Investigative Site","status":"RECRUITING","city":"Athens","zip":"115 21","country":"Greece","geoPoint":{"lat":37.97945,"lon":23.71622}},{"facility":"Novartis Investigative Site","status":"RECRUITING","city":"Athens","zip":"18547","country":"Greece","geoPoint":{"lat":37.97945,"lon":23.71622}},{"facility":"Novartis Investigative Site","status":"RECRUITING","city":"Hong Kong SAR","country":"Hong Kong"},{"facility":"Novartis Investigative Site","status":"RECRUITING","city":"Hong Kong","zip":"HONG KONG","country":"Hong Kong","geoPoint":{"lat":22.27832,"lon":114.17469}},{"facility":"Novartis Investigative Site","status":"RECRUITING","city":"Hongkong","country":"Hong Kong","geoPoint":{"lat":22.27832,"lon":114.17469}},{"facility":"Novartis Investigative Site","status":"RECRUITING","city":"Kowloon","country":"Hong Kong","geoPoint":{"lat":22.31667,"lon":114.18333}},{"facility":"Novartis Investigative Site","status":"RECRUITING","city":"Budapest","state":"Pest","zip":"1132","country":"Hungary","geoPoint":{"lat":47.49801,"lon":19.03991}},{"facility":"Novartis Investigative Site","status":"RECRUITING","city":"Balatonfured","zip":"8230","country":"Hungary","geoPoint":{"lat":46.96188,"lon":17.87187}},{"facility":"Novartis Investigative Site","status":"RECRUITING","city":"Budapest","zip":"1026","country":"Hungary","geoPoint":{"lat":47.49801,"lon":19.03991}},{"facility":"Novartis Investigative Site","status":"RECRUITING","city":"Budapest","zip":"1036","country":"Hungary","geoPoint":{"lat":47.49801,"lon":19.03991}},{"facility":"Novartis Investigative Site","status":"RECRUITING","city":"Budapest","zip":"1085","country":"Hungary","geoPoint":{"lat":47.49801,"lon":19.03991}},{"facility":"Novartis Investigative Site","status":"RECRUITING","city":"Budapest","zip":"1096","country":"Hungary","geoPoint":{"lat":47.49801,"lon":19.03991}},{"facility":"Novartis Investigative Site","status":"RECRUITING","city":"Budapest","zip":"1145","country":"Hungary","geoPoint":{"lat":47.49801,"lon":19.03991}},{"facility":"Novartis Investigative Site","status":"RECRUITING","city":"Hatvan","zip":"3000","country":"Hungary","geoPoint":{"lat":47.66667,"lon":19.68333}},{"facility":"Novartis Investigative Site","status":"RECRUITING","city":"Hosszuheteny","zip":"7694","country":"Hungary","geoPoint":{"lat":46.16414,"lon":18.35077}},{"facility":"Novartis Investigative Site","status":"RECRUITING","city":"Mosanmagyarovar","zip":"9200","country":"Hungary"},{"facility":"Novartis Investigative Site","status":"RECRUITING","city":"Nyiregyhaza","zip":"4400","country":"Hungary","geoPoint":{"lat":47.95539,"lon":21.71671}},{"facility":"Novartis Investigative Site","status":"RECRUITING","city":"Pecs","zip":"7623","country":"Hungary","geoPoint":{"lat":46.08333,"lon":18.23333}},{"facility":"Novartis Investigative Site","status":"RECRUITING","city":"Szeged","zip":"6720","country":"Hungary","geoPoint":{"lat":46.253,"lon":20.14824}},{"facility":"Novartis Investigative Site","status":"RECRUITING","city":"Szekszard","zip":"7100","country":"Hungary","geoPoint":{"lat":46.35014,"lon":18.70905}},{"facility":"Novartis Investigative Site","status":"RECRUITING","city":"Guntur","state":"Andhrapradesh","zip":"522001","country":"India","geoPoint":{"lat":16.29974,"lon":80.45729}},{"facility":"Novartis Investigative Site","status":"RECRUITING","city":"New Delhi","state":"Delhi","zip":"110 060","country":"India","geoPoint":{"lat":28.63576,"lon":77.22445}},{"facility":"Novartis Investigative Site","status":"RECRUITING","city":"Ahmedabad","state":"Gujarat","zip":"380 060","country":"India","geoPoint":{"lat":23.02579,"lon":72.58727}},{"facility":"Novartis Investigative Site","status":"RECRUITING","city":"Ahmedabad","state":"Gujarat","zip":"380054","country":"India","geoPoint":{"lat":23.02579,"lon":72.58727}},{"facility":"Novartis Investigative Site","status":"RECRUITING","city":"Ahmedabad","state":"Gujarat","zip":"382421","country":"India","geoPoint":{"lat":23.02579,"lon":72.58727}},{"facility":"Novartis Investigative Site","status":"RECRUITING","city":"Bangalore","state":"Karnataka","zip":"560 069","country":"India","geoPoint":{"lat":12.97194,"lon":77.59369}},{"facility":"Novartis Investigative Site","status":"RECRUITING","city":"Bengaluru","state":"Karnataka","zip":"560002","country":"India","geoPoint":{"lat":12.97194,"lon":77.59369}},{"facility":"Novartis Investigative Site","status":"RECRUITING","city":"Bengaluru","state":"Karnataka","zip":"560024","country":"India","geoPoint":{"lat":12.97194,"lon":77.59369}},{"facility":"Novartis Investigative Site","status":"RECRUITING","city":"Manipal","state":"Karnataka","zip":"576104","country":"India"},{"facility":"Novartis Investigative Site","status":"RECRUITING","city":"Mysore","state":"Karnataka","zip":"570004","country":"India","geoPoint":{"lat":12.29791,"lon":76.63925}},{"facility":"Novartis Investigative Site","status":"RECRUITING","city":"Kochi","state":"Kerala","zip":"682 018","country":"India","geoPoint":{"lat":9.93988,"lon":76.26022}},{"facility":"Novartis Investigative Site","status":"RECRUITING","city":"Kochi","state":"Kerala","zip":"682041","country":"India","geoPoint":{"lat":9.93988,"lon":76.26022}},{"facility":"Novartis Investigative Site","status":"RECRUITING","city":"Mumbai","state":"Maharashtra","zip":"400012","country":"India","geoPoint":{"lat":19.07283,"lon":72.88261}},{"facility":"Novartis Investigative Site","status":"RECRUITING","city":"Nagpur","state":"Maharashtra","zip":"440012","country":"India","geoPoint":{"lat":21.14631,"lon":79.08491}},{"facility":"Novartis Investigative Site","status":"RECRUITING","city":"Nagpur","state":"Maharashtra","zip":"441108","country":"India","geoPoint":{"lat":21.14631,"lon":79.08491}},{"facility":"Novartis Investigative Site","status":"RECRUITING","city":"Nashik","state":"Maharashtra","zip":"422 005","country":"India","geoPoint":{"lat":19.99727,"lon":73.79096}},{"facility":"Novartis Investigative Site","status":"RECRUITING","city":"Pune","state":"Maharashtra","zip":"411004","country":"India","geoPoint":{"lat":18.51957,"lon":73.85535}},{"facility":"Novartis Investigative Site","status":"RECRUITING","city":"Pune","state":"Maharashtra","zip":"411045","country":"India","geoPoint":{"lat":18.51957,"lon":73.85535}},{"facility":"Novartis Investigative Site","status":"RECRUITING","city":"Ajmer","state":"Rajasthan","zip":"3050001","country":"India","geoPoint":{"lat":26.4521,"lon":74.63867}},{"facility":"Novartis Investigative Site","status":"RECRUITING","city":"Bikaner","state":"Rajasthan","zip":"334003","country":"India","geoPoint":{"lat":28.01762,"lon":73.31495}},{"facility":"Novartis Investigative Site","status":"RECRUITING","city":"Jaipur","state":"Rajasthan","zip":"302 001","country":"India","geoPoint":{"lat":26.91962,"lon":75.78781}},{"facility":"Novartis Investigative Site","status":"RECRUITING","city":"Jaipur","state":"Rajasthan","zip":"302020","country":"India","geoPoint":{"lat":26.91962,"lon":75.78781}},{"facility":"Novartis Investigative Site","status":"RECRUITING","city":"Chennai","state":"Tamil Nadu","zip":"600006","country":"India","geoPoint":{"lat":13.08784,"lon":80.27847}},{"facility":"Novartis Investigative Site","status":"RECRUITING","city":"Chennai","state":"Tamil Nadu","zip":"600116","country":"India","geoPoint":{"lat":13.08784,"lon":80.27847}},{"facility":"Novartis Investigative Site","status":"RECRUITING","city":"Coimbatore","state":"Tamil Nadu","zip":"641037","country":"India","geoPoint":{"lat":11.00555,"lon":76.96612}},{"facility":"Novartis Investigative Site","status":"RECRUITING","city":"Madurai","state":"Tamil Nadu","zip":"625 020","country":"India","geoPoint":{"lat":9.91769,"lon":78.11898}},{"facility":"Novartis Investigative Site","status":"RECRUITING","city":"Secunderabad","state":"Telangana","zip":"500003","country":"India","geoPoint":{"lat":17.50427,"lon":78.54263}},{"facility":"Novartis Investigative Site","status":"RECRUITING","city":"Kanpur","state":"Uttar Pradesh","zip":"208002","country":"India","geoPoint":{"lat":26.46523,"lon":80.34975}},{"facility":"Novartis Investigative Site","status":"RECRUITING","city":"Lucknow","state":"Uttar Pradesh","zip":"226003","country":"India","geoPoint":{"lat":26.83928,"lon":80.92313}},{"facility":"Novartis Investigative Site","status":"RECRUITING","city":"DehraDun","state":"Uttarakhand","zip":"248001","country":"India","geoPoint":{"lat":30.32295,"lon":78.03168}},{"facility":"Novartis Investigative Site","status":"RECRUITING","city":"Rudrapur","state":"Uttarakhand","zip":"263153","country":"India"},{"facility":"Novartis Investigative Site","status":"RECRUITING","city":"Dehradun","state":"Uttrakhand","zip":"248104","country":"India","geoPoint":{"lat":30.32295,"lon":78.03168}},{"facility":"Novartis Investigative Site","status":"RECRUITING","city":"Kolkata","state":"West Bengal","zip":"700 020","country":"India","geoPoint":{"lat":22.56263,"lon":88.36304}},{"facility":"Novartis Investigative Site","status":"RECRUITING","city":"Belagavi","zip":"590010","country":"India"},{"facility":"Novartis Investigative Site","status":"RECRUITING","city":"Coimbatore","zip":"641 009","country":"India","geoPoint":{"lat":11.00555,"lon":76.96612}},{"facility":"Novartis Investigative Site","status":"RECRUITING","city":"New Delhi","zip":"110029","country":"India","geoPoint":{"lat":28.63576,"lon":77.22445}},{"facility":"Novartis Investigative Site","status":"RECRUITING","city":"Holon","state":"Gush Dan","zip":"5845997","country":"Israel","geoPoint":{"lat":32.01034,"lon":34.77918}},{"facility":"Novartis Investigative Site","status":"RECRUITING","city":"Beer-Sheva","zip":"8457108","country":"Israel","geoPoint":{"lat":31.25181,"lon":34.7913}},{"facility":"Novartis Investigative Site","status":"RECRUITING","city":"Haifa","zip":"3339419","country":"Israel","geoPoint":{"lat":32.81841,"lon":34.9885}},{"facility":"Novartis Investigative Site","status":"RECRUITING","city":"Jerusalem","zip":"91120","country":"Israel","geoPoint":{"lat":31.76904,"lon":35.21633}},{"facility":"Novartis Investigative Site","status":"RECRUITING","city":"Nahariya","zip":"22100","country":"Israel","geoPoint":{"lat":33.00892,"lon":35.09814}},{"facility":"Novartis Investigative Site","status":"RECRUITING","city":"Petach Tikva","zip":"49100","country":"Israel","geoPoint":{"lat":32.08707,"lon":34.88747}},{"facility":"Novartis Investigative Site","status":"RECRUITING","city":"Ramat Gan","zip":"52621","country":"Israel","geoPoint":{"lat":32.08227,"lon":34.81065}},{"facility":"Novartis Investigative Site","status":"RECRUITING","city":"Rehovot","zip":"7610001","country":"Israel","geoPoint":{"lat":31.89421,"lon":34.81199}},{"facility":"Novartis Investigative Site","status":"RECRUITING","city":"Sefad","zip":"13100","country":"Israel"},{"facility":"Novartis Investigative Site","status":"RECRUITING","city":"Tel Aviv","zip":"62439","country":"Israel","geoPoint":{"lat":32.08088,"lon":34.78057}},{"facility":"Novartis Investigative Site","status":"RECRUITING","city":"Tiberias","zip":"1528001","country":"Israel","geoPoint":{"lat":32.79221,"lon":35.53124}},{"facility":"Novartis Investigative Site","status":"RECRUITING","city":"Ancona","state":"AN","zip":"60128","country":"Italy","geoPoint":{"lat":43.5942,"lon":13.50337}},{"facility":"Novartis Investigative Site","status":"RECRUITING","city":"Brescia","state":"BS","zip":"25123","country":"Italy","geoPoint":{"lat":45.53558,"lon":10.21472}},{"facility":"Novartis Investigative Site","status":"RECRUITING","city":"Caserta","state":"CE","zip":"81100","country":"Italy","geoPoint":{"lat":41.07262,"lon":14.33231}},{"facility":"Novartis Investigative Site","status":"RECRUITING","city":"Chieti","state":"CH","zip":"66100","country":"Italy","geoPoint":{"lat":42.34827,"lon":14.16494}},{"facility":"Novartis Investigative Site","status":"RECRUITING","city":"Firenze","state":"FI","zip":"50134","country":"Italy","geoPoint":{"lat":43.77925,"lon":11.24626}},{"facility":"Novartis Investigative Site","status":"RECRUITING","city":"Chiavari","state":"GE","zip":"16043","country":"Italy","geoPoint":{"lat":44.31771,"lon":9.32241}},{"facility":"Novartis Investigative Site","status":"RECRUITING","city":"Genova","state":"GE","zip":"16122","country":"Italy","geoPoint":{"lat":44.40478,"lon":8.94438}},{"facility":"Novartis Investigative Site","status":"RECRUITING","city":"Pozzilli","state":"IS","zip":"86077","country":"Italy","geoPoint":{"lat":41.51142,"lon":14.06252}},{"facility":"Novartis Investigative Site","status":"RECRUITING","city":"Monza","state":"MB","zip":"20900","country":"Italy","geoPoint":{"lat":45.58005,"lon":9.27246}},{"facility":"Novartis Investigative Site","status":"RECRUITING","city":"Messina","state":"ME","zip":"98125","country":"Italy","geoPoint":{"lat":38.19394,"lon":15.55256}},{"facility":"Novartis Investigative Site","status":"RECRUITING","city":"Milano","state":"MI","zip":"20122","country":"Italy","geoPoint":{"lat":45.46427,"lon":9.18951}},{"facility":"Novartis Investigative Site","status":"RECRUITING","city":"Milano","state":"MI","zip":"20132","country":"Italy","geoPoint":{"lat":45.46427,"lon":9.18951}},{"facility":"Novartis Investigative Site","status":"RECRUITING","city":"Milano","state":"MI","zip":"20138","country":"Italy","geoPoint":{"lat":45.46427,"lon":9.18951}},{"facility":"Novartis Investigative Site","status":"RECRUITING","city":"Milano","state":"MI","zip":"20157","country":"Italy","geoPoint":{"lat":45.46427,"lon":9.18951}},{"facility":"Novartis Investigative Site","status":"RECRUITING","city":"Milano","state":"MI","zip":"20162","country":"Italy","geoPoint":{"lat":45.46427,"lon":9.18951}},{"facility":"Novartis Investigative Site","status":"RECRUITING","city":"Modena","state":"MO","zip":"41126","country":"Italy","geoPoint":{"lat":44.64783,"lon":10.92539}},{"facility":"Novartis Investigative Site","status":"RECRUITING","city":"Pisa","state":"PI","zip":"56126","country":"Italy","geoPoint":{"lat":43.70853,"lon":10.4036}},{"facility":"Novartis Investigative Site","status":"RECRUITING","city":"Roma","state":"RM","zip":"00161","country":"Italy","geoPoint":{"lat":41.89193,"lon":12.51133}},{"facility":"Novartis Investigative Site","status":"RECRUITING","city":"Roma","state":"RM","zip":"00168","country":"Italy","geoPoint":{"lat":41.89193,"lon":12.51133}},{"facility":"Novartis Investigative Site","status":"RECRUITING","city":"Siena","state":"SI","zip":"53100","country":"Italy","geoPoint":{"lat":43.31822,"lon":11.33064}},{"facility":"Novartis Investigative Site","status":"RECRUITING","city":"Catanzaro","zip":"88100","country":"Italy","geoPoint":{"lat":38.88247,"lon":16.60086}},{"facility":"Novartis Investigative Site","status":"RECRUITING","city":"Napoli","zip":"80131","country":"Italy","geoPoint":{"lat":40.85216,"lon":14.26811}},{"facility":"Novartis Investigative Site","status":"RECRUITING","city":"Roma","zip":"128","country":"Italy","geoPoint":{"lat":41.89193,"lon":12.51133}},{"facility":"Novartis Investigative Site","status":"RECRUITING","city":"Ogre","state":"LV","zip":"5001","country":"Latvia","geoPoint":{"lat":56.8162,"lon":24.61401}},{"facility":"Novartis Investigative Site","status":"RECRUITING","city":"Riga","zip":"LV 1002","country":"Latvia","geoPoint":{"lat":56.946,"lon":24.10589}},{"facility":"Novartis Investigative Site","status":"RECRUITING","city":"Riga","zip":"LV-1038","country":"Latvia","geoPoint":{"lat":56.946,"lon":24.10589}},{"facility":"Novartis Investigative Site","status":"RECRUITING","city":"Kaunas","state":"Kauno Apskritis","zip":"50161","country":"Lithuania","geoPoint":{"lat":54.90272,"lon":23.90961}},{"facility":"Novartis Investigative Site","status":"RECRUITING","city":"Kaunas","state":"Kauno Apskritis","zip":"LT-50177","country":"Lithuania","geoPoint":{"lat":54.90272,"lon":23.90961}},{"facility":"Novartis Investigative Site","status":"RECRUITING","city":"Klaipeda","state":"Klaipedos Apskritis","zip":"92288","country":"Lithuania","geoPoint":{"lat":55.70888,"lon":21.14311}},{"facility":"Novartis Investigative Site","status":"RECRUITING","city":"Alytus","zip":"LT-62386","country":"Lithuania","geoPoint":{"lat":54.39636,"lon":24.04143}},{"facility":"Novartis Investigative Site","status":"RECRUITING","city":"Kaunas","zip":"LT-49449","country":"Lithuania","geoPoint":{"lat":54.90272,"lon":23.90961}},{"facility":"Novartis Investigative Site","status":"RECRUITING","city":"Kaunas","zip":"LT-50009","country":"Lithuania","geoPoint":{"lat":54.90272,"lon":23.90961}},{"facility":"Novartis Investigative Site","status":"RECRUITING","city":"Panevezys","zip":"35144","country":"Lithuania","geoPoint":{"lat":55.73333,"lon":24.35}},{"facility":"Novartis Investigative Site","status":"RECRUITING","city":"Siauliai","zip":"76206","country":"Lithuania","geoPoint":{"lat":55.93333,"lon":23.31667}},{"facility":"Novartis Investigative Site","status":"RECRUITING","city":"Vilnius","zip":"LT-08661","country":"Lithuania","geoPoint":{"lat":54.68916,"lon":25.2798}},{"facility":"Novartis Investigative Site","status":"RECRUITING","city":"Kota Bahru","state":"Kelantan","zip":"16150","country":"Malaysia","geoPoint":{"lat":6.13328,"lon":102.2386}},{"facility":"Novartis Investigative Site","status":"RECRUITING","city":"Seremban","state":"Negeri Sembilan","zip":"70300","country":"Malaysia","geoPoint":{"lat":2.7297,"lon":101.9381}},{"facility":"Novartis Investigative Site","status":"RECRUITING","city":"Ipoh","state":"Perak","zip":"30450","country":"Malaysia","geoPoint":{"lat":4.5841,"lon":101.0829}},{"facility":"Novartis Investigative Site","status":"RECRUITING","city":"Seri Manjung","state":"Perak","zip":"32040","country":"Malaysia","geoPoint":{"lat":4.1987,"lon":100.67}},{"facility":"Novartis Investigative Site","status":"RECRUITING","city":"Timur Laut","state":"Pulau Pinang","zip":"11500","country":"Malaysia"},{"facility":"Novartis Investigative Site","status":"RECRUITING","city":"Kuching","state":"Sarawak","zip":"93586","country":"Malaysia","geoPoint":{"lat":1.54999,"lon":110.33333}},{"facility":"Novartis Investigative Site","status":"RECRUITING","city":"Sungai Buloh","state":"Selangor Darul Ehsan","zip":"47000","country":"Malaysia","geoPoint":{"lat":3.2,"lon":101.58333}},{"facility":"Novartis Investigative Site","status":"RECRUITING","city":"Kuala Lumpur","state":"Wilayah Persekutuan","zip":"50586","country":"Malaysia","geoPoint":{"lat":3.1412,"lon":101.68653}},{"facility":"Novartis Investigative Site","status":"RECRUITING","city":"Johor Bahru","zip":"80100","country":"Malaysia","geoPoint":{"lat":1.4655,"lon":103.7578}},{"facility":"Novartis Investigative Site","status":"RECRUITING","city":"Kuala Lumpur","zip":"50400","country":"Malaysia","geoPoint":{"lat":3.1412,"lon":101.68653}},{"facility":"Novartis Investigative Site","status":"RECRUITING","city":"Cuauhtemoc","state":"Cdmx","zip":"06760","country":"Mexico","geoPoint":{"lat":19.44506,"lon":-99.14612}},{"facility":"Novartis Investigative Site","status":"RECRUITING","city":"Gustavo A Madero","state":"Ciudad De Mexico","zip":"07020","country":"Mexico","geoPoint":{"lat":19.49392,"lon":-99.11075}},{"facility":"Novartis Investigative Site","status":"RECRUITING","city":"Ciudad de Mexico","state":"Distrito Federal","zip":"06700","country":"Mexico","geoPoint":{"lat":19.42847,"lon":-99.12766}},{"facility":"Novartis Investigative Site","status":"RECRUITING","city":"Mexico","state":"Distrito Federal","zip":"03100","country":"Mexico","geoPoint":{"lat":19.42847,"lon":-99.12766}},{"facility":"Novartis Investigative Site","status":"RECRUITING","city":"Leon","state":"Guanajuato","zip":"37160","country":"Mexico","geoPoint":{"lat":21.12908,"lon":-101.67374}},{"facility":"Novartis Investigative Site","status":"RECRUITING","city":"Actopan","state":"Hidalgo","zip":"42500","country":"Mexico","geoPoint":{"lat":20.26961,"lon":-98.94377}},{"facility":"Novartis Investigative Site","status":"RECRUITING","city":"Guadalajara","state":"Jalisco","zip":"44260","country":"Mexico","geoPoint":{"lat":20.66682,"lon":-103.39182}},{"facility":"Novartis Investigative Site","status":"RECRUITING","city":"Guadalajara","state":"Jalisco","zip":"44670","country":"Mexico","geoPoint":{"lat":20.66682,"lon":-103.39182}},{"facility":"Novartis Investigative Site","status":"RECRUITING","city":"Cuernavaca","state":"Morelos","zip":"62250","country":"Mexico","geoPoint":{"lat":18.9261,"lon":-99.23075}},{"facility":"Novartis Investigative Site","status":"RECRUITING","city":"Monterrey","state":"Nuevo Leon","zip":"64060","country":"Mexico","geoPoint":{"lat":25.67507,"lon":-100.31847}},{"facility":"Novartis Investigative Site","status":"RECRUITING","city":"Monterrey","state":"Nuevo Leon","zip":"64440","country":"Mexico","geoPoint":{"lat":25.67507,"lon":-100.31847}},{"facility":"Novartis Investigative Site","status":"RECRUITING","city":"Monterrey","state":"Nuevo Leon","zip":"64610","country":"Mexico","geoPoint":{"lat":25.67507,"lon":-100.31847}},{"facility":"Novartis Investigative Site","status":"RECRUITING","city":"Monterrey","state":"Nuevo León","zip":"64020","country":"Mexico","geoPoint":{"lat":25.67507,"lon":-100.31847}},{"facility":"Novartis Investigative Site","status":"RECRUITING","city":"Culiacan","state":"Sinaloa","zip":"80230","country":"Mexico","geoPoint":{"lat":24.79032,"lon":-107.38782}},{"facility":"Novartis Investigative Site","status":"RECRUITING","city":"Tampico","state":"Tamaulipas","zip":"89440","country":"Mexico","geoPoint":{"lat":22.26695,"lon":-97.86815}},{"facility":"Novartis Investigative Site","status":"RECRUITING","city":"Merida","state":"Yucatan","zip":"97070","country":"Mexico","geoPoint":{"lat":20.97537,"lon":-89.61696}},{"facility":"Novartis Investigative Site","status":"RECRUITING","city":"Aguascalientes","zip":"20230","country":"Mexico","geoPoint":{"lat":21.88234,"lon":-102.28259}},{"facility":"Novartis Investigative Site","status":"RECRUITING","city":"Chihuahua","zip":"31238","country":"Mexico","geoPoint":{"lat":28.63528,"lon":-106.08889}},{"facility":"Novartis Investigative Site","status":"RECRUITING","city":"Distrito Federal","zip":"14080","country":"Mexico","geoPoint":{"lat":16.59,"lon":-93.02694}},{"facility":"Novartis Investigative Site","status":"RECRUITING","city":"Oaxaca","zip":"68020","country":"Mexico","geoPoint":{"lat":17.06542,"lon":-96.72365}},{"facility":"Novartis Investigative Site","status":"RECRUITING","city":"San Luis Potosi","zip":"78200","country":"Mexico","geoPoint":{"lat":22.14982,"lon":-100.97916}},{"facility":"Novartis Investigative Site","status":"RECRUITING","city":"Veracruz","zip":"91900","country":"Mexico","geoPoint":{"lat":19.18095,"lon":-96.1429}},{"facility":"Novartis Investigative Site","status":"RECRUITING","city":"Sneek","state":"The Netherlands","zip":"8601 ZR","country":"Netherlands","geoPoint":{"lat":53.03297,"lon":5.6589}},{"facility":"Novartis Investigative Site","status":"RECRUITING","city":"Amsterdam","zip":"1090 HM","country":"Netherlands","geoPoint":{"lat":52.37403,"lon":4.88969}},{"facility":"Novartis Investigative Site","status":"RECRUITING","city":"Amsterdam","zip":"1105 AZ","country":"Netherlands","geoPoint":{"lat":52.37403,"lon":4.88969}},{"facility":"Novartis Investigative Site","status":"RECRUITING","city":"Arnhem","zip":"6815 AD","country":"Netherlands","geoPoint":{"lat":51.98,"lon":5.91111}},{"facility":"Novartis Investigative Site","status":"RECRUITING","city":"Beverwijk","zip":"NL-1942 LE","country":"Netherlands","geoPoint":{"lat":52.48333,"lon":4.65694}},{"facility":"Novartis Investigative Site","status":"RECRUITING","city":"Delft","zip":"2625 AD","country":"Netherlands","geoPoint":{"lat":52.00667,"lon":4.35556}},{"facility":"Novartis Investigative Site","status":"RECRUITING","city":"Den Haag","zip":"2545 CH","country":"Netherlands","geoPoint":{"lat":52.07667,"lon":4.29861}},{"facility":"Novartis Investigative Site","status":"RECRUITING","city":"Deventer","zip":"7416 SE","country":"Netherlands","geoPoint":{"lat":52.255,"lon":6.16389}},{"facility":"Novartis Investigative Site","status":"RECRUITING","city":"Dirksland","zip":"3247 BW","country":"Netherlands","geoPoint":{"lat":51.74917,"lon":4.1}},{"facility":"Novartis Investigative Site","status":"RECRUITING","city":"Doetinchem","zip":"7009 BL","country":"Netherlands","geoPoint":{"lat":51.965,"lon":6.28889}},{"facility":"Novartis Investigative Site","status":"RECRUITING","city":"Dordrecht","zip":"3318AT","country":"Netherlands","geoPoint":{"lat":51.81,"lon":4.67361}},{"facility":"Novartis Investigative Site","status":"RECRUITING","city":"Ede","zip":"6716 RP","country":"Netherlands","geoPoint":{"lat":52.03333,"lon":5.65833}},{"facility":"Novartis Investigative Site","status":"RECRUITING","city":"Eindhoven","zip":"5623 EJ","country":"Netherlands","geoPoint":{"lat":51.44083,"lon":5.47778}},{"facility":"Novartis Investigative Site","status":"RECRUITING","city":"Enschede","zip":"7512KZ","country":"Netherlands","geoPoint":{"lat":52.21833,"lon":6.89583}},{"facility":"Novartis Investigative Site","status":"RECRUITING","city":"Gouda","zip":"2803 HH","country":"Netherlands","geoPoint":{"lat":52.01667,"lon":4.70833}},{"facility":"Novartis Investigative Site","status":"RECRUITING","city":"Hardenberg","zip":"7770 AA","country":"Netherlands","geoPoint":{"lat":52.57583,"lon":6.61944}},{"facility":"Novartis Investigative Site","status":"RECRUITING","city":"Hertogenbosch","zip":"5200","country":"Netherlands","geoPoint":{"lat":51.27,"lon":5.59167}},{"facility":"Novartis Investigative Site","status":"RECRUITING","city":"Leeuwarden","zip":"8934 AD","country":"Netherlands","geoPoint":{"lat":53.20139,"lon":5.80859}},{"facility":"Novartis Investigative Site","status":"RECRUITING","city":"Nijmegen","zip":"6500 HB","country":"Netherlands","geoPoint":{"lat":51.8425,"lon":5.85278}},{"facility":"Novartis Investigative Site","status":"RECRUITING","city":"Nijmegen","zip":"6532 SZ","country":"Netherlands","geoPoint":{"lat":51.8425,"lon":5.85278}},{"facility":"Novartis Investigative Site","status":"RECRUITING","city":"Tilburg","zip":"5042 AD","country":"Netherlands","geoPoint":{"lat":51.55551,"lon":5.0913}},{"facility":"Novartis Investigative Site","status":"RECRUITING","city":"Venlo","zip":"5912 BL","country":"Netherlands","geoPoint":{"lat":51.37,"lon":6.16806}},{"facility":"Novartis Investigative Site","status":"RECRUITING","city":"Iloilo city","state":"Iloilo","zip":"5000","country":"Philippines","geoPoint":{"lat":10.69694,"lon":122.56444}},{"facility":"Novartis Investigative Site","status":"RECRUITING","city":"Quezon","zip":"1102","country":"Philippines","geoPoint":{"lat":7.73028,"lon":125.09889}},{"facility":"Novartis Investigative Site","status":"RECRUITING","city":"Tarnow","state":"Malopolskie","zip":"33-100","country":"Poland","geoPoint":{"lat":50.01381,"lon":20.98698}},{"facility":"Novartis Investigative Site","status":"RECRUITING","city":"Bialystok","zip":"15-704","country":"Poland","geoPoint":{"lat":53.13333,"lon":23.16433}},{"facility":"Novartis Investigative Site","status":"RECRUITING","city":"Bydgoszcz","zip":"85-048","country":"Poland","geoPoint":{"lat":53.1235,"lon":18.00762}},{"facility":"Novartis Investigative Site","status":"RECRUITING","city":"Bydgoszcz","zip":"85-065","country":"Poland","geoPoint":{"lat":53.1235,"lon":18.00762}},{"facility":"Novartis Investigative Site","status":"RECRUITING","city":"Bygdoszcz","zip":"85-605","country":"Poland"},{"facility":"Novartis Investigative Site","status":"RECRUITING","city":"Chorzow","zip":"41-500","country":"Poland","geoPoint":{"lat":50.30582,"lon":18.9742}},{"facility":"Novartis Investigative Site","status":"RECRUITING","city":"Elblag","zip":"82-300","country":"Poland","geoPoint":{"lat":54.1522,"lon":19.40884}},{"facility":"Novartis Investigative Site","status":"RECRUITING","city":"Gdansk","zip":"80 952","country":"Poland","geoPoint":{"lat":54.35205,"lon":18.64637}},{"facility":"Novartis Investigative Site","status":"RECRUITING","city":"Gdynia","zip":"81-157","country":"Poland","geoPoint":{"lat":54.51889,"lon":18.53188}},{"facility":"Novartis Investigative Site","status":"RECRUITING","city":"Golub-Dobrzyn","zip":"87-400","country":"Poland","geoPoint":{"lat":53.11087,"lon":19.05381}},{"facility":"Novartis Investigative Site","status":"RECRUITING","city":"Grudziadz","zip":"86-300","country":"Poland","geoPoint":{"lat":53.48411,"lon":18.75366}},{"facility":"Novartis Investigative Site","status":"RECRUITING","city":"Katowice","zip":"40-081","country":"Poland","geoPoint":{"lat":50.25841,"lon":19.02754}},{"facility":"Novartis Investigative Site","status":"RECRUITING","city":"Katowice","zip":"40-555","country":"Poland","geoPoint":{"lat":50.25841,"lon":19.02754}},{"facility":"Novartis Investigative Site","status":"RECRUITING","city":"Katowice","zip":"40-648","country":"Poland","geoPoint":{"lat":50.25841,"lon":19.02754}},{"facility":"Novartis Investigative Site","status":"RECRUITING","city":"Krakow","zip":"30-721","country":"Poland","geoPoint":{"lat":50.06143,"lon":19.93658}},{"facility":"Novartis Investigative Site","status":"RECRUITING","city":"Krakow","zip":"31 216","country":"Poland","geoPoint":{"lat":50.06143,"lon":19.93658}},{"facility":"Novartis Investigative Site","status":"RECRUITING","city":"Krosno","zip":"38-400","country":"Poland","geoPoint":{"lat":49.68866,"lon":21.77058}},{"facility":"Novartis Investigative Site","status":"RECRUITING","city":"Lodz","zip":"91-034","country":"Poland","geoPoint":{"lat":51.75,"lon":19.46667}},{"facility":"Novartis Investigative Site","status":"RECRUITING","city":"Lodz","zip":"91-347","country":"Poland","geoPoint":{"lat":51.75,"lon":19.46667}},{"facility":"Novartis Investigative Site","status":"RECRUITING","city":"Myszkow","zip":"42-300","country":"Poland","geoPoint":{"lat":50.5752,"lon":19.32461}},{"facility":"Novartis Investigative Site","status":"RECRUITING","city":"Olsztyn","zip":"10 010","country":"Poland","geoPoint":{"lat":53.77995,"lon":20.49416}},{"facility":"Novartis Investigative Site","status":"RECRUITING","city":"Piotrkow Trybunalski","zip":"97300","country":"Poland","geoPoint":{"lat":51.40547,"lon":19.70321}},{"facility":"Novartis Investigative Site","status":"RECRUITING","city":"Rzeszow","zip":"35 055","country":"Poland","geoPoint":{"lat":50.04132,"lon":21.99901}},{"facility":"Novartis Investigative Site","status":"RECRUITING","city":"Wroclaw","zip":"52-416","country":"Poland","geoPoint":{"lat":51.1,"lon":17.03333}},{"facility":"Novartis Investigative Site","status":"RECRUITING","city":"Carnaxide","state":"Lisboa","zip":"2799 523","country":"Portugal","geoPoint":{"lat":38.72706,"lon":-9.24671}},{"facility":"Novartis Investigative Site","status":"RECRUITING","city":"Almada","zip":"2801 951","country":"Portugal","geoPoint":{"lat":38.67902,"lon":-9.1569}},{"facility":"Novartis Investigative Site","status":"RECRUITING","city":"Coimbra","zip":"3000 075","country":"Portugal","geoPoint":{"lat":40.20564,"lon":-8.41955}},{"facility":"Novartis Investigative Site","status":"RECRUITING","city":"Lisboa","zip":"1500 650","country":"Portugal","geoPoint":{"lat":38.71667,"lon":-9.13333}},{"facility":"Novartis Investigative Site","status":"RECRUITING","city":"Lisboa","zip":"1600190","country":"Portugal","geoPoint":{"lat":38.71667,"lon":-9.13333}},{"facility":"Novartis Investigative Site","status":"RECRUITING","city":"Matosinhos","zip":"4454 513","country":"Portugal","geoPoint":{"lat":41.18207,"lon":-8.68908}},{"facility":"Novartis Investigative Site","status":"RECRUITING","city":"Porto","zip":"4200 319","country":"Portugal","geoPoint":{"lat":41.14961,"lon":-8.61099}},{"facility":"Novartis Investigative Site","status":"RECRUITING","city":"Santa Maria da Feira","zip":"4520 211","country":"Portugal","geoPoint":{"lat":40.92726,"lon":-8.54839}},{"facility":"Novartis Investigative Site","status":"RECRUITING","city":"Setubal","zip":"2910-446","country":"Portugal","geoPoint":{"lat":38.5244,"lon":-8.8882}},{"facility":"Novartis Investigative Site","status":"RECRUITING","city":"Vila Nova de Gaia","zip":"4434 502","country":"Portugal","geoPoint":{"lat":41.13363,"lon":-8.61742}},{"facility":"Novartis Investigative Site","status":"RECRUITING","city":"Pitesti","state":"Arges","zip":"110438","country":"Romania","geoPoint":{"lat":44.85,"lon":24.86667}},{"facility":"Novartis Investigative Site","status":"RECRUITING","city":"Craiova","state":"Jud Dolj","zip":"200513","country":"Romania","geoPoint":{"lat":44.31667,"lon":23.8}},{"facility":"Novartis Investigative Site","status":"RECRUITING","city":"Targu Mures","state":"Mures","zip":"540124","country":"Romania","geoPoint":{"lat":46.54245,"lon":24.55747}},{"facility":"Novartis Investigative Site","status":"RECRUITING","city":"Tg Mures","state":"Mures","zip":"540136","country":"Romania"},{"facility":"Novartis Investigative Site","status":"RECRUITING","city":"Baia Mare","zip":"430123","country":"Romania","geoPoint":{"lat":47.65529,"lon":23.57381}},{"facility":"Novartis Investigative Site","status":"RECRUITING","city":"Baia Mare","zip":"430222","country":"Romania","geoPoint":{"lat":47.65529,"lon":23.57381}},{"facility":"Novartis Investigative Site","status":"RECRUITING","city":"Braila","zip":"810249","country":"Romania","geoPoint":{"lat":45.26667,"lon":27.98333}},{"facility":"Novartis Investigative Site","status":"RECRUITING","city":"Bucharest","zip":"010496","country":"Romania","geoPoint":{"lat":44.43225,"lon":26.10626}},{"facility":"Novartis Investigative Site","status":"RECRUITING","city":"Bucharest","zip":"010627","country":"Romania","geoPoint":{"lat":44.43225,"lon":26.10626}},{"facility":"Novartis Investigative Site","status":"RECRUITING","city":"Bucharest","zip":"011055","country":"Romania","geoPoint":{"lat":44.43225,"lon":26.10626}},{"facility":"Novartis Investigative Site","status":"RECRUITING","city":"Bucharest","zip":"020475","country":"Romania","geoPoint":{"lat":44.43225,"lon":26.10626}},{"facility":"Novartis Investigative Site","status":"RECRUITING","city":"Bucharest","zip":"022328","country":"Romania","geoPoint":{"lat":44.43225,"lon":26.10626}},{"facility":"Novartis Investigative Site","status":"RECRUITING","city":"Bucuresti","zip":"011461","country":"Romania","geoPoint":{"lat":44.42802,"lon":26.09665}},{"facility":"Novartis Investigative Site","status":"RECRUITING","city":"Bucuresti","zip":"062272","country":"Romania","geoPoint":{"lat":44.42802,"lon":26.09665}},{"facility":"Novartis Investigative Site","status":"RECRUITING","city":"Buzau","zip":"120133","country":"Romania","geoPoint":{"lat":45.15,"lon":26.83333}},{"facility":"Novartis Investigative Site","status":"RECRUITING","city":"Cluj","zip":"400006","country":"Romania","geoPoint":{"lat":46.76667,"lon":23.6}},{"facility":"Novartis Investigative Site","status":"RECRUITING","city":"Craiova","zip":"200642","country":"Romania","geoPoint":{"lat":44.31667,"lon":23.8}},{"facility":"Novartis Investigative Site","status":"RECRUITING","city":"Suceava","zip":"727525","country":"Romania","geoPoint":{"lat":47.63333,"lon":26.25}},{"facility":"Novartis Investigative Site","status":"RECRUITING","city":"Targu Mures","zip":"540142","country":"Romania","geoPoint":{"lat":46.54245,"lon":24.55747}},{"facility":"Novartis Investigative Site","status":"RECRUITING","city":"Targu Mures","zip":"540143","country":"Romania","geoPoint":{"lat":46.54245,"lon":24.55747}},{"facility":"Novartis Investigative Site","status":"RECRUITING","city":"Timisoara","zip":"300736","country":"Romania","geoPoint":{"lat":45.75372,"lon":21.22571}},{"facility":"Novartis Investigative Site","status":"RECRUITING","city":"Singapore","zip":"117549","country":"Singapore","geoPoint":{"lat":1.28967,"lon":103.85007}},{"facility":"Novartis Investigative Site","status":"RECRUITING","city":"Singapore","zip":"169608","country":"Singapore","geoPoint":{"lat":1.28967,"lon":103.85007}},{"facility":"Novartis Investigative Site","status":"RECRUITING","city":"Singapore","zip":"529889","country":"Singapore","geoPoint":{"lat":1.28967,"lon":103.85007}},{"facility":"Novartis Investigative Site","status":"RECRUITING","city":"Singapore","zip":"768828","country":"Singapore","geoPoint":{"lat":1.28967,"lon":103.85007}},{"facility":"Novartis Investigative Site","status":"RECRUITING","city":"Bratislava","state":"Slovak Republic","zip":"813 69","country":"Slovakia","geoPoint":{"lat":48.14816,"lon":17.10674}},{"facility":"Novartis Investigative Site","status":"RECRUITING","city":"Lucenec","state":"Slovak Republic","zip":"984 01","country":"Slovakia","geoPoint":{"lat":48.33249,"lon":19.66708}},{"facility":"Novartis Investigative Site","status":"RECRUITING","city":"Presov","state":"Slovak Republic","zip":"080 01","country":"Slovakia","geoPoint":{"lat":48.99839,"lon":21.23393}},{"facility":"Novartis Investigative Site","status":"RECRUITING","city":"Roznava","state":"Slovak Republic","zip":"04801","country":"Slovakia","geoPoint":{"lat":48.66009,"lon":20.53758}},{"facility":"Novartis Investigative Site","status":"RECRUITING","city":"Prievidza","state":"Trenciansky Kraj","zip":"971 01","country":"Slovakia","geoPoint":{"lat":48.77446,"lon":18.6275}},{"facility":"Novartis Investigative Site","status":"RECRUITING","city":"Prievidza","state":"Trenciansky Kraj","zip":"97101","country":"Slovakia","geoPoint":{"lat":48.77446,"lon":18.6275}},{"facility":"Novartis Investigative Site","status":"RECRUITING","city":"Bardejov","zip":"085 01","country":"Slovakia","geoPoint":{"lat":49.29175,"lon":21.27271}},{"facility":"Novartis Investigative Site","status":"RECRUITING","city":"Bardejov","zip":"08501","country":"Slovakia","geoPoint":{"lat":49.29175,"lon":21.27271}},{"facility":"Novartis Investigative Site","status":"RECRUITING","city":"Bratislava","zip":"831 01","country":"Slovakia","geoPoint":{"lat":48.14816,"lon":17.10674}},{"facility":"Novartis Investigative Site","status":"RECRUITING","city":"Bratislava","zip":"83106","country":"Slovakia","geoPoint":{"lat":48.14816,"lon":17.10674}},{"facility":"Novartis Investigative Site","status":"RECRUITING","city":"Bratislava","zip":"841 02","country":"Slovakia","geoPoint":{"lat":48.14816,"lon":17.10674}},{"facility":"Novartis Investigative Site","status":"RECRUITING","city":"Bratislava","zip":"841 07","country":"Slovakia","geoPoint":{"lat":48.14816,"lon":17.10674}},{"facility":"Novartis Investigative Site","status":"RECRUITING","city":"Bratislava","zip":"84104","country":"Slovakia","geoPoint":{"lat":48.14816,"lon":17.10674}},{"facility":"Novartis Investigative Site","status":"RECRUITING","city":"Bratislava","zip":"85101","country":"Slovakia","geoPoint":{"lat":48.14816,"lon":17.10674}},{"facility":"Novartis Investigative Site","status":"RECRUITING","city":"Dolny Kubin","zip":"02601","country":"Slovakia","geoPoint":{"lat":49.20983,"lon":19.30341}},{"facility":"Novartis Investigative Site","status":"RECRUITING","city":"Kosice","zip":"040 01","country":"Slovakia","geoPoint":{"lat":48.71395,"lon":21.25808}},{"facility":"Novartis Investigative Site","status":"RECRUITING","city":"Kosice","zip":"04011","country":"Slovakia","geoPoint":{"lat":48.71395,"lon":21.25808}},{"facility":"Novartis Investigative Site","status":"RECRUITING","city":"Kralovsky Chlmec","zip":"07701","country":"Slovakia","geoPoint":{"lat":48.42336,"lon":21.97944}},{"facility":"Novartis Investigative Site","status":"RECRUITING","city":"Lubochna","zip":"SK 03491","country":"Slovakia","geoPoint":{"lat":49.12011,"lon":19.16891}},{"facility":"Novartis Investigative Site","status":"RECRUITING","city":"Lucenec","zip":"98439","country":"Slovakia","geoPoint":{"lat":48.33249,"lon":19.66708}},{"facility":"Novartis Investigative Site","status":"RECRUITING","city":"Nitra","zip":"949 01","country":"Slovakia","geoPoint":{"lat":48.30763,"lon":18.08453}},{"facility":"Novartis Investigative Site","status":"RECRUITING","city":"Nove Zamky","zip":"940 01","country":"Slovakia","geoPoint":{"lat":47.98544,"lon":18.16195}},{"facility":"Novartis Investigative Site","status":"RECRUITING","city":"Presov","zip":"080 01","country":"Slovakia","geoPoint":{"lat":48.99839,"lon":21.23393}},{"facility":"Novartis Investigative Site","status":"RECRUITING","city":"Presov","zip":"08001","country":"Slovakia","geoPoint":{"lat":48.99839,"lon":21.23393}},{"facility":"Novartis Investigative Site","status":"RECRUITING","city":"Svidnik","zip":"089 01","country":"Slovakia","geoPoint":{"lat":49.30819,"lon":21.5703}},{"facility":"Novartis Investigative Site","status":"RECRUITING","city":"Trnava","zip":"91701","country":"Slovakia","geoPoint":{"lat":48.37741,"lon":17.58723}},{"facility":"Novartis Investigative Site","status":"RECRUITING","city":"Port Elizabeth","state":"Eastern Cape","zip":"6001","country":"South Africa","geoPoint":{"lat":-33.91799,"lon":25.57007}},{"facility":"Novartis Investigative Site","status":"RECRUITING","city":"Bloemfontein","state":"Free State","zip":"9301","country":"South Africa","geoPoint":{"lat":-29.12107,"lon":26.214}},{"facility":"Novartis Investigative Site","status":"RECRUITING","city":"Brandfort","state":"Free State","zip":"8340","country":"South Africa","geoPoint":{"lat":-28.70008,"lon":26.45968}},{"facility":"Novartis Investigative Site","status":"RECRUITING","city":"Kwadukuza","state":"Kwazulu Natal","zip":"4449","country":"South Africa","geoPoint":{"lat":-29.32816,"lon":31.28954}},{"facility":"Novartis Investigative Site","status":"RECRUITING","city":"Cape Town","state":"Western Cape","zip":"7500","country":"South Africa","geoPoint":{"lat":-33.92584,"lon":18.42322}},{"facility":"Novartis Investigative Site","status":"RECRUITING","city":"George","state":"Western Cape","zip":"6529","country":"South Africa","geoPoint":{"lat":-33.963,"lon":22.46173}},{"facility":"Novartis Investigative Site","status":"RECRUITING","city":"Cape Town","zip":"7531","country":"South Africa","geoPoint":{"lat":-33.92584,"lon":18.42322}},{"facility":"Novartis Investigative Site","status":"RECRUITING","city":"Santiago de Compostela","state":"A Coruna","zip":"15702","country":"Spain","geoPoint":{"lat":42.88052,"lon":-8.54569}},{"facility":"Novartis Investigative Site","status":"RECRUITING","city":"Elche","state":"Alicante","zip":"03203","country":"Spain","geoPoint":{"lat":38.26218,"lon":-0.70107}},{"facility":"Novartis Investigative Site","status":"RECRUITING","city":"Almeria","state":"Andalucia","zip":"04009","country":"Spain","geoPoint":{"lat":36.83814,"lon":-2.45974}},{"facility":"Novartis Investigative Site","status":"RECRUITING","city":"Cordoba","state":"Andalucia","zip":"14004","country":"Spain","geoPoint":{"lat":37.89155,"lon":-4.77275}},{"facility":"Novartis Investigative Site","status":"RECRUITING","city":"Granada","state":"Andalucia","zip":"18014","country":"Spain","geoPoint":{"lat":37.18817,"lon":-3.60667}},{"facility":"Novartis Investigative Site","status":"RECRUITING","city":"Huelva","state":"Andalucia","zip":"21005","country":"Spain","geoPoint":{"lat":37.26638,"lon":-6.94004}},{"facility":"Novartis Investigative Site","status":"RECRUITING","city":"Malaga","state":"Andalucia","zip":"29009","country":"Spain","geoPoint":{"lat":36.72016,"lon":-4.42034}},{"facility":"Novartis Investigative Site","status":"RECRUITING","city":"Malaga","state":"Andalucia","zip":"29010","country":"Spain","geoPoint":{"lat":36.72016,"lon":-4.42034}},{"facility":"Novartis Investigative Site","status":"RECRUITING","city":"Marbella","state":"Andalucia","zip":"29600","country":"Spain","geoPoint":{"lat":36.51543,"lon":-4.88583}},{"facility":"Novartis Investigative Site","status":"RECRUITING","city":"Sanlucar de Barrameda","state":"Andalucia","zip":"11540","country":"Spain","geoPoint":{"lat":36.77808,"lon":-6.3515}},{"facility":"Novartis Investigative Site","status":"RECRUITING","city":"Sevilla","state":"Andalucia","zip":"41009","country":"Spain","geoPoint":{"lat":37.38283,"lon":-5.97317}},{"facility":"Novartis Investigative Site","status":"RECRUITING","city":"Sevilla","state":"Andalucia","zip":"41013","country":"Spain","geoPoint":{"lat":37.38283,"lon":-5.97317}},{"facility":"Novartis Investigative Site","status":"RECRUITING","city":"Utrera","state":"Andalucia","zip":"41710","country":"Spain","geoPoint":{"lat":37.18516,"lon":-5.78093}},{"facility":"Novartis Investigative Site","status":"RECRUITING","city":"Palma","state":"Balears","zip":"07011","country":"Spain","geoPoint":{"lat":39.56939,"lon":2.65024}},{"facility":"Novartis Investigative Site","status":"RECRUITING","city":"Centelles","state":"Barcelona","zip":"08540","country":"Spain","geoPoint":{"lat":41.79746,"lon":2.21902}},{"facility":"Novartis Investigative Site","status":"RECRUITING","city":"El Prat de Llobregat","state":"Barcelona","zip":"08820","country":"Spain","geoPoint":{"lat":41.32784,"lon":2.09472}},{"facility":"Novartis Investigative Site","status":"RECRUITING","city":"La Roca del Valles","state":"Barcelona","zip":"08430","country":"Spain","geoPoint":{"lat":41.58333,"lon":2.33333}},{"facility":"Novartis Investigative Site","status":"RECRUITING","city":"Mataro","state":"Barcelona","zip":"08303","country":"Spain","geoPoint":{"lat":41.54211,"lon":2.4445}},{"facility":"Novartis Investigative Site","status":"RECRUITING","city":"Sant Adria Del Besos","state":"Barcelona","zip":"08930","country":"Spain"},{"facility":"Novartis Investigative Site","status":"RECRUITING","city":"Vic","state":"Barcelona","zip":"08500","country":"Spain","geoPoint":{"lat":41.93012,"lon":2.25486}},{"facility":"Novartis Investigative Site","status":"RECRUITING","city":"Puerto Real","state":"Cadiz","zip":"11510","country":"Spain","geoPoint":{"lat":36.52819,"lon":-6.19011}},{"facility":"Novartis Investigative Site","status":"RECRUITING","city":"Villamartin","state":"Cadiz","zip":"11650","country":"Spain","geoPoint":{"lat":36.85979,"lon":-5.64485}},{"facility":"Novartis Investigative Site","status":"RECRUITING","city":"Santander","state":"Cantabria","zip":"39008","country":"Spain","geoPoint":{"lat":43.46472,"lon":-3.80444}},{"facility":"Novartis Investigative Site","status":"RECRUITING","city":"Salamanca","state":"Castilla Y Leon","zip":"37007","country":"Spain","geoPoint":{"lat":40.96882,"lon":-5.66388}},{"facility":"Novartis Investigative Site","status":"RECRUITING","city":"Barcelona","state":"Cataluna","zip":"08022","country":"Spain","geoPoint":{"lat":41.38879,"lon":2.15899}},{"facility":"Novartis Investigative Site","status":"RECRUITING","city":"Barcelona","state":"Cataluna","zip":"08024","country":"Spain","geoPoint":{"lat":41.38879,"lon":2.15899}},{"facility":"Novartis Investigative Site","status":"RECRUITING","city":"Reus","state":"Cataluna","zip":"43201","country":"Spain","geoPoint":{"lat":41.15612,"lon":1.10687}},{"facility":"Novartis Investigative Site","status":"RECRUITING","city":"Badalona","state":"Catalunya","zip":"08916","country":"Spain","geoPoint":{"lat":41.45004,"lon":2.24741}},{"facility":"Novartis Investigative Site","status":"RECRUITING","city":"Barcelona","state":"Catalunya","zip":"08003","country":"Spain","geoPoint":{"lat":41.38879,"lon":2.15899}},{"facility":"Novartis Investigative Site","status":"RECRUITING","city":"Barcelona","state":"Catalunya","zip":"08035","country":"Spain","geoPoint":{"lat":41.38879,"lon":2.15899}},{"facility":"Novartis Investigative Site","status":"RECRUITING","city":"Alzira","state":"Comunidad Valenciana","zip":"46600","country":"Spain","geoPoint":{"lat":39.15,"lon":-0.43333}},{"facility":"Novartis Investigative Site","status":"RECRUITING","city":"Valencia","state":"Comunidad Valenciana","zip":"46014","country":"Spain","geoPoint":{"lat":39.46975,"lon":-0.37739}},{"facility":"Novartis Investigative Site","status":"RECRUITING","city":"Caceres","state":"Extremadura","zip":"10003","country":"Spain","geoPoint":{"lat":39.47649,"lon":-6.37224}},{"facility":"Novartis Investigative Site","status":"RECRUITING","city":"A Coruna","state":"Galicia","zip":"15006","country":"Spain","geoPoint":{"lat":43.37135,"lon":-8.396}},{"facility":"Novartis Investigative Site","status":"RECRUITING","city":"La Coruna","state":"Galicia","zip":"15006","country":"Spain","geoPoint":{"lat":43.37135,"lon":-8.396}},{"facility":"Novartis Investigative Site","status":"RECRUITING","city":"Santiago De Compostela","state":"Galicia","zip":"15706","country":"Spain","geoPoint":{"lat":42.88052,"lon":-8.54569}},{"facility":"Novartis Investigative Site","status":"RECRUITING","city":"Peralada","state":"Girona","zip":"17491","country":"Spain","geoPoint":{"lat":42.30823,"lon":3.0091}},{"facility":"Novartis Investigative Site","status":"RECRUITING","city":"Mallorca","state":"Islas Baleares","zip":"07198","country":"Spain"},{"facility":"Novartis Investigative Site","status":"RECRUITING","city":"Boadilla del Monte","state":"Madrid","zip":"28660","country":"Spain","geoPoint":{"lat":40.405,"lon":-3.87835}},{"facility":"Novartis Investigative Site","status":"RECRUITING","city":"Fuenlabrada","state":"Madrid","zip":"28942","country":"Spain","geoPoint":{"lat":40.28419,"lon":-3.79415}},{"facility":"Novartis Investigative Site","status":"RECRUITING","city":"Pozuelo de Alarcon","state":"Madrid","zip":"28223","country":"Spain","geoPoint":{"lat":40.43293,"lon":-3.81338}},{"facility":"Novartis Investigative Site","status":"RECRUITING","city":"Antequera","state":"Malaga","zip":"29200","country":"Spain","geoPoint":{"lat":37.01938,"lon":-4.56123}},{"facility":"Novartis Investigative Site","status":"RECRUITING","city":"Ronda","state":"Malaga","zip":"29400","country":"Spain","geoPoint":{"lat":36.74231,"lon":-5.16709}},{"facility":"Novartis Investigative Site","status":"RECRUITING","city":"El Palmar","state":"Murcia","zip":"30120","country":"Spain","geoPoint":{"lat":37.93939,"lon":-1.16095}},{"facility":"Novartis Investigative Site","status":"RECRUITING","city":"Pamplona","state":"Navarra","zip":"31008","country":"Spain","geoPoint":{"lat":42.81687,"lon":-1.64323}},{"facility":"Novartis Investigative Site","status":"RECRUITING","city":"La Laguna","state":"Santa Cruz De Tenerife","zip":"38320","country":"Spain","geoPoint":{"lat":28.4853,"lon":-16.32014}},{"facility":"Novartis Investigative Site","status":"RECRUITING","city":"Castilleja De La Cuesta","state":"Sevilla","zip":"41950","country":"Spain","geoPoint":{"lat":37.38594,"lon":-6.05258}},{"facility":"Novartis Investigative Site","status":"RECRUITING","city":"Lebrija","state":"Sevilla","zip":"41570","country":"Spain","geoPoint":{"lat":36.92077,"lon":-6.07529}},{"facility":"Novartis Investigative Site","status":"RECRUITING","city":"A Coruna","zip":"15001","country":"Spain","geoPoint":{"lat":43.37135,"lon":-8.396}},{"facility":"Novartis Investigative Site","status":"RECRUITING","city":"Alicante","zip":"03700","country":"Spain","geoPoint":{"lat":38.34517,"lon":-0.48149}},{"facility":"Novartis Investigative Site","status":"RECRUITING","city":"Barcelona","zip":"08025","country":"Spain","geoPoint":{"lat":41.38879,"lon":2.15899}},{"facility":"Novartis Investigative Site","status":"RECRUITING","city":"Barcelona","zip":"08028","country":"Spain","geoPoint":{"lat":41.38879,"lon":2.15899}},{"facility":"Novartis Investigative Site","status":"RECRUITING","city":"Barcelona","zip":"08041","country":"Spain","geoPoint":{"lat":41.38879,"lon":2.15899}},{"facility":"Novartis Investigative Site","status":"RECRUITING","city":"Ferrol","zip":"15405","country":"Spain","geoPoint":{"lat":43.4896,"lon":-8.21942}},{"facility":"Novartis Investigative Site","status":"RECRUITING","city":"Huelva","zip":"21007","country":"Spain","geoPoint":{"lat":37.26638,"lon":-6.94004}},{"facility":"Novartis Investigative Site","status":"RECRUITING","city":"Las Palmas de Gran Canaria","zip":"35010","country":"Spain","geoPoint":{"lat":28.09973,"lon":-15.41343}},{"facility":"Novartis Investigative Site","status":"RECRUITING","city":"Las Palmas de Gran Canaria","zip":"35016","country":"Spain","geoPoint":{"lat":28.09973,"lon":-15.41343}},{"facility":"Novartis Investigative Site","status":"RECRUITING","city":"Madrid","zip":"28003","country":"Spain","geoPoint":{"lat":40.4165,"lon":-3.70256}},{"facility":"Novartis Investigative Site","status":"RECRUITING","city":"Madrid","zip":"28009","country":"Spain","geoPoint":{"lat":40.4165,"lon":-3.70256}},{"facility":"Novartis Investigative Site","status":"RECRUITING","city":"Madrid","zip":"28010","country":"Spain","geoPoint":{"lat":40.4165,"lon":-3.70256}},{"facility":"Novartis Investigative Site","status":"RECRUITING","city":"Madrid","zip":"28034","country":"Spain","geoPoint":{"lat":40.4165,"lon":-3.70256}},{"facility":"Novartis Investigative Site","status":"RECRUITING","city":"Madrid","zip":"28040","country":"Spain","geoPoint":{"lat":40.4165,"lon":-3.70256}},{"facility":"Novartis Investigative Site","status":"RECRUITING","city":"Madrid","zip":"28041","country":"Spain","geoPoint":{"lat":40.4165,"lon":-3.70256}},{"facility":"Novartis Investigative Site","status":"RECRUITING","city":"Tarragona","zip":"43002","country":"Spain","geoPoint":{"lat":41.11667,"lon":1.25}},{"facility":"Novartis Investigative Site","status":"RECRUITING","city":"Zaragoza","zip":"50009","country":"Spain","geoPoint":{"lat":41.65606,"lon":-0.87734}},{"facility":"Novartis Investigative Site","status":"RECRUITING","city":"Stockholm","zip":"111 57","country":"Sweden","geoPoint":{"lat":59.33258,"lon":18.0649}},{"facility":"Novartis Investigative Site","status":"RECRUITING","city":"Vasteras","zip":"721 89","country":"Sweden","geoPoint":{"lat":59.61617,"lon":16.55276}},{"facility":"Novartis Investigative Site","status":"RECRUITING","city":"Basel","zip":"4031","country":"Switzerland","geoPoint":{"lat":47.55839,"lon":7.57327}},{"facility":"Novartis Investigative Site","status":"RECRUITING","city":"Bern","zip":"3010","country":"Switzerland","geoPoint":{"lat":46.94809,"lon":7.44744}},{"facility":"Novartis Investigative Site","status":"RECRUITING","city":"Geneve 14","zip":"1211","country":"Switzerland","geoPoint":{"lat":46.20222,"lon":6.14569}},{"facility":"Novartis Investigative Site","status":"RECRUITING","city":"Lugano","zip":"6903","country":"Switzerland","geoPoint":{"lat":46.01008,"lon":8.96004}},{"facility":"Novartis Investigative Site","status":"RECRUITING","city":"Luzern 16","zip":"CH 6000","country":"Switzerland","geoPoint":{"lat":47.05048,"lon":8.30635}},{"facility":"Novartis Investigative Site","status":"RECRUITING","city":"Taichung","state":"Taiwan ROC","zip":"40201","country":"Taiwan","geoPoint":{"lat":24.1469,"lon":120.6839}},{"facility":"Novartis Investigative Site","status":"RECRUITING","city":"Changhua","zip":"50006","country":"Taiwan","geoPoint":{"lat":24.07327,"lon":120.56276}},{"facility":"Novartis Investigative Site","status":"RECRUITING","city":"Kaohsiung","zip":"80756","country":"Taiwan","geoPoint":{"lat":22.61626,"lon":120.31333}},{"facility":"Novartis Investigative Site","status":"RECRUITING","city":"Taichung","zip":"40447","country":"Taiwan","geoPoint":{"lat":24.1469,"lon":120.6839}},{"facility":"Novartis Investigative Site","status":"RECRUITING","city":"Tainan","zip":"704","country":"Taiwan","geoPoint":{"lat":22.99083,"lon":120.21333}},{"facility":"Novartis Investigative Site","status":"RECRUITING","city":"Tainan","zip":"71004","country":"Taiwan","geoPoint":{"lat":22.99083,"lon":120.21333}},{"facility":"Novartis Investigative Site","status":"RECRUITING","city":"Taipei","zip":"110","country":"Taiwan","geoPoint":{"lat":25.04776,"lon":121.53185}},{"facility":"Novartis Investigative Site","status":"RECRUITING","city":"Taipei","zip":"11217","country":"Taiwan","geoPoint":{"lat":25.04776,"lon":121.53185}},{"facility":"Novartis Investigative Site","status":"RECRUITING","city":"Taoyuan","zip":"33305","country":"Taiwan","geoPoint":{"lat":24.95233,"lon":121.20193}},{"facility":"Novartis Investigative Site","status":"RECRUITING","city":"Hat Yai","state":"Songkla","zip":"90110","country":"Thailand","geoPoint":{"lat":7.00836,"lon":100.47668}},{"facility":"Novartis Investigative Site","status":"RECRUITING","city":"Khon Kaen","state":"THA","zip":"40002","country":"Thailand","geoPoint":{"lat":16.44671,"lon":102.833}},{"facility":"Novartis Investigative Site","status":"RECRUITING","city":"Bangkok","zip":"10330","country":"Thailand","geoPoint":{"lat":13.75398,"lon":100.50144}},{"facility":"Novartis Investigative Site","status":"RECRUITING","city":"Bangkok","zip":"10400","country":"Thailand","geoPoint":{"lat":13.75398,"lon":100.50144}},{"facility":"Novartis Investigative Site","status":"RECRUITING","city":"Bangkok","zip":"10700","country":"Thailand","geoPoint":{"lat":13.75398,"lon":100.50144}},{"facility":"Novartis Investigative Site","status":"RECRUITING","city":"Chiang Mai","zip":"50200","country":"Thailand","geoPoint":{"lat":18.79038,"lon":98.98468}},{"facility":"Novartis Investigative Site","status":"RECRUITING","city":"Muang","zip":"12120","country":"Thailand"},{"facility":"Novartis Investigative Site","status":"RECRUITING","city":"Ubon Ratchathani","zip":"34000","country":"Thailand","geoPoint":{"lat":15.23844,"lon":104.84866}},{"facility":"Novartis Investigative Site","status":"RECRUITING","city":"Meselik","state":"Eskisehir","zip":"26480","country":"Turkey"},{"facility":"Novartis Investigative Site","status":"RECRUITING","city":"Yenisehir","state":"Izmir","zip":"35020","country":"Turkey","geoPoint":{"lat":40.26444,"lon":29.65306}},{"facility":"Novartis Investigative Site","status":"RECRUITING","city":"Ankara","zip":"06100","country":"Turkey","geoPoint":{"lat":39.91987,"lon":32.85427}},{"facility":"Novartis Investigative Site","status":"RECRUITING","city":"Ankara","country":"Turkey","geoPoint":{"lat":39.91987,"lon":32.85427}},{"facility":"Novartis Investigative Site","status":"RECRUITING","city":"Denizli","zip":"20070","country":"Turkey","geoPoint":{"lat":37.77417,"lon":29.0875}},{"facility":"Novartis Investigative Site","status":"RECRUITING","city":"Gaziantep","zip":"27310","country":"Turkey","geoPoint":{"lat":37.05944,"lon":37.3825}},{"facility":"Novartis Investigative Site","status":"RECRUITING","city":"Haydarpasa Istanbul","zip":"34668","country":"Turkey"},{"facility":"Novartis Investigative Site","status":"RECRUITING","city":"Istanbul","zip":"34010","country":"Turkey","geoPoint":{"lat":41.01384,"lon":28.94966}},{"facility":"Novartis Investigative Site","status":"RECRUITING","city":"Istanbul","zip":"34098","country":"Turkey","geoPoint":{"lat":41.01384,"lon":28.94966}},{"facility":"Novartis Investigative Site","status":"RECRUITING","city":"Izmir","zip":"35000","country":"Turkey","geoPoint":{"lat":38.41273,"lon":27.13838}},{"facility":"Novartis Investigative Site","status":"RECRUITING","city":"Mersin","zip":"33079","country":"Turkey","geoPoint":{"lat":36.79526,"lon":34.61792}},{"facility":"Novartis Investigative Site","status":"RECRUITING","city":"Mugla","zip":"48000","country":"Turkey","geoPoint":{"lat":37.21807,"lon":28.3665}},{"facility":"Novartis Investigative Site","status":"RECRUITING","city":"Talas / Kayseri","zip":"38039","country":"Turkey"},{"facility":"Novartis Investigative Site","status":"RECRUITING","city":"High Wycombe","state":"Buckinghamshire","zip":"HP11 2TT","country":"United Kingdom","geoPoint":{"lat":51.62907,"lon":-0.74934}},{"facility":"Novartis Investigative Site","status":"RECRUITING","city":"Fowey","state":"Cornwall","zip":"PL23 1DT","country":"United Kingdom","geoPoint":{"lat":50.33634,"lon":-4.6386}},{"facility":"Novartis Investigative Site","status":"RECRUITING","city":"Liskeard","state":"Cornwall","zip":"PL14 3XA","country":"United Kingdom","geoPoint":{"lat":50.4545,"lon":-4.46517}},{"facility":"Novartis Investigative Site","status":"RECRUITING","city":"Newquay","state":"Cornwall","zip":"TR7 1RU","country":"United Kingdom","geoPoint":{"lat":50.41557,"lon":-5.07319}},{"facility":"Novartis Investigative Site","status":"RECRUITING","city":"Dorchester","state":"Dorset","zip":"DT1 2JY","country":"United Kingdom","geoPoint":{"lat":50.71667,"lon":-2.43333}},{"facility":"Novartis Investigative Site","status":"RECRUITING","city":"London","state":"GBR","zip":"EC1M 6BQ","country":"United Kingdom","geoPoint":{"lat":51.50853,"lon":-0.12574}},{"facility":"Novartis Investigative Site","status":"RECRUITING","city":"Louth","state":"Lincolnshire","zip":"LN11 7QU","country":"United Kingdom","geoPoint":{"lat":53.36664,"lon":-0.00438}},{"facility":"Novartis Investigative Site","status":"RECRUITING","city":"Corby","state":"Northamptonshire","zip":"NN17 2UR","country":"United Kingdom","geoPoint":{"lat":52.49637,"lon":-0.68939}},{"facility":"Novartis Investigative Site","status":"RECRUITING","city":"Wansford","state":"Peterborough","zip":"PE8 6PL","country":"United Kingdom"},{"facility":"Novartis Investigative Site","status":"RECRUITING","city":"Bristol","state":"South Gloucestershire","zip":"BS37 4AX","country":"United Kingdom","geoPoint":{"lat":51.45523,"lon":-2.59665}},{"facility":"Novartis Investigative Site","status":"RECRUITING","city":"Cardiff","state":"Wales","zip":"CF5 4AD","country":"United Kingdom","geoPoint":{"lat":51.48,"lon":-3.18}},{"facility":"Novartis Investigative Site","status":"RECRUITING","city":"Rhyl","state":"Wales","zip":"LL18 5UJ","country":"United Kingdom","geoPoint":{"lat":53.31929,"lon":-3.49228}},{"facility":"Novartis Investigative Site","status":"RECRUITING","city":"Barrack Road Exeter","zip":"EX2 5AX","country":"United Kingdom"},{"facility":"Novartis Investigative Site","status":"RECRUITING","city":"Belfast","zip":"BT16 1RH","country":"United Kingdom","geoPoint":{"lat":54.59682,"lon":-5.92541}},{"facility":"Novartis Investigative Site","status":"RECRUITING","city":"Belfast","zip":"BT7 2BE","country":"United Kingdom","geoPoint":{"lat":54.59682,"lon":-5.92541}},{"facility":"Novartis Investigative Site","status":"RECRUITING","city":"Birmingham","zip":"B21 9RY","country":"United Kingdom","geoPoint":{"lat":52.48142,"lon":-1.89983}},{"facility":"Novartis Investigative Site","status":"RECRUITING","city":"Blackpool","zip":"FY3 8NR","country":"United Kingdom","geoPoint":{"lat":53.81667,"lon":-3.05}},{"facility":"Novartis Investigative Site","status":"RECRUITING","city":"Bristol","zip":"BS2 8HN","country":"United Kingdom","geoPoint":{"lat":51.45523,"lon":-2.59665}},{"facility":"Novartis Investigative Site","status":"RECRUITING","city":"Cardiff","zip":"CF23 9PF","country":"United Kingdom","geoPoint":{"lat":51.48,"lon":-3.18}},{"facility":"Novartis Investigative Site","status":"RECRUITING","city":"Cardiff","zip":"CF64 2XX","country":"United Kingdom","geoPoint":{"lat":51.48,"lon":-3.18}},{"facility":"Novartis Investigative Site","status":"RECRUITING","city":"Chesterfield","zip":"S40 4AA","country":"United Kingdom","geoPoint":{"lat":53.25,"lon":-1.41667}},{"facility":"Novartis Investigative Site","status":"RECRUITING","city":"Edinburgh","zip":"ED16 4SA","country":"United Kingdom","geoPoint":{"lat":55.95206,"lon":-3.19648}},{"facility":"Novartis Investigative Site","status":"RECRUITING","city":"Glasgow","zip":"G20 7BE","country":"United Kingdom","geoPoint":{"lat":55.86515,"lon":-4.25763}},{"facility":"Novartis Investigative Site","status":"RECRUITING","city":"Harrow","zip":"HA1 3UJ","country":"United Kingdom","geoPoint":{"lat":51.57142,"lon":-0.33371}},{"facility":"Novartis Investigative Site","status":"RECRUITING","city":"Kettering","zip":"NN16 8UZ","country":"United Kingdom","geoPoint":{"lat":52.39836,"lon":-0.72571}},{"facility":"Novartis Investigative Site","status":"RECRUITING","city":"Lancashire","zip":"FY4 3AD","country":"United Kingdom"},{"facility":"Novartis Investigative Site","status":"RECRUITING","city":"London","zip":"W12 0HS","country":"United Kingdom","geoPoint":{"lat":51.50853,"lon":-0.12574}},{"facility":"Novartis Investigative Site","status":"RECRUITING","city":"Middlesex","zip":"TW7 6AF","country":"United Kingdom","geoPoint":{"lat":51.53174,"lon":-0.26856}},{"facility":"Novartis Investigative Site","status":"RECRUITING","city":"Norwich","zip":"NR4 7UY","country":"United Kingdom","geoPoint":{"lat":52.62783,"lon":1.29834}},{"facility":"Novartis Investigative Site","status":"RECRUITING","city":"Plymouth","zip":"PL5 3JB","country":"United Kingdom","geoPoint":{"lat":50.37153,"lon":-4.14305}},{"facility":"Novartis Investigative Site","status":"RECRUITING","city":"Plympton","zip":"PL7 2QP","country":"United Kingdom","geoPoint":{"lat":50.39074,"lon":-4.06022}},{"facility":"Novartis Investigative Site","status":"RECRUITING","city":"Scunthorpe","zip":"DN15 7GB","country":"United Kingdom","geoPoint":{"lat":53.57905,"lon":-0.65437}},{"facility":"Novartis Investigative Site","status":"RECRUITING","city":"Sheffield","zip":"S5 7AU","country":"United Kingdom","geoPoint":{"lat":53.38297,"lon":-1.4659}},{"facility":"Novartis Investigative Site","status":"RECRUITING","city":"Swindon","zip":"SN3 6BB","country":"United Kingdom","geoPoint":{"lat":51.55797,"lon":-1.78116}},{"facility":"Novartis Investigative Site","status":"RECRUITING","city":"Tyne And Wear","zip":"NE29 8NH","country":"United Kingdom"},{"facility":"Novartis Investigative Site","status":"RECRUITING","city":"Wiltshire","zip":"SN15 2SB","country":"United Kingdom"},{"facility":"Novartis Investigative Site","status":"RECRUITING","city":"Wirrel","zip":"CH62 6EE","country":"United Kingdom"}]},"ipdSharingStatementModule":{"ipdSharing":"YES","description":"Novartis is committed to sharing with qualified external researchers, access to patient-level data and supporting clinical documents from eligible studies. These requests are reviewed and approved by an independent review panel on the basis of scientific merit. All data provided is anonymized to respect the privacy of patients who have participated in the trial in line with applicable laws and regulations.\n\nThis trial data availability is according to the criteria and process described on www.clinicalstudydatarequest.com"}},"derivedSection":{"miscInfoModule":{"versionHolder":"2024-02-14"},"conditionBrowseModule":{"meshes":[{"id":"D000002318","term":"Cardiovascular Diseases"},{"id":"D000050197","term":"Atherosclerosis"}],"ancestors":[{"id":"D000001161","term":"Arteriosclerosis"},{"id":"D000001157","term":"Arterial Occlusive Diseases"},{"id":"D000014652","term":"Vascular Diseases"}],"browseLeaves":[{"id":"M21996","name":"Stroke","relevance":"LOW"},{"id":"M6236","name":"Coronary Artery Disease","relevance":"LOW"},{"id":"M6239","name":"Coronary Disease","relevance":"LOW"},{"id":"M25871","name":"Dyslipidemias","relevance":"LOW"},{"id":"M9690","name":"Hyperlipidemias","relevance":"LOW"},{"id":"M19196","name":"Myocardial Ischemia","relevance":"LOW"},{"id":"M11845","name":"Myocardial Infarction","relevance":"LOW"},{"id":"M9972","name":"Infarction","relevance":"LOW"},{"id":"M25878","name":"Atherosclerosis","asFound":"Atherosclerotic Cardiovascular Disease","relevance":"HIGH"},{"id":"M22603","name":"Coronary Stenosis","relevance":"LOW"},{"id":"M9678","name":"Hypercholesterolemia","relevance":"LOW"},{"id":"M6165","name":"Constriction, Pathologic","relevance":"LOW"},{"id":"M9692","name":"Hyperlipoproteinemias","relevance":"LOW"},{"id":"M4159","name":"Arteriosclerosis","relevance":"LOW"},{"id":"M4155","name":"Arterial Occlusive Diseases","relevance":"LOW"},{"id":"M17090","name":"Vascular Diseases","relevance":"LOW"}],"browseBranches":[{"abbrev":"BC10","name":"Nervous System Diseases"},{"abbrev":"BC14","name":"Heart and Blood Diseases"},{"abbrev":"All","name":"All Conditions"},{"abbrev":"BC18","name":"Nutritional and Metabolic Diseases"},{"abbrev":"BC23","name":"Symptoms and General Pathology"}]},"interventionBrowseModule":{"browseLeaves":[{"id":"M5071","name":"Calcium","relevance":"LOW"},{"id":"M5088","name":"Calcium, Dietary","relevance":"LOW"},{"id":"M21550","name":"Pharmaceutical Solutions","relevance":"LOW"},{"id":"T217","name":"Mace","relevance":"LOW"},{"id":"T240","name":"Nutmeg","relevance":"LOW"}],"browseBranches":[{"abbrev":"All","name":"All Drugs and Chemicals"},{"abbrev":"BDCA","name":"Bone Density Conservation Agents"},{"abbrev":"PhSol","name":"Pharmaceutical Solutions"},{"abbrev":"HB","name":"Herbal and Botanical"}]}},"hasResults":false}