{"protocolSection":{"identificationModule":{"nctId":"NCT00056524","orgStudyIdInfo":{"id":"02-AVR-107"},"secondaryIdInfos":[{"id":"AVP-923"}],"organization":{"fullName":"Avanir Pharmaceuticals","class":"INDUSTRY"},"briefTitle":"Safety Study of AVP-923 in the Treatment of IEED (Involuntary Emotional Expression Disorder) Also Known as Pseudobulbar Affect (Episodes of Uncontrolled Crying and/or Laughter)","officialTitle":"An Open-Label Multicenter Study to Assess the Safety of AVP-923 in the Treatment of Patients With Pseudobulbar Affect."},"statusModule":{"statusVerifiedDate":"2016-07","overallStatus":"COMPLETED","startDateStruct":{"date":"2003-02"},"primaryCompletionDateStruct":{"date":"2007-06","type":"ACTUAL"},"completionDateStruct":{"date":"2007-06","type":"ACTUAL"},"studyFirstSubmitDate":"2003-03-15","studyFirstSubmitQcDate":"2003-03-17","studyFirstPostDateStruct":{"date":"2003-03-18","type":"ESTIMATED"},"lastUpdateSubmitDate":"2016-07-13","lastUpdatePostDateStruct":{"date":"2016-07-14","type":"ESTIMATED"}},"sponsorCollaboratorsModule":{"leadSponsor":{"name":"Avanir Pharmaceuticals","class":"INDUSTRY"}},"descriptionModule":{"briefSummary":"The purpose of this study is to evaluate the long-term safety of AVP-923 in the treatment of Involuntary Emotional Expression Disorder (IEED) also known as Pseudobulbar Affect (episodes of uncontrolled crying and/or laughter).","detailedDescription":"This is an \"open label\" study which means there is no placebo group. Each subject enrolled into the study will receive AVP-923."},"conditionsModule":{"conditions":["Alzheimer's Disease","Stroke","Parkinson's Disease","Traumatic Brain Injury"],"keywords":["ALS","MS","CNS","AD","TBI","Dextromethorphan","IEED","Emotional"]},"designModule":{"studyType":"INTERVENTIONAL","phases":["PHASE3"],"designInfo":{"allocation":"NON_RANDOMIZED","interventionModel":"SINGLE_GROUP","primaryPurpose":"TREATMENT","maskingInfo":{"masking":"NONE"}},"enrollmentInfo":{"count":600,"type":"ESTIMATED"}},"armsInterventionsModule":{"interventions":[{"type":"DRUG","name":"AVP-923"}]},"outcomesModule":{"primaryOutcomes":[{"measure":"emotional control"}]},"eligibilityModule":{"eligibilityCriteria":"Inclusion Criteria:\n\n* 18 to 75 years of age, inclusive\n* Clinical diagnosis of PBA (pseudobulbar affect)\n* If female, must not be pregnant or breast feeding\n\nExclusion Criteria:\n\n* Sensitivity to quinidine or any opiate drugs\n* Current or prior history of major psychiatric disturbance\n* Currently participated in a trial within the past 30 days","healthyVolunteers":false,"sex":"ALL","minimumAge":"18 Years","maximumAge":"80 Years","stdAges":["ADULT","OLDER_ADULT"]},"contactsLocationsModule":{"locations":[{"facility":"Barrow Neurological Institute","city":"Phoenix","state":"Arizona","zip":"85013","country":"United States","geoPoint":{"lat":33.44838,"lon":-112.07404}},{"facility":"Center for Neurologic Study","city":"La Jolla","state":"California","zip":"92037","country":"United States","geoPoint":{"lat":32.84727,"lon":-117.2742}},{"facility":"UCLA School of Medicine","city":"Los Angeles","state":"California","zip":"90095","country":"United States","geoPoint":{"lat":34.05223,"lon":-118.24368}},{"facility":"UCSF","city":"San Francisco","state":"California","zip":"94117","country":"United States","geoPoint":{"lat":37.77493,"lon":-122.41942}},{"facility":"Research Center for Clinical Studies, Inc.","city":"Darien","state":"Connecticut","zip":"06820","country":"United States","geoPoint":{"lat":41.07871,"lon":-73.46929}},{"facility":"George Washington University Medical Faculty Assoc.","city":"Washington","state":"District of Columbia","zip":"20037","country":"United States","geoPoint":{"lat":38.89511,"lon":-77.03637}},{"facility":"Neurological Associates","city":"Ft. Lauderdale","state":"Florida","zip":"33334","country":"United States","geoPoint":{"lat":26.12231,"lon":-80.14338}},{"facility":"University of Miami Dept. of Neurology","city":"Miami","state":"Florida","zip":"33136","country":"United States","geoPoint":{"lat":25.77427,"lon":-80.19366}},{"facility":"Miami Jewish Home & Hospital for the Aged","city":"Miami","state":"Florida","zip":"33137","country":"United States","geoPoint":{"lat":25.77427,"lon":-80.19366}},{"facility":"Allied Clinical Trials","city":"Miami","state":"Florida","zip":"33181","country":"United States","geoPoint":{"lat":25.77427,"lon":-80.19366}},{"facility":"Renstar Medical Research","city":"Plantation","state":"Florida","zip":"33324","country":"United States","geoPoint":{"lat":26.13421,"lon":-80.23184}},{"facility":"Suncoast Neuroscience Associates Inc.","city":"St. Petersburg","state":"Florida","zip":"33701","country":"United States","geoPoint":{"lat":27.77086,"lon":-82.67927}},{"city":"Tampa","state":"Florida","zip":"33606","country":"United States","geoPoint":{"lat":27.94752,"lon":-82.45843}},{"facility":"Neurology & Headache Specialist of Atlanta, L.L.C.","city":"Decatur","state":"Georgia","zip":"30033","country":"United States","geoPoint":{"lat":33.77483,"lon":-84.29631}},{"facility":"Consultants in Neurology LTD","city":"Northbrook","state":"Illinois","zip":"60062","country":"United States","geoPoint":{"lat":42.12753,"lon":-87.82895}},{"facility":"Advanced Neurology Specialists","city":"Great Falls","state":"Montana","zip":"59405","country":"United States","geoPoint":{"lat":47.50024,"lon":-111.30081}},{"facility":"Neurological Associates, P.C.","city":"Lincoln","state":"Nebraska","zip":"68506","country":"United States","geoPoint":{"lat":40.8,"lon":-96.66696}},{"facility":"Upstate Clinical Research","city":"Albany","state":"New York","zip":"12205","country":"United States","geoPoint":{"lat":42.65258,"lon":-73.75623}},{"facility":"DENT Neurologic Group L.L.P.","city":"Amherst","state":"New York","zip":"14266","country":"United States","geoPoint":{"lat":42.97839,"lon":-78.79976}},{"facility":"Hospital for Joint Diseases MS Care Center","city":"New York","state":"New York","zip":"10003","country":"United States","geoPoint":{"lat":40.71427,"lon":-74.00597}},{"facility":"SUNY Upstate Medical University","city":"Syracuse","state":"New York","zip":"13210","country":"United States","geoPoint":{"lat":43.04812,"lon":-76.14742}},{"facility":"Carolinas Medical Center","city":"Charlotte","state":"North Carolina","zip":"28203","country":"United States","geoPoint":{"lat":35.22709,"lon":-80.84313}},{"facility":"Raleigh Neurology Associates, PA","city":"Raleigh","state":"North Carolina","zip":"27607","country":"United States","geoPoint":{"lat":35.7721,"lon":-78.63861}},{"facility":"NeuroCare Center, Inc.","city":"Canton","state":"Ohio","zip":"44718","country":"United States","geoPoint":{"lat":40.79895,"lon":-81.37845}},{"facility":"MetroHealth Medical Center","city":"Cleveland","state":"Ohio","zip":"44109","country":"United States","geoPoint":{"lat":41.4995,"lon":-81.69541}},{"facility":"University Memory and Aging Center","city":"Cleveland","state":"Ohio","zip":"44120","country":"United States","geoPoint":{"lat":41.4995,"lon":-81.69541}},{"facility":"The Cleveland Clinic Foundation","city":"Cleveland","state":"Ohio","zip":"44195","country":"United States","geoPoint":{"lat":41.4995,"lon":-81.69541}},{"facility":"Clinical Pharmaceutical Trials, Inc.","city":"Tulsa","state":"Oklahoma","zip":"74104","country":"United States","geoPoint":{"lat":36.15398,"lon":-95.99277}},{"facility":"Lehigh Valley Neurosciences and Pain Research Center","city":"Allentown","state":"Pennsylvania","zip":"18103","country":"United States","geoPoint":{"lat":40.60843,"lon":-75.49018}},{"facility":"Westmoreland Neurology","city":"Greensburg","state":"Pennsylvania","zip":"15601","country":"United States","geoPoint":{"lat":40.30146,"lon":-79.53893}},{"city":"Jenkintown","state":"Pennsylvania","zip":"19046","country":"United States","geoPoint":{"lat":40.09594,"lon":-75.12517}},{"facility":"MCP-Hahnemann University","city":"Philadelphia","state":"Pennsylvania","zip":"19107","country":"United States","geoPoint":{"lat":39.95233,"lon":-75.16379}},{"facility":"Penn Neurological Institute","city":"Philadelphia","state":"Pennsylvania","zip":"19107","country":"United States","geoPoint":{"lat":39.95233,"lon":-75.16379}},{"facility":"Neurological Associates of Delaware Valley","city":"Upland","state":"Pennsylvania","zip":"19013","country":"United States","geoPoint":{"lat":39.85261,"lon":-75.38269}},{"facility":"Claghorn-Lesem Research Clinic","city":"Bellaire","state":"Texas","zip":"77401","country":"United States","geoPoint":{"lat":29.70579,"lon":-95.45883}},{"facility":"Methodist Neurological Institute","city":"Houston","state":"Texas","zip":"77030","country":"United States","geoPoint":{"lat":29.76328,"lon":-95.36327}},{"facility":"Fletcher Allen Health Care","city":"Burlington","state":"Vermont","zip":"05401","country":"United States","geoPoint":{"lat":44.47588,"lon":-73.21207}},{"facility":"Neurology and Neurosurgery Associates of Tacoma","city":"Tacoma","state":"Washington","zip":"98405","country":"United States","geoPoint":{"lat":47.25288,"lon":-122.44429}},{"facility":"University of Wisconsin","city":"Madison","state":"Wisconsin","zip":"53792","country":"United States","geoPoint":{"lat":43.07305,"lon":-89.40123}}]},"referencesModule":{"references":[{"pmid":"25062507","type":"DERIVED","citation":"Pattee GL, Wymer JP, Lomen-Hoerth C, Appel SH, Formella AE, Pope LE. An open-label multicenter study to assess the safety of dextromethorphan/quinidine in patients with pseudobulbar affect associated with a range of underlying neurological conditions. Curr Med Res Opin. 2014 Nov;30(11):2255-65. doi: 10.1185/03007995.2014.940040. Epub 2014 Jul 28."}]}},"derivedSection":{"miscInfoModule":{"versionHolder":"2024-02-14"},"conditionBrowseModule":{"meshes":[{"id":"D000010300","term":"Parkinson Disease"},{"id":"D000000544","term":"Alzheimer Disease"},{"id":"D000001930","term":"Brain Injuries"},{"id":"D000070642","term":"Brain Injuries, Traumatic"}],"ancestors":[{"id":"D000020734","term":"Parkinsonian Disorders"},{"id":"D000001480","term":"Basal Ganglia Diseases"},{"id":"D000001927","term":"Brain Diseases"},{"id":"D000002493","term":"Central Nervous System Diseases"},{"id":"D000009422","term":"Nervous System Diseases"},{"id":"D000009069","term":"Movement Disorders"},{"id":"D000080874","term":"Synucleinopathies"},{"id":"D000019636","term":"Neurodegenerative Diseases"},{"id":"D000003704","term":"Dementia"},{"id":"D000024801","term":"Tauopathies"},{"id":"D000019965","term":"Neurocognitive Disorders"},{"id":"D000001523","term":"Mental Disorders"},{"id":"D000006259","term":"Craniocerebral Trauma"},{"id":"D000020196","term":"Trauma, Nervous System"},{"id":"D000014947","term":"Wounds and Injuries"}],"browseLeaves":[{"id":"M21996","name":"Stroke","relevance":"LOW"},{"id":"M12903","name":"Parkinson Disease","asFound":"Parkinson's Disease","relevance":"HIGH"},{"id":"M3575","name":"Alzheimer Disease","asFound":"Alzheimer's Disease","relevance":"HIGH"},{"id":"M4897","name":"Brain Injuries","asFound":"Brain Injury","relevance":"HIGH"},{"id":"M628","name":"Brain Injuries, Traumatic","asFound":"Traumatic Brain Injury","relevance":"HIGH"},{"id":"M22184","name":"Parkinsonian Disorders","relevance":"LOW"},{"id":"M25293","name":"Ganglion Cysts","relevance":"LOW"},{"id":"M16048","name":"Synovial Cyst","relevance":"LOW"},{"id":"M4464","name":"Basal Ganglia Diseases","relevance":"LOW"},{"id":"M4894","name":"Brain Diseases","relevance":"LOW"},{"id":"M5432","name":"Central Nervous System Diseases","relevance":"LOW"},{"id":"M11719","name":"Movement Disorders","relevance":"LOW"},{"id":"M2217","name":"Synucleinopathies","relevance":"LOW"},{"id":"M21248","name":"Neurodegenerative Diseases","relevance":"LOW"},{"id":"M6594","name":"Dementia","relevance":"LOW"},{"id":"M22692","name":"Tauopathies","relevance":"LOW"},{"id":"M21526","name":"Neurocognitive Disorders","relevance":"LOW"},{"id":"M4505","name":"Mental Disorders","relevance":"LOW"},{"id":"M14163","name":"Psychotic Disorders","relevance":"LOW"},{"id":"M17375","name":"Wounds and Injuries","relevance":"LOW"},{"id":"M9039","name":"Craniocerebral Trauma","relevance":"LOW"},{"id":"M21713","name":"Trauma, Nervous System","relevance":"LOW"},{"id":"T2192","name":"Familial Alzheimer Disease","relevance":"LOW"}],"browseBranches":[{"abbrev":"BC10","name":"Nervous System Diseases"},{"abbrev":"BC14","name":"Heart and Blood Diseases"},{"abbrev":"All","name":"All Conditions"},{"abbrev":"BXM","name":"Behaviors and Mental Disorders"},{"abbrev":"BC26","name":"Wounds and Injuries"},{"abbrev":"BC04","name":"Neoplasms"},{"abbrev":"BC17","name":"Skin and Connective Tissue Diseases"},{"abbrev":"BC18","name":"Nutritional and Metabolic Diseases"},{"abbrev":"Rare","name":"Rare Diseases"}]},"interventionBrowseModule":{"browseLeaves":[{"id":"M6800","name":"Dextromethorphan","relevance":"LOW"}],"browseBranches":[{"abbrev":"AnTuAg","name":"Antitussive Agents"},{"abbrev":"Resp","name":"Respiratory System Agents"},{"abbrev":"All","name":"All Drugs and Chemicals"}]}},"hasResults":false}