{"protocolSection":{"identificationModule":{"nctId":"NCT00153036","orgStudyIdInfo":{"id":"135.312"},"organization":{"fullName":"Boehringer Ingelheim","class":"INDUSTRY"},"briefTitle":"Rt-PA in the Treatment of Acute Ischemic Stroke","officialTitle":"ECASS III - European Cooperative Acute Stroke Study III: A Placebo Controlled Trial of Alteplase (Rt-PA) in Acute Ischemic Hemispheric Stroke Where Thrombolysis is Initiated Between 3 and 4 Hours 30 Minutes After Stroke Onset"},"statusModule":{"statusVerifiedDate":"2014-04","overallStatus":"COMPLETED","expandedAccessInfo":{"hasExpandedAccess":false},"startDateStruct":{"date":"2003-04"},"primaryCompletionDateStruct":{"date":"2008-02","type":"ACTUAL"},"studyFirstSubmitDate":"2005-09-09","studyFirstSubmitQcDate":"2005-09-09","studyFirstPostDateStruct":{"date":"2005-09-12","type":"ESTIMATED"},"dispFirstSubmitDate":"2014-04-30","dispFirstSubmitQcDate":"2014-04-30","dispFirstPostDateStruct":{"date":"2014-05-16","type":"ESTIMATED"},"lastUpdateSubmitDate":"2014-04-30","lastUpdatePostDateStruct":{"date":"2014-05-16","type":"ESTIMATED"}},"sponsorCollaboratorsModule":{"responsibleParty":{"oldNameTitle":"Boehringer Ingelheim, Study Chair","oldOrganization":"Boehringer Ingelheim"},"leadSponsor":{"name":"Boehringer Ingelheim","class":"INDUSTRY"}},"descriptionModule":{"briefSummary":"To collect additional confirmatory data on alteplase(rt-PA) in the European setting and to demonstrate that the treatment of patients between 3 and 4.30 hours of onset of symptoms of acute ischemic stroke with rt-PA compared to placebo-treated patients will result in an improved clinical outcome without increase of fatality rate."},"conditionsModule":{"conditions":["Cerebrovascular Accident"]},"designModule":{"studyType":"INTERVENTIONAL","phases":["PHASE3"],"designInfo":{"primaryPurpose":"TREATMENT"},"enrollmentInfo":{"count":821,"type":"ACTUAL"}},"armsInterventionsModule":{"interventions":[{"type":"DRUG","name":"rt-PA 0.9 mg/kg verum or placebo Intravenous"}]},"outcomesModule":{"primaryOutcomes":[{"measure":"modified Rankin scale (mRS) 0-1 (favourable outcome) at Day 90","timeFrame":"at day 90"}],"secondaryOutcomes":[{"measure":"Global outcome of four neurologic and disability scores combined","timeFrame":"at day 90"}]},"eligibilityModule":{"eligibilityCriteria":"Inclusion Criteria:\n\n* Female or male inpatients\n* Age: 18 - 80 years.\n* Clinical diagnosis of ischemic stroke causing a measurable neurological deficit defined as impairment of language, motor function, cognition and/or gaze, vision or neglect. Ischemic stroke is defined as an event characterized by the sudden onset of an acute focal neurologic deficit presumed to be due to cerebral ischemia after CT scan excludes hemorrhage.\n* Onset of symptoms between 3 and 4 hours prior to initiation of administration of study drug.\n* Stroke symptoms are to be present for at least 30 minutes and have not significantly improved before treatment. Symptoms must be distinguishable from an episode of generalized ischemia (i.e. syncope), seizure, or migraine disorder.\n* Patient is willing to participate voluntarily and to sign a written patient informed consent. Informed consent will be obtained from each patient or the subject's legally authorized representative or relatives, or deferred where applicable, according to the regulatory and legal requirements of the participating country.\n* Patients who are unable to sign but who are able to understand the meaning of participation in the study may give an oral witnessed informed consent. These patients have to make clear undoubtfully that they are willing to participate voluntarily and must be able to understand an explanation of the contents of he information sheet.\n* Willingness and ability to comply with the protocol.\n\nExclusion Criteria:\n\n* Evidence of intracranial hemorrhage (ICH) on the CT-scan.\n* Symptoms of ischaemic attack began more than 4 hours and 30 minutes prior to infusion start or when time of symptom onset is unknown.\n* Minor neurological deficit or symptoms rapidly improving before start of infusion.\n* Severe stroke as assessed clinically (e.g. NIHSS\\>25) and/or by appropriate imaging techniques.\n* Epileptic seizure at onset of stroke\n* Symptoms suggestive of subarachnoid haemorrhage, even if the CT-scan is normal.\n* Administration of heparin within the previous 48 hours and a thromboplastin time exceeding the upper limit of normal for laboratory\n* History of prior stroke and concomitant diabetes. \\* Prior stroke within the last 3 months\n* Platelet below 100,000/mm3. \\* Systolic blood pressure \\>185 mmHg or diastolic blood pressure \\>110 mmHg, or aggressive management (IV medication) necessary to reduce BP to these limits.\n* Blood glucose \\<50 or \\> 400 mg/dl (\\< 2.77 or \\> 22.15 mmol / l). \\* Known haemorraghic diathesis\n* Patients receiving oral anticoagulants. \\* Manifest or recent severe or dangerous bleeding\n* Known history of or suspected intracranial haemorrhage\n* Suspected subarachnoid haemorrhage or condition after subarachnoid haemorrhage from aneurysm\n* History of central nervous system damage (i.e. neoplasm, aneurysm, intracranial or spinal surgery)\n* Haemorrhagic retinopathy,e.g. in diabetes (vision disturbances may indicate haemorrhagic retinopathy)\n* Recent (less than 10 days) traumatic external heart massage, obstetrical delivery, recent puncture of a non-compressible blood-vessel (e.g. subclavian or jugular vein puncture.\n* bacterial endocarditis, pericarditis.\\* Acute pancreatitis\n* Documented ulcerative gastrointestinal disease during the last 3 months, oesophageal varices, arterial- aneurysm, arterial/venous malformation\n* Neoplasm with increased bleeding risk","healthyVolunteers":false,"sex":"ALL","minimumAge":"18 Years","maximumAge":"80 Years","stdAges":["ADULT","OLDER_ADULT"]},"contactsLocationsModule":{"overallOfficials":[{"name":"Boehringer Ingelheim","affiliation":"Boehringer Ingelheim","role":"STUDY_CHAIR"}],"locations":[{"facility":"135.312.43004 Boehringer Ingelheim Investigational Site","city":"Graz","country":"Austria","geoPoint":{"lat":47.06667,"lon":15.45}},{"facility":"135.312.43007 Boehringer Ingelheim Investigational Site","city":"Innsbruck","country":"Austria","geoPoint":{"lat":47.26266,"lon":11.39454}},{"facility":"135.312.43010 Boehringer Ingelheim Investigational Site","city":"Klagenfurt","country":"Austria","geoPoint":{"lat":46.62472,"lon":14.30528}},{"facility":"135.312.43001 Boehringer Ingelheim Investigational Site","city":"Linz","country":"Austria","geoPoint":{"lat":48.30639,"lon":14.28611}},{"facility":"135.312.43012 Boehringer Ingelheim Investigational Site","city":"Linz","country":"Austria","geoPoint":{"lat":48.30639,"lon":14.28611}},{"facility":"135.312.43013 Boehringer Ingelheim Investigational Site","city":"Linz","country":"Austria","geoPoint":{"lat":48.30639,"lon":14.28611}},{"facility":"135.312.43008 Boehringer Ingelheim Investigational Site","city":"Ma.Gugging/Klosterneuburg","country":"Austria"},{"facility":"135.312.43006 Boehringer Ingelheim Investigational Site","city":"Salzburg","country":"Austria","geoPoint":{"lat":47.79941,"lon":13.04399}},{"facility":"135.312.43003 Boehringer Ingelheim Investigational Site","city":"St. Pölten","country":"Austria","geoPoint":{"lat":48.2,"lon":15.63333}},{"facility":"135.312.43002 Boehringer Ingelheim Investigational Site","city":"Wien","country":"Austria","geoPoint":{"lat":48.20849,"lon":16.37208}},{"facility":"135.312.32006 O.L. Vrouwziekenhuis","city":"Aalst","country":"Belgium","geoPoint":{"lat":50.93604,"lon":4.0355}},{"facility":"135.312.32002 Boehringer Ingelheim Investigational Site","city":"Anderlecht","country":"Belgium","geoPoint":{"lat":50.83619,"lon":4.31454}},{"facility":"135.312.32014 Boehringer Ingelheim Investigational Site","city":"Antwerpen","country":"Belgium","geoPoint":{"lat":51.21989,"lon":4.40346}},{"facility":"135.312.32001 Boehringer Ingelheim Investigational Site","city":"Brugge","country":"Belgium","geoPoint":{"lat":51.20892,"lon":3.22424}},{"facility":"135.312.32011 Boehringer Ingelheim Investigational Site","city":"Kortrijk","country":"Belgium","geoPoint":{"lat":50.82803,"lon":3.26487}},{"facility":"135.312.32005 Boehringer Ingelheim Investigational Site","city":"Leuven","country":"Belgium","geoPoint":{"lat":50.87959,"lon":4.70093}},{"facility":"135.312.32016 Boehringer Ingelheim Investigational Site","city":"Yvoir (Godinne)","country":"Belgium"},{"facility":"135.312.42004 Boehringer Ingelheim Investigational Site","city":"Ostrava-Vitkovice","country":"Czech Republic","geoPoint":{"lat":49.83465,"lon":18.28204}},{"facility":"135.312.42001 Boehringer Ingelheim Investigational Site","city":"Ostrava","country":"Czech Republic","geoPoint":{"lat":49.83465,"lon":18.28204}},{"facility":"135.312.42002 Boehringer Ingelheim Investigational Site","city":"Prague 5","country":"Czech Republic","geoPoint":{"lat":50.08804,"lon":14.42076}},{"facility":"135.312.45005 Boehringer Ingelheim Investigational Site","city":"Aalborg","country":"Denmark","geoPoint":{"lat":57.048,"lon":9.9187}},{"facility":"135.312.45002 Boehringer Ingelheim Investigational Site","city":"Aarhus","country":"Denmark","geoPoint":{"lat":56.15674,"lon":10.21076}},{"facility":"135.312.45001 Boehringer Ingelheim Investigational Site","city":"Copenhagen NV","country":"Denmark","geoPoint":{"lat":55.67594,"lon":12.56553}},{"facility":"135.312.45004 Boehringer Ingelheim Investigational Site","city":"Glostrup","country":"Denmark","geoPoint":{"lat":55.6666,"lon":12.40377}},{"facility":"135.312.35801 Boehringer Ingelheim Investigational Site","city":"Helsinki","country":"Finland","geoPoint":{"lat":60.16952,"lon":24.93545}},{"facility":"135.312.35805 Boehringer Ingelheim Investigational Site","city":"Kuopio","country":"Finland","geoPoint":{"lat":62.89238,"lon":27.67703}},{"facility":"135.312.35802 Boehringer Ingelheim Investigational Site","city":"Turku","country":"Finland","geoPoint":{"lat":60.45148,"lon":22.26869}},{"facility":"135.312.33009 Boehringer Ingelheim Investigational Site","city":"Auch","country":"France","geoPoint":{"lat":43.65,"lon":0.58333}},{"facility":"135.312.33016 Boehringer Ingelheim Investigational Site","city":"Besançon cedex","country":"France","geoPoint":{"lat":47.24878,"lon":6.01815}},{"facility":"135.312.33013 Boehringer Ingelheim Investigational Site","city":"Bordeaux cedex","country":"France","geoPoint":{"lat":44.84044,"lon":-0.5805}},{"facility":"135.312.33017 Boehringer Ingelheim Investigational Site","city":"Bourg en Bresse","country":"France","geoPoint":{"lat":46.20574,"lon":5.2258}},{"facility":"135.312.33008 Boehringer Ingelheim Investigational Site","city":"Dijon cedex","country":"France","geoPoint":{"lat":47.31667,"lon":5.01667}},{"facility":"135.312.33014 Boehringer Ingelheim Investigational Site","city":"Grenoble cédex 9","country":"France","geoPoint":{"lat":45.16667,"lon":5.71667}},{"facility":"135.312.33015 Boehringer Ingelheim Investigational Site","city":"Lille cedex","country":"France","geoPoint":{"lat":50.63297,"lon":3.05858}},{"facility":"135.312.33019 Boehringer Ingelheim Investigational Site","city":"Limoges cedex 1","country":"France","geoPoint":{"lat":45.83153,"lon":1.25781}},{"facility":"135.312.33001 Boehringer Ingelheim Investigational Site","city":"Lyon Cedex","country":"France","geoPoint":{"lat":45.74848,"lon":4.84669}},{"facility":"135.312.33024 Boehringer Ingelheim Investigational Site","city":"Mantes la Jolie","country":"France","geoPoint":{"lat":48.98333,"lon":1.71667}},{"facility":"135.312.33021 Boehringer Ingelheim Investigational Site","city":"Meaux","country":"France","geoPoint":{"lat":48.96014,"lon":2.87885}},{"facility":"135.312.33002 Boehringer Ingelheim Investigational Site","city":"Montpellier","country":"France","geoPoint":{"lat":43.61092,"lon":3.87723}},{"facility":"135.312.33004 Boehringer Ingelheim Investigational Site","city":"Nancy","country":"France","geoPoint":{"lat":48.68439,"lon":6.18496}},{"facility":"135.312.33003 Boehringer Ingelheim Investigational Site","city":"Nice cedex 1","country":"France","geoPoint":{"lat":43.70313,"lon":7.26608}},{"facility":"135.312.33007 Boehringer Ingelheim Investigational Site","city":"Paris cedex 18","country":"France","geoPoint":{"lat":48.85341,"lon":2.3488}},{"facility":"135.312.33006 Boehringer Ingelheim Investigational Site","city":"Paris","country":"France","geoPoint":{"lat":48.85341,"lon":2.3488}},{"facility":"135.312.33020 Boehringer Ingelheim Investigational Site","city":"Pau cedex","country":"France","geoPoint":{"lat":43.3,"lon":-0.36667}},{"facility":"135.312.33018 Boehringer Ingelheim Investigational Site","city":"Perpignan cedex","country":"France","geoPoint":{"lat":42.69764,"lon":2.89541}},{"facility":"135.312.33023 Boehringer Ingelheim Investigational Site","city":"Pontoise","country":"France","geoPoint":{"lat":49.05,"lon":2.1}},{"facility":"135.312.33010 Boehringer Ingelheim Investigational Site","city":"Saint Herblain","country":"France","geoPoint":{"lat":47.21765,"lon":-1.64841}},{"facility":"135.312.33005 Boehringer Ingelheim Investigational Site","city":"Toulouse cedex 9","country":"France","geoPoint":{"lat":43.60426,"lon":1.44367}},{"facility":"135.312.33012 Boehringer Ingelheim Investigational Site","city":"Toulouse cedex 9","country":"France","geoPoint":{"lat":43.60426,"lon":1.44367}},{"facility":"135.312.33011 Boehringer Ingelheim Investigational Site","city":"Tours cedex 9","country":"France","geoPoint":{"lat":47.38333,"lon":0.68333}},{"facility":"135.312.33022 Boehringer Ingelheim Investigational Site","city":"Versailles","country":"France","geoPoint":{"lat":48.8,"lon":2.13333}},{"facility":"135.312.49031 Boehringer Ingelheim Investigational Site","city":"Altenburg","country":"Germany","geoPoint":{"lat":50.98763,"lon":12.43684}},{"facility":"135.312.49011 Boehringer Ingelheim Investigational Site","city":"Bamberg","country":"Germany","geoPoint":{"lat":49.89873,"lon":10.90067}},{"facility":"135.312.49037 Boehringer Ingelheim Investigational Site","city":"Beeskow","country":"Germany","geoPoint":{"lat":52.17291,"lon":14.24597}},{"facility":"135.312.49017 Boehringer Ingelheim Investigational Site","city":"Bochum","country":"Germany","geoPoint":{"lat":51.48165,"lon":7.21648}},{"facility":"135.312.49038 Boehringer Ingelheim Investigational Site","city":"Frankfurt/Main","country":"Germany","geoPoint":{"lat":50.11552,"lon":8.68417}},{"facility":"135.312.49041 Boehringer Ingelheim Investigational Site","city":"Hamburg","country":"Germany","geoPoint":{"lat":53.57532,"lon":10.01534}},{"facility":"135.312.49023 Boehringer Ingelheim Investigational Site","city":"Hannover","country":"Germany","geoPoint":{"lat":52.37052,"lon":9.73322}},{"facility":"135.312.49001 Boehringer Ingelheim Investigational Site","city":"Heidelberg","country":"Germany","geoPoint":{"lat":49.40768,"lon":8.69079}},{"facility":"135.312.49008 Boehringer Ingelheim Investigational Site","city":"Köln","country":"Germany","geoPoint":{"lat":50.93333,"lon":6.95}},{"facility":"135.312.49014 Boehringer Ingelheim Investigational Site","city":"Leipzig","country":"Germany","geoPoint":{"lat":51.33962,"lon":12.37129}},{"facility":"135.312.49020 Boehringer Ingelheim Investigational Site","city":"Ludwigshafen am Rhein","country":"Germany","geoPoint":{"lat":49.48121,"lon":8.44641}},{"facility":"135.312.49004 Boehringer Ingelheim Investigational Site","city":"Magdeburg","country":"Germany","geoPoint":{"lat":52.12773,"lon":11.62916}},{"facility":"135.312.49003 Boehringer Ingelheim Investigational Site","city":"Mainz","country":"Germany","geoPoint":{"lat":49.98419,"lon":8.2791}},{"facility":"135.312.49018 Boehringer Ingelheim Investigational Site","city":"Mannheim","country":"Germany","geoPoint":{"lat":49.4891,"lon":8.46694}},{"facility":"135.312.49002 Boehringer Ingelheim Investigational Site","city":"Minden","country":"Germany","geoPoint":{"lat":52.28953,"lon":8.91455}},{"facility":"135.312.49006 Boehringer Ingelheim Investigational Site","city":"München","country":"Germany","geoPoint":{"lat":48.13743,"lon":11.57549}},{"facility":"135.312.49005 Boehringer Ingelheim Investigational Site","city":"Siegen","country":"Germany","geoPoint":{"lat":50.87481,"lon":8.02431}},{"facility":"135.312.49025 Boehringer Ingelheim Investigational Site","city":"Teupitz","country":"Germany","geoPoint":{"lat":52.12967,"lon":13.6196}},{"facility":"135.312.49009 Boehringer Ingelheim Investigational Site","city":"Wiesbaden","country":"Germany","geoPoint":{"lat":50.08258,"lon":8.24932}},{"facility":"135.312.30004 Boehringer Ingelheim Investigational Site","city":"Athens","country":"Greece","geoPoint":{"lat":37.97945,"lon":23.71622}},{"facility":"135.312.30005 Boehringer Ingelheim Investigational Site","city":"Larissa","country":"Greece","geoPoint":{"lat":39.63689,"lon":22.41761}},{"facility":"135.312.30002 Boehringer Ingelheim Investigational Site","city":"Thessaloniki","country":"Greece","geoPoint":{"lat":40.64361,"lon":22.93086}},{"facility":"135.312.36002 University of Debrecen","city":"Debrecen","country":"Hungary","geoPoint":{"lat":47.53333,"lon":21.63333}},{"facility":"135.312.36001 Aladár Petz County Hospital","city":"Györ","country":"Hungary","geoPoint":{"lat":47.68333,"lon":17.63512}},{"facility":"135.312.36006 BAZ County and Teaching Hospital","city":"Miskolc","country":"Hungary","geoPoint":{"lat":48.1,"lon":20.78333}},{"facility":"135.312.39020 Università degli Studi","city":"Coppito (aq)","country":"Italy"},{"facility":"135.312.39013 A. O. Universitaria di Careggi","city":"Firenze","country":"Italy","geoPoint":{"lat":43.77925,"lon":11.24626}},{"facility":"135.312.39019 Ospedale Santa Maria Annunziata","city":"Firenze","country":"Italy","geoPoint":{"lat":43.77925,"lon":11.24626}},{"facility":"135.312.39022 Ospedale di Imperia","city":"Imperia","country":"Italy","geoPoint":{"lat":43.88917,"lon":8.03933}},{"facility":"135.312.39024 Istituto Scientifico San Raffaele","city":"Milano","country":"Italy","geoPoint":{"lat":45.46427,"lon":9.18951}},{"facility":"135.312.39002 A. O. di Padova - Policlinico Universitario","city":"Padova","country":"Italy","geoPoint":{"lat":45.40797,"lon":11.88586}},{"facility":"135.312.39005 A. O. di Perugia - Policlinico Monteluce","city":"Perugia","country":"Italy","geoPoint":{"lat":43.1122,"lon":12.38878}},{"facility":"135.312.39023 P. O. di Piacenza","city":"Piacenza","country":"Italy","geoPoint":{"lat":45.05242,"lon":9.69342}},{"facility":"135.312.39016 A. O. Ospedale Santa Corona","city":"Pietra Ligure (sv)","country":"Italy"},{"facility":"135.312.39006 Ospedale Santa Chiara","city":"Pisa","country":"Italy","geoPoint":{"lat":43.70853,"lon":10.4036}},{"facility":"135.312.39003 A. O. Arcispedale \"Santa Maria Nuova\"","city":"Reggio Emilia","country":"Italy","geoPoint":{"lat":44.69825,"lon":10.63125}},{"facility":"135.312.39001 A. O. Policlinico Umberto I","city":"Roma","country":"Italy","geoPoint":{"lat":41.89193,"lon":12.51133}},{"facility":"135.312.39025 Università di Roma \"La Sapienza\"","city":"Roma","country":"Italy","geoPoint":{"lat":41.89193,"lon":12.51133}},{"facility":"135.312.39018 Ospedale S. Maria della Misericordia","city":"Udine","country":"Italy","geoPoint":{"lat":46.0693,"lon":13.23715}},{"facility":"135.312.39009 Ospedale Maggiore di BorgoTrento","city":"Verona","country":"Italy","geoPoint":{"lat":45.4299,"lon":10.98444}},{"facility":"135.312.39004 Ospedale Civile","city":"Vicenza","country":"Italy","geoPoint":{"lat":45.54672,"lon":11.5475}},{"facility":"135.312.31001","city":"Amsterdam","country":"Netherlands","geoPoint":{"lat":52.37403,"lon":4.88969}},{"facility":"135.312.31007 Medisch Spectrum Twente","city":"Enschede","country":"Netherlands","geoPoint":{"lat":52.21833,"lon":6.89583}},{"facility":"135.312.47001 Boehringer Ingelheim Investigational Site","city":"Bergen","country":"Norway","geoPoint":{"lat":60.39299,"lon":5.32415}},{"facility":"135.312.47003 Boehringer Ingelheim Investigational Site","city":"Trondheim","country":"Norway","geoPoint":{"lat":63.43049,"lon":10.39506}},{"facility":"135.312.47006 Boehringer Ingelheim Investigational Site","city":"Tønsberg","country":"Norway","geoPoint":{"lat":59.26754,"lon":10.40762}},{"facility":"135.312.48004 Medical University of Gdansk","city":"Gdansk","country":"Poland","geoPoint":{"lat":54.35205,"lon":18.64637}},{"facility":"135.312.48005 Dept. of Neurology, Regenerative and Cerebrovascular Disease","city":"Katowice","country":"Poland","geoPoint":{"lat":50.25841,"lon":19.02754}},{"facility":"135.312.48006 Wojewodship Specialistic Neuropsychiatric Centre in Opole","city":"Opole","country":"Poland","geoPoint":{"lat":50.67211,"lon":17.92533}},{"facility":"135.312.48001 Institute of Psychiatry & Neurology in Warsaw","city":"Warsaw","country":"Poland","geoPoint":{"lat":52.22977,"lon":21.01178}},{"facility":"135.312.48002 Dr. Anna Gostynska Wolski Hospital","city":"Warsaw","country":"Poland","geoPoint":{"lat":52.22977,"lon":21.01178}},{"facility":"135.312.35101 Hospitais da Universidade de Coimbra","city":"Coimbra","country":"Portugal","geoPoint":{"lat":40.20564,"lon":-8.41955}},{"facility":"135.312.35106 Hospital de Santa Maria","city":"Lisboa","country":"Portugal","geoPoint":{"lat":38.71667,"lon":-9.13333}},{"facility":"135.312.35102 Hospital de Santo António","city":"Porto","country":"Portugal","geoPoint":{"lat":41.14961,"lon":-8.61099}},{"facility":"135.312.35105 Hospital de São Sebastião, EPE","city":"Santa Maria da Feira","country":"Portugal","geoPoint":{"lat":40.92726,"lon":-8.54839}},{"facility":"135.312.42103 NEURON PLUS s.r.o","city":"Bratislava","country":"Slovakia","geoPoint":{"lat":48.14816,"lon":17.10674}},{"facility":"135.312.42102 Hospital Levoca","city":"Levoca","country":"Slovakia","geoPoint":{"lat":49.02173,"lon":20.59212}},{"facility":"135.312.42104 Jessenius Faculty of Medicine Commenius University","city":"Martin","country":"Slovakia","geoPoint":{"lat":49.06651,"lon":18.92399}},{"facility":"135.312.42101 Faculty Hospital","city":"Nitra","country":"Slovakia","geoPoint":{"lat":48.30763,"lon":18.08453}},{"facility":"135.312.42105 Boehringer Ingelheim Investigational Site","city":"Trnava","country":"Slovakia","geoPoint":{"lat":48.37741,"lon":17.58723}},{"facility":"135.312.34019 Boehringer Ingelheim Investigational Site","city":"Albacete","country":"Spain","geoPoint":{"lat":38.99424,"lon":-1.85643}},{"facility":"135.312.34006 Boehringer Ingelheim Investigational Site","city":"Badalona / Barcelona","country":"Spain"},{"facility":"135.312.34001 Boehringer Ingelheim Investigational Site","city":"Barcelona","country":"Spain","geoPoint":{"lat":41.38879,"lon":2.15899}},{"facility":"135.312.34002 Boehringer Ingelheim Investigational Site","city":"Barcelona","country":"Spain","geoPoint":{"lat":41.38879,"lon":2.15899}},{"facility":"135.312.34003 Boehringer Ingelheim Investigational Site","city":"Barcelona","country":"Spain","geoPoint":{"lat":41.38879,"lon":2.15899}},{"facility":"135.312.34011 Boehringer Ingelheim Investigational Site","city":"Bilbao","country":"Spain","geoPoint":{"lat":43.26271,"lon":-2.92528}},{"facility":"135.312.34007 Boehringer Ingelheim Investigational Site","city":"Girona","country":"Spain","geoPoint":{"lat":41.98311,"lon":2.82493}},{"facility":"135.312.34009 Boehringer Ingelheim Investigational Site","city":"Madrid","country":"Spain","geoPoint":{"lat":40.4165,"lon":-3.70256}},{"facility":"135.312.34010 Boehringer Ingelheim Investigational Site","city":"Madrid","country":"Spain","geoPoint":{"lat":40.4165,"lon":-3.70256}},{"facility":"135.312.34020 Boehringer Ingelheim Investigational Site","city":"Madrid","country":"Spain","geoPoint":{"lat":40.4165,"lon":-3.70256}},{"facility":"135.312.34017 Boehringer Ingelheim Investigational Site","city":"Santiago de Compostela","country":"Spain","geoPoint":{"lat":42.88052,"lon":-8.54569}},{"facility":"135.312.34018 Boehringer Ingelheim Investigational Site","city":"Sevilla","country":"Spain","geoPoint":{"lat":37.38283,"lon":-5.97317}},{"facility":"135.312.34014 Boehringer Ingelheim Investigational Site","city":"Zaragoza","country":"Spain","geoPoint":{"lat":41.65606,"lon":-0.87734}},{"facility":"135.312.46007 Boehringer Ingelheim Investigational Site","city":"Lidköping","country":"Sweden","geoPoint":{"lat":58.50517,"lon":13.15765}},{"facility":"135.312.46003 Boehringer Ingelheim Investigational Site","city":"Malmö","country":"Sweden","geoPoint":{"lat":55.60587,"lon":13.00073}},{"facility":"135.312.46005 Boehringer Ingelheim Investigational Site","city":"Skövde","country":"Sweden","geoPoint":{"lat":58.39118,"lon":13.84506}},{"facility":"135.312.46002 Boehringer Ingelheim Investigational Site","city":"Stockholm","country":"Sweden","geoPoint":{"lat":59.33258,"lon":18.0649}},{"facility":"135.312.46004 Boehringer Ingelheim Investigational Site","city":"Stockholm","country":"Sweden","geoPoint":{"lat":59.33258,"lon":18.0649}},{"facility":"135.312.41003 Boehringer Ingelheim Investigational Site","city":"Aarau","country":"Switzerland","geoPoint":{"lat":47.39254,"lon":8.04422}},{"facility":"135.312.41001 Boehringer Ingelheim Investigational Site","city":"Basel","country":"Switzerland","geoPoint":{"lat":47.55839,"lon":7.57327}},{"facility":"135.312.41004 Boehringer Ingelheim Investigational Site","city":"Lausanne","country":"Switzerland","geoPoint":{"lat":46.516,"lon":6.63282}},{"facility":"135.312.41002 Boehringer Ingelheim Investigational Site","city":"St. Gallen","country":"Switzerland","geoPoint":{"lat":47.42391,"lon":9.37477}},{"facility":"135.312.44025 Boehringer Ingelheim Investigational Site","city":"Aberdeen","country":"United Kingdom","geoPoint":{"lat":57.14369,"lon":-2.09814}},{"facility":"135.312.44002 Boehringer Ingelheim Investigational Site","city":"Bournemouth","country":"United Kingdom","geoPoint":{"lat":50.72048,"lon":-1.8795}},{"facility":"135.312.44023 Boehringer Ingelheim Investigational Site","city":"Cambridge","country":"United Kingdom","geoPoint":{"lat":52.2,"lon":0.11667}},{"facility":"135.312.44026 Boehringer Ingelheim Investigational Site","city":"Dundee","country":"United Kingdom","geoPoint":{"lat":56.46913,"lon":-2.97489}},{"facility":"135.312.44003 Boehringer Ingelheim Investigational Site","city":"Glasgow","country":"United Kingdom","geoPoint":{"lat":55.86515,"lon":-4.25763}},{"facility":"135.312.44006 Boehringer Ingelheim Investigational Site","city":"Glasgow","country":"United Kingdom","geoPoint":{"lat":55.86515,"lon":-4.25763}},{"facility":"135.312.44024 Boehringer Ingelheim Investigational Site","city":"Glasgow","country":"United Kingdom","geoPoint":{"lat":55.86515,"lon":-4.25763}},{"facility":"135.312.44018 Boehringer Ingelheim Investigational Site","city":"Liverpool","country":"United Kingdom","geoPoint":{"lat":53.41058,"lon":-2.97794}},{"facility":"135.312.44030 Boehringer Ingelheim Investigational Site","city":"London","country":"United Kingdom","geoPoint":{"lat":51.50853,"lon":-0.12574}}]},"referencesModule":{"references":[{"pmid":"32430395","type":"DERIVED","citation":"Alper BS, Foster G, Thabane L, Rae-Grant A, Malone-Moses M, Manheimer E. Thrombolysis with alteplase 3-4.5 hours after acute ischaemic stroke: trial reanalysis adjusted for baseline imbalances. BMJ Evid Based Med. 2020 Oct;25(5):168-171. doi: 10.1136/bmjebm-2020-111386. Epub 2020 May 19."},{"pmid":"19850525","type":"DERIVED","citation":"Bluhmki E, Chamorro A, Davalos A, Machnig T, Sauce C, Wahlgren N, Wardlaw J, Hacke W. Stroke treatment with alteplase given 3.0-4.5 h after onset of acute ischaemic stroke (ECASS III): additional outcomes and subgroup analysis of a randomised controlled trial. Lancet Neurol. 2009 Dec;8(12):1095-102. doi: 10.1016/S1474-4422(09)70264-9. Epub 2009 Oct 21."},{"pmid":"18815396","type":"DERIVED","citation":"Hacke W, Kaste M, Bluhmki E, Brozman M, Davalos A, Guidetti D, Larrue V, Lees KR, Medeghri Z, Machnig T, Schneider D, von Kummer R, Wahlgren N, Toni D; ECASS Investigators. Thrombolysis with alteplase 3 to 4.5 hours after acute ischemic stroke. N Engl J Med. 2008 Sep 25;359(13):1317-29. doi: 10.1056/NEJMoa0804656."}]}},"derivedSection":{"miscInfoModule":{"versionHolder":"2024-02-14"},"conditionBrowseModule":{"meshes":[{"id":"D000020521","term":"Stroke"}],"ancestors":[{"id":"D000002561","term":"Cerebrovascular Disorders"},{"id":"D000001927","term":"Brain Diseases"},{"id":"D000002493","term":"Central Nervous System Diseases"},{"id":"D000009422","term":"Nervous System Diseases"},{"id":"D000014652","term":"Vascular Diseases"},{"id":"D000002318","term":"Cardiovascular Diseases"}],"browseLeaves":[{"id":"M21996","name":"Stroke","asFound":"Cerebrovascular Accident","relevance":"HIGH"},{"id":"M10233","name":"Ischemia","relevance":"LOW"},{"id":"M2401","name":"Ischemic Stroke","relevance":"LOW"},{"id":"M5500","name":"Cerebrovascular Disorders","relevance":"LOW"},{"id":"M4894","name":"Brain Diseases","relevance":"LOW"},{"id":"M5432","name":"Central Nervous System Diseases","relevance":"LOW"},{"id":"M17090","name":"Vascular Diseases","relevance":"LOW"},{"id":"T170","name":"Acute Graft Versus Host Disease","relevance":"LOW"}],"browseBranches":[{"abbrev":"BC10","name":"Nervous System Diseases"},{"abbrev":"BC14","name":"Heart and Blood Diseases"},{"abbrev":"All","name":"All Conditions"},{"abbrev":"BC23","name":"Symptoms and General Pathology"},{"abbrev":"Rare","name":"Rare Diseases"}]},"interventionBrowseModule":{"browseLeaves":[{"id":"M13539","name":"Tissue Plasminogen Activator","relevance":"LOW"}],"browseBranches":[{"abbrev":"FiAg","name":"Fibrinolytic Agents"},{"abbrev":"All","name":"All Drugs and Chemicals"}]}},"hasResults":false}