{"protocolSection":{"identificationModule":{"nctId":"NCT00279981","orgStudyIdInfo":{"id":"219"},"organization":{"fullName":"Medtronic Cardiac Rhythm and Heart Failure","class":"INDUSTRY"},"briefTitle":"TRENDS: A Prospective Study of the Clinical Significance of Atrial Arrhythmias Detected by Implanted Device Diagnostics","officialTitle":"TRENDS: A Prospective Study of the Clinical Significance of Atrial Arrhythmias Detected by Implanted Device Diagnostics"},"statusModule":{"statusVerifiedDate":"2008-12","overallStatus":"COMPLETED","expandedAccessInfo":{"hasExpandedAccess":false},"startDateStruct":{"date":"2003-11"},"primaryCompletionDateStruct":{"date":"2007-06","type":"ACTUAL"},"completionDateStruct":{"date":"2007-06","type":"ACTUAL"},"studyFirstSubmitDate":"2006-01-18","studyFirstSubmitQcDate":"2006-01-18","studyFirstPostDateStruct":{"date":"2006-01-20","type":"ESTIMATED"},"lastUpdateSubmitDate":"2008-12-10","lastUpdatePostDateStruct":{"date":"2008-12-11","type":"ESTIMATED"}},"sponsorCollaboratorsModule":{"leadSponsor":{"name":"Medtronic Cardiac Rhythm and Heart Failure","class":"INDUSTRY"},"collaborators":[{"name":"Medtronic","class":"INDUSTRY"}]},"descriptionModule":{"briefSummary":"The purpose of this study is to look at the heart rate and rhythm information collected daily in Medtronic implantable pulse generators (IPG), implantable cardioverter defibrillators (ICD) and cardiac resynchronization therapy (CRT) devices. The study will gather this information from many patients to see if heart rate or rhythm data can predict the risk of a patient having a medical condition such as stroke."},"conditionsModule":{"conditions":["Atrial Fibrillation","Stroke","Heart Failure"],"keywords":["Atrial fibrillation","Stroke","Pacemaker","Implantable Cardiac Defibrillator","Resynchronization systems"]},"designModule":{"studyType":"OBSERVATIONAL","designInfo":{"timePerspective":"PROSPECTIVE"},"enrollmentInfo":{"count":3100}},"armsInterventionsModule":{"interventions":[{"type":"DEVICE","name":"Diagnostic"}]},"eligibilityModule":{"eligibilityCriteria":"Inclusion Criteria:\n\n* Subject provides written informed consent and privacy/protection authorization.\n* Subjects 65 years of age or older.\n\nOR\n\n* Subjects with age \\>18 and \\< 65 years and one of the following stroke risk factors:\n* Prior stroke or TIA\n* Diagnosis of hypertension (HTN)\n* Diagnosis of Diabetes Mellitus (DM)\n* Diagnosis of Congestive Heart Failure (CHF)\n* Subjects who meet the Class I/Class II indications for a dual chamber implantable pulse generator or dual chamber implanted cardioverter defibrillator device\n\nOR\n\nâ€¢ Subjects who meet the criteria for indication of a dual chamber resynchronization device with bi-ventricular pacing (moderate to severe CHF symptoms \\[NYHA Class III-IV\\] despite optimal medical therapy, left ventricular ejection fraction â‰¤ 35%, and a QRS duration â‰¥130 ms)13.\n\nExclusion Criteria:\n\n* Subjects who are to receive a replacement IPG, ICD or CRT device.\n* Subjects with chronic (permanent) AT/AF.\n* Subjects with a history of AV nodal dependent arrhythmias.\n* Subjects with a terminal illness who are not expected to survive more than 6 months.\n* Subjects who are unwilling or unable to cooperate or give written informed consent and privacy/protection authorization, or subjects whose legal representatives or legal guardians refuse to give informed consent or privacy/protection authorization.\n* Subjects currently receiving treatment in another drug and/or device study which could affect the outcome of the trial.\n* Subjects who are or will be inaccessible for follow-up at a qualified study center.","healthyVolunteers":false,"sex":"ALL","minimumAge":"18 Years","stdAges":["ADULT","OLDER_ADULT"]},"contactsLocationsModule":{"overallOfficials":[{"name":"Emile Daoud, MD","affiliation":"Riverside Hospital","role":"PRINCIPAL_INVESTIGATOR"},{"name":"Taya Glotzer, MD","affiliation":"Hackensack Meridian Health","role":"PRINCIPAL_INVESTIGATOR"}],"locations":[{"city":"Mesa","state":"Arizona","country":"United States","geoPoint":{"lat":33.42227,"lon":-111.82264}},{"city":"Tucson","state":"Arizona","country":"United States","geoPoint":{"lat":32.22174,"lon":-110.92648}},{"city":"Fountain Valley","state":"California","country":"United States","geoPoint":{"lat":33.70918,"lon":-117.95367}},{"city":"Mission Viejo","state":"California","country":"United States","geoPoint":{"lat":33.60002,"lon":-117.672}},{"city":"Modesto","state":"California","country":"United States","geoPoint":{"lat":37.6391,"lon":-120.99688}},{"city":"National City","state":"California","country":"United States","geoPoint":{"lat":32.67811,"lon":-117.0992}},{"city":"Palm Springs","state":"California","country":"United States","geoPoint":{"lat":33.8303,"lon":-116.54529}},{"city":"Salinas","state":"California","country":"United States","geoPoint":{"lat":36.67774,"lon":-121.6555}},{"city":"San Bernadino","state":"California","country":"United States","geoPoint":{"lat":34.10834,"lon":-117.28977}},{"city":"Torrance","state":"California","country":"United States","geoPoint":{"lat":33.83585,"lon":-118.34063}},{"city":"Norwalk","state":"Connecticut","country":"United States","geoPoint":{"lat":41.1176,"lon":-73.4079}},{"city":"Newark","state":"Delaware","country":"United States","geoPoint":{"lat":39.68372,"lon":-75.74966}},{"city":"Washington","state":"District of Columbia","country":"United States","geoPoint":{"lat":38.89511,"lon":-77.03637}},{"city":"Ft. Lauderdale,","state":"Florida","country":"United States","geoPoint":{"lat":26.12231,"lon":-80.14338}},{"city":"Hollywood","state":"Florida","country":"United States","geoPoint":{"lat":26.0112,"lon":-80.14949}},{"city":"Melbourne","state":"Florida","country":"United States","geoPoint":{"lat":28.08363,"lon":-80.60811}},{"city":"Naples","state":"Florida","country":"United States","geoPoint":{"lat":26.14234,"lon":-81.79596}},{"city":"Palm Beach Gardens","state":"Florida","country":"United States","geoPoint":{"lat":26.82339,"lon":-80.13865}},{"city":"St. Petersburg","state":"Florida","country":"United States","geoPoint":{"lat":27.77086,"lon":-82.67927}},{"city":"Atlanta","state":"Georgia","country":"United States","geoPoint":{"lat":33.749,"lon":-84.38798}},{"city":"Boise","state":"Idaho","country":"United States","geoPoint":{"lat":43.6135,"lon":-116.20345}},{"city":"Chicago","state":"Illinois","country":"United States","geoPoint":{"lat":41.85003,"lon":-87.65005}},{"city":"Indianapolis","state":"Indiana","country":"United States","geoPoint":{"lat":39.76838,"lon":-86.15804}},{"city":"Munster","state":"Indiana","country":"United States","geoPoint":{"lat":41.56448,"lon":-87.51254}},{"city":"Ames","state":"Iowa","country":"United States","geoPoint":{"lat":42.03471,"lon":-93.61994}},{"city":"Wichita","state":"Kansas","country":"United States","geoPoint":{"lat":37.69224,"lon":-97.33754}},{"city":"Ashland","state":"Kentucky","country":"United States","geoPoint":{"lat":38.47841,"lon":-82.63794}},{"city":"Lexington","state":"Kentucky","country":"United States","geoPoint":{"lat":37.98869,"lon":-84.47772}},{"city":"Covington","state":"Louisiana","country":"United States","geoPoint":{"lat":30.47549,"lon":-90.10042}},{"city":"Slidell","state":"Louisiana","country":"United States","geoPoint":{"lat":30.27519,"lon":-89.78117}},{"city":"Baltimore","state":"Maryland","country":"United States","geoPoint":{"lat":39.29038,"lon":-76.61219}},{"city":"Hagerstown","state":"Maryland","country":"United States","geoPoint":{"lat":39.64176,"lon":-77.71999}},{"city":"Takoma Park","state":"Maryland","country":"United States","geoPoint":{"lat":38.97789,"lon":-77.00748}},{"city":"Boston","state":"Massachusetts","country":"United States","geoPoint":{"lat":42.35843,"lon":-71.05977}},{"city":"Brighton","state":"Massachusetts","country":"United States","geoPoint":{"lat":42.3501,"lon":-71.15644}},{"city":"Burlington","state":"Massachusetts","country":"United States","geoPoint":{"lat":42.50482,"lon":-71.19561}},{"city":"Worcester","state":"Massachusetts","country":"United States","geoPoint":{"lat":42.26259,"lon":-71.80229}},{"city":"Grand Blanc","state":"Michigan","country":"United States","geoPoint":{"lat":42.92753,"lon":-83.62995}},{"city":"Kalamazoo","state":"Michigan","country":"United States","geoPoint":{"lat":42.29171,"lon":-85.58723}},{"city":"Mt. Clemens","state":"Michigan","country":"United States","geoPoint":{"lat":42.59726,"lon":-82.87798}},{"city":"Saginaw","state":"Michigan","country":"United States","geoPoint":{"lat":43.41947,"lon":-83.95081}},{"city":"Duluth","state":"Minnesota","country":"United States","geoPoint":{"lat":46.78327,"lon":-92.10658}},{"city":"Minneapolis","state":"Minnesota","country":"United States","geoPoint":{"lat":44.97997,"lon":-93.26384}},{"city":"St. Paul,","state":"Minnesota","country":"United States","geoPoint":{"lat":44.94441,"lon":-93.09327}},{"city":"Gulfport","state":"Mississippi","country":"United States","geoPoint":{"lat":30.36742,"lon":-89.09282}},{"city":"Hattiesburg","state":"Mississippi","country":"United States","geoPoint":{"lat":31.32712,"lon":-89.29034}},{"city":"Tupelo","state":"Mississippi","country":"United States","geoPoint":{"lat":34.25807,"lon":-88.70464}},{"city":"St. Louis","state":"Missouri","country":"United States","geoPoint":{"lat":38.62727,"lon":-90.19789}},{"city":"Lincoln","state":"Nebraska","country":"United States","geoPoint":{"lat":40.8,"lon":-96.66696}},{"city":"Omaha","state":"Nebraska","country":"United States","geoPoint":{"lat":41.25626,"lon":-95.94043}},{"city":"Lebanon","state":"New Hampshire","country":"United States","geoPoint":{"lat":43.64229,"lon":-72.25176}},{"city":"Camden","state":"New Jersey","country":"United States","geoPoint":{"lat":39.92595,"lon":-75.11962}},{"city":"Cherry Hill","state":"New Jersey","country":"United States","geoPoint":{"lat":39.93484,"lon":-75.03073}},{"city":"Hackensack","state":"New Jersey","country":"United States","geoPoint":{"lat":40.88593,"lon":-74.04347}},{"city":"Haddon Heights","state":"New Jersey","country":"United States","geoPoint":{"lat":39.87734,"lon":-75.06462}},{"city":"West Orange","state":"New Jersey","country":"United States","geoPoint":{"lat":40.79871,"lon":-74.23904}},{"city":"Brooklyn","state":"New York","country":"United States","geoPoint":{"lat":40.6501,"lon":-73.94958}},{"city":"New York","state":"New York","country":"United States","geoPoint":{"lat":40.71427,"lon":-74.00597}},{"city":"Poughkeepsie","state":"New York","country":"United States","geoPoint":{"lat":41.70037,"lon":-73.92097}},{"city":"Syracuse","state":"New York","country":"United States","geoPoint":{"lat":43.04812,"lon":-76.14742}},{"city":"Greensboro","state":"North Carolina","country":"United States","geoPoint":{"lat":36.07264,"lon":-79.79198}},{"city":"Pinehurst","state":"North Carolina","country":"United States","geoPoint":{"lat":35.19543,"lon":-79.46948}},{"city":"Raleigh","state":"North Carolina","country":"United States","geoPoint":{"lat":35.7721,"lon":-78.63861}},{"city":"Winston-Salem,","state":"North Carolina","country":"United States","geoPoint":{"lat":36.09986,"lon":-80.24422}},{"city":"Winston-Salem","state":"North Carolina","country":"United States","geoPoint":{"lat":36.09986,"lon":-80.24422}},{"city":"Cleveland","state":"Ohio","country":"United States","geoPoint":{"lat":41.4995,"lon":-81.69541}},{"city":"Columbus","state":"Ohio","country":"United States","geoPoint":{"lat":39.96118,"lon":-82.99879}},{"city":"Fairview Park","state":"Ohio","country":"United States","geoPoint":{"lat":41.44144,"lon":-81.8643}},{"city":"Marion","state":"Ohio","country":"United States","geoPoint":{"lat":40.58867,"lon":-83.12852}},{"city":"Toledo","state":"Ohio","country":"United States","geoPoint":{"lat":41.66394,"lon":-83.55521}},{"city":"Midwest City","state":"Oklahoma","country":"United States","geoPoint":{"lat":35.44951,"lon":-97.3967}},{"city":"Easton","state":"Pennsylvania","country":"United States","geoPoint":{"lat":40.68843,"lon":-75.22073}},{"city":"Philadelphia","state":"Pennsylvania","country":"United States","geoPoint":{"lat":39.95233,"lon":-75.16379}},{"city":"Charleston","state":"South Carolina","country":"United States","geoPoint":{"lat":32.77657,"lon":-79.93092}},{"city":"Columbia","state":"South Carolina","country":"United States","geoPoint":{"lat":34.00071,"lon":-81.03481}},{"city":"Greenville","state":"South Carolina","country":"United States","geoPoint":{"lat":34.85262,"lon":-82.39401}},{"city":"Chattanooga","state":"Tennessee","country":"United States","geoPoint":{"lat":35.04563,"lon":-85.30968}},{"city":"Knoxville","state":"Tennessee","country":"United States","geoPoint":{"lat":35.96064,"lon":-83.92074}},{"city":"Memphis","state":"Tennessee","country":"United States","geoPoint":{"lat":35.14953,"lon":-90.04898}},{"city":"Nashville","state":"Tennessee","country":"United States","geoPoint":{"lat":36.16589,"lon":-86.78444}},{"city":"Austin,","state":"Texas","country":"United States","geoPoint":{"lat":30.26715,"lon":-97.74306}},{"city":"Austin","state":"Texas","country":"United States","geoPoint":{"lat":30.26715,"lon":-97.74306}},{"city":"Corpus Christi","state":"Texas","country":"United States","geoPoint":{"lat":27.80058,"lon":-97.39638}},{"city":"Dallas","state":"Texas","country":"United States","geoPoint":{"lat":32.78306,"lon":-96.80667}},{"city":"Ft. Worth","state":"Texas","country":"United States","geoPoint":{"lat":32.72541,"lon":-97.32085}},{"city":"Houston","state":"Texas","country":"United States","geoPoint":{"lat":29.76328,"lon":-95.36327}},{"city":"Odessa","state":"Texas","country":"United States","geoPoint":{"lat":31.84568,"lon":-102.36764}},{"city":"Tyler","state":"Texas","country":"United States","geoPoint":{"lat":32.35126,"lon":-95.30106}},{"city":"Charlottesville","state":"Virginia","country":"United States","geoPoint":{"lat":38.02931,"lon":-78.47668}},{"city":"Norfolk","state":"Virginia","country":"United States","geoPoint":{"lat":36.84681,"lon":-76.28522}},{"city":"Richmond","state":"Virginia","country":"United States","geoPoint":{"lat":37.55376,"lon":-77.46026}},{"city":"Spokane","state":"Washington","country":"United States","geoPoint":{"lat":47.65966,"lon":-117.42908}},{"city":"La Crosse","state":"Wisconsin","country":"United States","geoPoint":{"lat":43.80136,"lon":-91.23958}},{"city":"Milwaukee","state":"Wisconsin","country":"United States","geoPoint":{"lat":43.0389,"lon":-87.90647}},{"city":"Liverpool","state":"New South Wales","country":"Australia","geoPoint":{"lat":-33.90011,"lon":150.93328}},{"city":"New Lambton","state":"New South Wales","country":"Australia","geoPoint":{"lat":-32.95,"lon":151.68333}},{"city":"Bedford Park","state":"South Australia","country":"Australia","geoPoint":{"lat":-35.03333,"lon":138.56667}},{"city":"Perth-Western Australia","country":"Australia"},{"city":"Calgary","state":"Alberta","country":"Canada","geoPoint":{"lat":51.05011,"lon":-114.08529}},{"city":"London","state":"Ontario","country":"Canada","geoPoint":{"lat":42.98339,"lon":-81.23304}}]},"referencesModule":{"references":[{"pmid":"26882334","type":"DERIVED","citation":"Yano Y, Greenland P, Lloyd-Jones DM, Daoud EG, Koehler JL, Ziegler PD. Simulation of Daily Snapshot Rhythm Monitoring to Identify Atrial Fibrillation in Continuously Monitored Patients with Stroke Risk Factors. PLoS One. 2016 Feb 16;11(2):e0148914. doi: 10.1371/journal.pone.0148914. eCollection 2016."},{"pmid":"19843914","type":"DERIVED","citation":"Glotzer TV, Daoud EG, Wyse DG, Singer DE, Ezekowitz MD, Hilker C, Miller C, Qi D, Ziegler PD. The relationship between daily atrial tachyarrhythmia burden from implantable device diagnostics and stroke risk: the TRENDS study. Circ Arrhythm Electrophysiol. 2009 Oct;2(5):474-80. doi: 10.1161/CIRCEP.109.849638. Epub 2009 Aug 4."}]}},"derivedSection":{"miscInfoModule":{"versionHolder":"2024-02-14"},"conditionBrowseModule":{"meshes":[{"id":"D000001281","term":"Atrial Fibrillation"}],"ancestors":[{"id":"D000002318","term":"Cardiovascular Diseases"},{"id":"D000006331","term":"Heart Diseases"},{"id":"D000001145","term":"Arrhythmias, Cardiac"},{"id":"D000010335","term":"Pathologic Processes"}],"browseLeaves":[{"id":"M21996","name":"Stroke","relevance":"LOW"},{"id":"M9111","name":"Heart Failure","relevance":"LOW"},{"id":"M4276","name":"Atrial Fibrillation","asFound":"Atrial Fibrillation","relevance":"HIGH"},{"id":"M4143","name":"Arrhythmias, Cardiac","relevance":"LOW"},{"id":"M9109","name":"Heart Diseases","relevance":"LOW"}],"browseBranches":[{"abbrev":"BC10","name":"Nervous System Diseases"},{"abbrev":"BC14","name":"Heart and Blood Diseases"},{"abbrev":"All","name":"All Conditions"},{"abbrev":"BC23","name":"Symptoms and General Pathology"}]}},"hasResults":false}