{"protocolSection":{"identificationModule":{"nctId":"NCT03574597","orgStudyIdInfo":{"id":"EX9536-4388"},"secondaryIdInfos":[{"id":"2017-003380-35","type":"REGISTRY","domain":"European Medicines Agency (EudraCT)"},{"id":"U1111-1200-5564","type":"OTHER","domain":"World Health Organization (WHO)"}],"organization":{"fullName":"Novo Nordisk A/S","class":"INDUSTRY"},"briefTitle":"Semaglutide Effects on Heart Disease and Stroke in Patients With Overweight or Obesity","officialTitle":"SELECT - Semaglutide Effects on Cardiovascular Outcomes in People With Overweight or Obesity","acronym":"SELECT"},"statusModule":{"statusVerifiedDate":"2024-02","overallStatus":"COMPLETED","expandedAccessInfo":{"hasExpandedAccess":false},"startDateStruct":{"date":"2018-10-24","type":"ACTUAL"},"primaryCompletionDateStruct":{"date":"2023-06-21","type":"ACTUAL"},"completionDateStruct":{"date":"2023-06-29","type":"ACTUAL"},"studyFirstSubmitDate":"2018-06-21","studyFirstSubmitQcDate":"2018-06-21","studyFirstPostDateStruct":{"date":"2018-07-02","type":"ACTUAL"},"lastUpdateSubmitDate":"2024-02-13","lastUpdatePostDateStruct":{"date":"2024-02-14","type":"ESTIMATED"}},"sponsorCollaboratorsModule":{"responsibleParty":{"type":"SPONSOR"},"leadSponsor":{"name":"Novo Nordisk A/S","class":"INDUSTRY"}},"oversightModule":{"oversightHasDmc":true,"isFdaRegulatedDrug":true,"isFdaRegulatedDevice":false},"descriptionModule":{"briefSummary":"The researchers are doing the study to see if semaglutide may reduce the risk of having cardiovascular events in patients with overweight or obesity and with prior cardiovascular disease. The participant will either get semaglutide (active medicine) or placebo (\"dummy\" medicine). Which treatment the participants get is decided by chance. The participant's chance of getting semaglutide or placebo is the same. The participant will get the study medicine in a pen. The participants will need to use the pen to inject the study medicine in a skinfold once a week. The study will last for about 2.5 to 5 years. Participants will have up to 25 clinic visits with the study doctor."},"conditionsModule":{"conditions":["Overweight","Obesity"]},"designModule":{"studyType":"INTERVENTIONAL","phases":["PHASE3"],"designInfo":{"allocation":"RANDOMIZED","interventionModel":"PARALLEL","primaryPurpose":"TREATMENT","maskingInfo":{"masking":"QUADRUPLE","maskingDescription":"Sponsor staff involved in the clinical trial is masked according to company standard procedures","whoMasked":["PARTICIPANT","CARE_PROVIDER","INVESTIGATOR","OUTCOMES_ASSESSOR"]}},"enrollmentInfo":{"count":17609,"type":"ACTUAL"}},"armsInterventionsModule":{"armGroups":[{"label":"Semaglutide","type":"EXPERIMENTAL","description":"Participants will receive semaglutide as an adjunct to standard-of-care. Estimated trial duration for an individual subject is from 31 to 59 months.","interventionNames":["Drug: Semaglutide"]},{"label":"Placebo (semaglutide)","type":"PLACEBO_COMPARATOR","description":"Participants will receive placebo (semaglutide) as an adjunct to standard-of-care. Estimated trial duration for an individual subject is from 31 to 59 months.","interventionNames":["Drug: Placebo (semaglutide)"]}],"interventions":[{"type":"DRUG","name":"Semaglutide","description":"Semaglutide will be injected into a skin fold, in the stomach, thigh or upper arm once a week at the same day of the week (to the extent possible) throughout the trial. Subjects will start semaglutide treatment at 0.24 mg; dose will gradually be increased every 4 weeks up to 2.4 mg.","armGroupLabels":["Semaglutide"]},{"type":"DRUG","name":"Placebo (semaglutide)","description":"Placebo will be injected into a skin fold, in the stomach, thigh or upper arm once a week at the same day of the week (to the extent possible) throughout the trial. Participants will receive placebo at an equivalent dose to semaglutide.","armGroupLabels":["Placebo (semaglutide)"]}]},"outcomesModule":{"primaryOutcomes":[{"measure":"Time to first occurrence of a composite endpoint consisting of: cardiovascular (CV) death, non-fatal myocardial infarction, or non-fatal stroke","description":"Measured in months","timeFrame":"0-59 months"}],"secondaryOutcomes":[{"measure":"Time to CV death","description":"Measured in months","timeFrame":"0-59 months"},{"measure":"Time to all-cause death","description":"Measured in months","timeFrame":"0-59 months"},{"measure":"Time to first occurrence of an expanded composite CV endpoint consisting of: CV death, non-fatal myocardial infarction, non-fatal stroke, coronary revascularisation or unstable angina requiring hospitalisation","description":"Measured in months","timeFrame":"0-59 months"},{"measure":"Time to first occurrence of a composite heart failure endpoint consisting of: heart failure hospitalisation, urgent heartfailure visit or CV death","description":"Measured in months","timeFrame":"0-59 months"},{"measure":"Time to first occurrence of a composite endpoint consisting of: all-cause death, non-fatal myocardial infarction, or non-fatal stroke","description":"Measured in months","timeFrame":"0-59 months"},{"measure":"Time to first occurrence of non-fatal myocardial infarction","description":"Measured in months","timeFrame":"0-59 months"},{"measure":"Time to first occurrence of non-fatal stroke","description":"Measured in months","timeFrame":"0-59 months"},{"measure":"Time to first occurrence of coronary revascularisation","description":"Measured in months","timeFrame":"0-59 months"},{"measure":"Time to first occurrence of unstable angina requiring hospitalisation","description":"Measured in months","timeFrame":"0-59 months"},{"measure":"Time to first occurrence of heart failure hospitalisation or urgent heart failure visit","description":"Measured in months","timeFrame":"0-59 months"},{"measure":"Time to first occurrence of HbA1c greater than or equal to 48 mmol/mol (6.5%)","description":"Measured in months","timeFrame":"0-59 months"},{"measure":"Time to first occurrence of a 5-component composite nephropathy endpoint","description":"Measured in months. A 5-component composite nephropathy endpoint consists of: onset of persistent macroalbuminuria (UACR above 300 mg/g), persistent 50% reduction in estimated Glomerular Filtration Rate (eGFR) compared with baseline (randomisation), onset of persistent eGFR less than 15 ml/min/1.73m\\^2, initiation of chronic renal replacement therapy (dialysis or transplantation) or renal death.","timeFrame":"0-59 months"},{"measure":"Time to HbA1c greater than or equal to 39 mmol/mol (5.7%) for subjects with a screening HbA1c less than 39 mmol/mol (5.7%)","description":"Measured in months","timeFrame":"0-59 months"},{"measure":"Subjects with HbA1c less than 39 mmol/mol (5.7%) at each visit where HbA1c is assessed for subjects with a screening HbA1c greater than or equal to 39 mmol/mol (5.7%)","description":"Proportion of subjects","timeFrame":"0-59 months"},{"measure":"Change in systolic blood pressure","description":"Measured in mm Hg","timeFrame":"Week 0, year 2"},{"measure":"Change in diastolic blood pressure","description":"Measured in mm Hg","timeFrame":"Week 0, year 2"},{"measure":"Change in pulse","description":"Measured in beats per minute","timeFrame":"Week 0, year 2"},{"measure":"Change in High sensitivity C-Reactive Protein (hsCRP)","description":"Measured in mg/dL","timeFrame":"Week 0, year 2"},{"measure":"Change in total cholesterol","description":"Measured in mg/dL","timeFrame":"Week 0, year 2"},{"measure":"Change in high density lipoprotein (HDL) cholesterol","description":"Measured in mg/dL","timeFrame":"Week 0, year 2"},{"measure":"Change in low density lipoprotein (LDL) cholesterol","description":"Measured in mg/dL","timeFrame":"Week 0, year 2"},{"measure":"Change in triglycerides","description":"Measured in mg/dL","timeFrame":"Week 0, year 2"},{"measure":"Change in body weight","description":"Measured in %","timeFrame":"Week 0, year 2"},{"measure":"Change in waist circumference","description":"Measured in cm","timeFrame":"Week 0, year 2"},{"measure":"Change in EuroQol five dimensions five level (EQ-5D-5L) questionnaire","description":"The EQ-5D-5L questionnaire will be used to estimate the impact on subjects' health-related quality of life and provides a description of subjects' problems by dimensions (descriptive system), a score for overall self-rated health (visual analogue scale \\[VAS\\]) as well as an index score (EQ-5D-5L index). EQ-5D index score range: 0 to 1 and EQ-5D-VAS: range 0 to 100. A higher score indicates better self reported health status.","timeFrame":"Week 0, year 2"},{"measure":"Change in total score weight related sign and symptom measure","description":"The weight related sign and symptom measure assesses the presence and bother associated with weight-related symptoms using a self-rated VAS. It is a tool to assess the multifaceted aspects of obesity on symptom experience in subjects with overweight or obesity.","timeFrame":"Week 0, year 2"},{"measure":"Change in haemoglobin A1c (HbA1c)","description":"Measured in %","timeFrame":"Screening (up to 3 weeks before randomisation at week 0), week 104"},{"measure":"Change in HbA1c","description":"Measured in mmol/mol","timeFrame":"Screening (up to 3 weeks before randomisation at week 0), week 104"}]},"eligibilityModule":{"eligibilityCriteria":"Inclusion Criteria:\n\n* Informed consent obtained before any trial-related activities. Trial-related activities are any procedures that are carried out as part of the trial, including activities to determine suitability for the trial\n* Male or female, age greater than or equal to 45 years at the time of signing informed consent\n* Body mass index (BMI) greater than or equal to 27 kg/m\\^2\n* Have established cardiovascular (CV) disease as evidenced by at least one of the following: prior myocardial infarction; prior stroke (ischemic or haemorrhagic stroke); or symptomatic peripheral arterial disease (PAD), as evidenced by intermittent claudication with ankle-brachial index (ABI) less than 0.85 (at rest), or peripheral arterial revascularization procedure, or amputation due to atherosclerotic disease\n\nExclusion Criteria:\n\nCardiovascular-related:\n\n* Any of the following: myocardial infarction, stroke, hospitalisation for unstable angina pectoris or transient ischaemic attack within the past 60 days prior to the day of screening\n* Planned coronary, carotid or peripheral artery revascularisation known on the day of screening\n* Presently classified as being in New York Heart Association (NYHA) Class IV heart failure\n\nGlycaemia-related:\n\n* HbA1c greater than or equal to 48 mmol/mol (6.5 %) as measured by the central laboratory at screening\n* History of type 1 or type 2 diabetes (history of gestational diabetes is allowed)\n* Treatment with glucose-lowering agents within 90 days before screening\n* Treatment with any glucagon-like-peptide-1 receptor agonist (GLP-1 RA) within 90 days before screening\n\nGeneral safety:\n\n* History or presence of chronic pancreatitis\n* Presence of acute pancreatitis within the past 180 days prior to the day of screening\n* Personal or first degree relative(s) history of multiple endocrine neoplasia type 2 or medullary thyroid carcinoma\n* End stage renal disease or chronic or intermittent haemodialysis or peritoneal dialysis\n* Presence or history of malignant neoplasms within the past 5 years prior to the day of screening. Basal and squamous cell skin cancer and any carcinoma in-situ are allowed\n* Severe psychiatric disorder which in the investigator's opinion could compromise compliance with the protocol\n* Known or suspected hypersensitivity to trial products or related products\n* Previous participation in this trial. Participation is defined as randomisation\n* Receipt of any investigational medicinal product within 30 days before screening\n* Female who is pregnant, breast-feeding or intends to become pregnant or is of child-bearing potential and not using a highly effective contraceptive method\n* Any disorder, unwillingness or inability, which in the investigator's opinion, might jeopardise the participant's safety or compliance with the protocol","healthyVolunteers":false,"sex":"ALL","minimumAge":"45 Years","stdAges":["ADULT","OLDER_ADULT"]},"contactsLocationsModule":{"overallOfficials":[{"name":"Clinical Transparency (dept.2834)","affiliation":"Novo Nordisk A/S","role":"STUDY_DIRECTOR"}],"locations":[{"facility":"Central Alabama Research","city":"Birmingham","state":"Alabama","zip":"35209","country":"United States","geoPoint":{"lat":33.52066,"lon":-86.80249}},{"facility":"Univ of Alabama Birmingham","city":"Birmingham","state":"Alabama","zip":"35294","country":"United States","geoPoint":{"lat":33.52066,"lon":-86.80249}},{"facility":"Healthscan Clinical Trials,LLC.","city":"Montgomery","state":"Alabama","zip":"36106","country":"United States","geoPoint":{"lat":32.36681,"lon":-86.29997}},{"facility":"Synexus Clinical Research US, Inc./Tatum","city":"Glendale","state":"Arizona","zip":"85306","country":"United States","geoPoint":{"lat":33.53865,"lon":-112.18599}},{"facility":"Synexus Clinical Research","city":"Glendale","state":"Arizona","zip":"85308","country":"United States","geoPoint":{"lat":33.53865,"lon":-112.18599}},{"facility":"Synexus Cln Rsrch /Cnt Phoenix Med C","city":"Phoenix","state":"Arizona","zip":"85050","country":"United States","geoPoint":{"lat":33.44838,"lon":-112.07404}},{"facility":"National Heart Institute Cal","city":"Beverly Hills","state":"California","zip":"90211","country":"United States","geoPoint":{"lat":34.07362,"lon":-118.40036}},{"facility":"FDRC","city":"Costa Mesa","state":"California","zip":"92627","country":"United States","geoPoint":{"lat":33.64113,"lon":-117.91867}},{"facility":"Valley Clinical Trials","city":"Covina","state":"California","zip":"91723","country":"United States","geoPoint":{"lat":34.09001,"lon":-117.89034}},{"facility":"Scripps Whittier Diabetes Inst","city":"La Jolla","state":"California","zip":"92037","country":"United States","geoPoint":{"lat":32.84727,"lon":-117.2742}},{"facility":"First Valley Medical Group","city":"Lancaster","state":"California","zip":"93534","country":"United States","geoPoint":{"lat":34.69804,"lon":-118.13674}},{"facility":"Torrance Clin Res Inst, Inc.","city":"Lomita","state":"California","zip":"90717","country":"United States","geoPoint":{"lat":33.79224,"lon":-118.31507}},{"facility":"Long Beach VA healthcare System","city":"Long Beach","state":"California","zip":"90822","country":"United States","geoPoint":{"lat":33.76696,"lon":-118.18923}},{"facility":"Angel City Research, Inc.","city":"Los Angeles","state":"California","zip":"90010","country":"United States","geoPoint":{"lat":34.05223,"lon":-118.24368}},{"facility":"VAGLAHS Clinical Research Center (CRC)","city":"Los Angeles","state":"California","zip":"90073","country":"United States","geoPoint":{"lat":34.05223,"lon":-118.24368}},{"facility":"Riverside University Health System Medical Center","city":"Moreno Valley","state":"California","zip":"92555","country":"United States","geoPoint":{"lat":33.93752,"lon":-117.23059}},{"facility":"Valley Clinical Trials, Inc.","city":"Northridge","state":"California","zip":"91325","country":"United States","geoPoint":{"lat":34.22834,"lon":-118.53675}},{"facility":"Desert Oasis Hlthcr Med Group","city":"Palm Springs","state":"California","zip":"92262","country":"United States","geoPoint":{"lat":33.8303,"lon":-116.54529}},{"facility":"Western University of Health Sciences","city":"Pomona","state":"California","zip":"91766","country":"United States","geoPoint":{"lat":34.05529,"lon":-117.75228}},{"facility":"Quartz Hill Walk-in Medical Group, inc.","city":"Quartz Hill","state":"California","zip":"93536","country":"United States","geoPoint":{"lat":34.64526,"lon":-118.21813}},{"facility":"TriWest Research Associates","city":"San Diego","state":"California","zip":"92108","country":"United States","geoPoint":{"lat":32.71533,"lon":-117.15726}},{"facility":"San Diego Family Care","city":"San Diego","state":"California","zip":"92111","country":"United States","geoPoint":{"lat":32.71533,"lon":-117.15726}},{"facility":"Mills-Peninsula Medical Center","city":"San Mateo","state":"California","zip":"94401","country":"United States","geoPoint":{"lat":37.56299,"lon":-122.32553}},{"facility":"NorCal Endocrinology and Internal Medicine","city":"San Ramon","state":"California","zip":"94583","country":"United States","geoPoint":{"lat":37.77993,"lon":-121.97802}},{"facility":"Encompass Clinical Research_Spring Valley","city":"Spring Valley","state":"California","zip":"91978","country":"United States","geoPoint":{"lat":32.74477,"lon":-116.99892}},{"facility":"Lundquist Inst-Biomed Innovtn","city":"Torrance","state":"California","zip":"90502","country":"United States","geoPoint":{"lat":33.83585,"lon":-118.34063}},{"facility":"Synexus Clinical Research US, Inc._Horsham","city":"Vista","state":"California","zip":"92083","country":"United States","geoPoint":{"lat":33.20004,"lon":-117.24254}},{"facility":"University of Colorado Hospital","city":"Aurora","state":"Colorado","zip":"80045","country":"United States","geoPoint":{"lat":39.72943,"lon":-104.83192}},{"facility":"Optumcare Colorado Springs, LLC","city":"Colorado Springs","state":"Colorado","zip":"80906","country":"United States","geoPoint":{"lat":38.83388,"lon":-104.82136}},{"facility":"Optumcare Colorado Springs","city":"Colorado Springs","state":"Colorado","zip":"80906","country":"United States","geoPoint":{"lat":38.83388,"lon":-104.82136}},{"facility":"New West Physicians,Inc.","city":"Golden","state":"Colorado","zip":"80401","country":"United States","geoPoint":{"lat":39.75554,"lon":-105.2211}},{"facility":"Optumcare Colorado Springs, LLC_Monument","city":"Monument","state":"Colorado","zip":"80132","country":"United States","geoPoint":{"lat":39.09166,"lon":-104.87276}},{"facility":"Bridgeport Hospital","city":"Bridgeport","state":"Connecticut","zip":"06610","country":"United States","geoPoint":{"lat":41.16704,"lon":-73.20483}},{"facility":"Yale University School Of Medicine","city":"New Haven","state":"Connecticut","zip":"06510","country":"United States","geoPoint":{"lat":41.30815,"lon":-72.92816}},{"facility":"Chase Medical Research LLC","city":"Waterbury","state":"Connecticut","zip":"06708","country":"United States","geoPoint":{"lat":41.55815,"lon":-73.0515}},{"facility":"Excel Med Ctr Clinical Trials","city":"Boca Raton","state":"Florida","zip":"33434","country":"United States","geoPoint":{"lat":26.3669,"lon":-80.13033}},{"facility":"Bradenton Research Center","city":"Bradenton","state":"Florida","zip":"34205","country":"United States","geoPoint":{"lat":27.49893,"lon":-82.57482}},{"facility":"Clearwater Cardiovascular Consultants","city":"Clearwater","state":"Florida","zip":"33756","country":"United States","geoPoint":{"lat":27.96585,"lon":-82.8001}},{"facility":"Nature Coast Clin Rsrch_Crystal River","city":"Crystal River","state":"Florida","zip":"34429","country":"United States","geoPoint":{"lat":28.90248,"lon":-82.5926}},{"facility":"Florida Premier Cardiology","city":"Delray Beach","state":"Florida","zip":"33445","country":"United States","geoPoint":{"lat":26.46146,"lon":-80.07282}},{"facility":"Fleming Island Center for Clinical Research","city":"Fleming Island","state":"Florida","zip":"32003","country":"United States","geoPoint":{"lat":30.0933,"lon":-81.71898}},{"facility":"Northeast Research Institute","city":"Fleming Island","state":"Florida","zip":"32003","country":"United States","geoPoint":{"lat":30.0933,"lon":-81.71898}},{"facility":"Integrative Research Assoc Inc","city":"Fort Lauderdale","state":"Florida","zip":"33312","country":"United States","geoPoint":{"lat":26.12231,"lon":-80.14338}},{"facility":"Clinical Research of Hollywood_Hollywood","city":"Hollywood","state":"Florida","zip":"33024","country":"United States","geoPoint":{"lat":26.0112,"lon":-80.14949}},{"facility":"Baptist Heart Specialists_Jacksonville Beach","city":"Jacksonville Beach","state":"Florida","zip":"32250","country":"United States","geoPoint":{"lat":30.29469,"lon":-81.39314}},{"facility":"Est Cst Inst for Rsrch,Jksnvil","city":"Jacksonville","state":"Florida","zip":"32216","country":"United States","geoPoint":{"lat":30.33218,"lon":-81.65565}},{"facility":"Jacksonville Ctr For Clin Res","city":"Jacksonville","state":"Florida","zip":"32216","country":"United States","geoPoint":{"lat":30.33218,"lon":-81.65565}},{"facility":"Clinical Neuroscience Solutions, Inc.","city":"Jacksonville","state":"Florida","zip":"32256","country":"United States","geoPoint":{"lat":30.33218,"lon":-81.65565}},{"facility":"Baptist Heart Specialists_Jacksonville","city":"Jacksonville","state":"Florida","zip":"32258","country":"United States","geoPoint":{"lat":30.33218,"lon":-81.65565}},{"facility":"Reyes Clinical Research, Inc","city":"Miami","state":"Florida","zip":"33175","country":"United States","geoPoint":{"lat":25.77427,"lon":-80.19366}},{"facility":"International Research Associates, LLC_Miami","city":"Miami","state":"Florida","zip":"33183","country":"United States","geoPoint":{"lat":25.77427,"lon":-80.19366}},{"facility":"AdventHealth Diab Inst","city":"Orlando","state":"Florida","zip":"32804","country":"United States","geoPoint":{"lat":28.53834,"lon":-81.37924}},{"facility":"Oviedo Medical Research, LLC","city":"Oviedo","state":"Florida","zip":"32765","country":"United States","geoPoint":{"lat":28.67,"lon":-81.20812}},{"facility":"Misal Khan MD FRCS (ED) P.A.","city":"Panama City","state":"Florida","zip":"32401","country":"United States","geoPoint":{"lat":30.15946,"lon":-85.65983}},{"facility":"East Coast Institute for Research LLC","city":"Saint Augustine","state":"Florida","zip":"32086","country":"United States","geoPoint":{"lat":29.89469,"lon":-81.31452}},{"facility":"Intercoastal Medical Group","city":"Sarasota","state":"Florida","zip":"34239","country":"United States","geoPoint":{"lat":27.33643,"lon":-82.53065}},{"facility":"University of South Florida","city":"Tampa","state":"Florida","zip":"33606","country":"United States","geoPoint":{"lat":27.94752,"lon":-82.45843}},{"facility":"Cardio Partners Clin Res Inst","city":"Wellington","state":"Florida","zip":"33449","country":"United States","geoPoint":{"lat":26.65868,"lon":-80.24144}},{"facility":"Ellipsis Group","city":"Alpharetta","state":"Georgia","zip":"30022","country":"United States","geoPoint":{"lat":34.07538,"lon":-84.29409}},{"facility":"NSC Research, Inc","city":"Johns Creek","state":"Georgia","zip":"30024","country":"United States","geoPoint":{"lat":34.02893,"lon":-84.19858}},{"facility":"Family Health Care Center","city":"Statesboro","state":"Georgia","zip":"30461","country":"United States","geoPoint":{"lat":32.44879,"lon":-81.78317}},{"facility":"Herman Clinical Research LLC","city":"Suwanee","state":"Georgia","zip":"30024","country":"United States","geoPoint":{"lat":34.05149,"lon":-84.0713}},{"facility":"Atlanta Heart Specialists, LLC","city":"Tucker","state":"Georgia","zip":"30084","country":"United States","geoPoint":{"lat":33.85455,"lon":-84.21714}},{"facility":"Northwest Heart Clinical Research, LLC","city":"Arlington Heights","state":"Illinois","zip":"60005","country":"United States","geoPoint":{"lat":42.08836,"lon":-87.98063}},{"facility":"Apex Medical Research Inc","city":"Chicago","state":"Illinois","zip":"60607","country":"United States","geoPoint":{"lat":41.85003,"lon":-87.65005}},{"facility":"Mercy Hospital and Medical Center","city":"Chicago","state":"Illinois","zip":"60616","country":"United States","geoPoint":{"lat":41.85003,"lon":-87.65005}},{"facility":"Macoupin Research Group","city":"Gillespie","state":"Illinois","zip":"62033","country":"United States","geoPoint":{"lat":39.12977,"lon":-89.81954}},{"facility":"Chicago Medical Research LLC","city":"Hazel Crest","state":"Illinois","zip":"60429","country":"United States","geoPoint":{"lat":41.5717,"lon":-87.69449}},{"facility":"Lemah Creek Clinical Research","city":"Oakbrook Terrace","state":"Illinois","zip":"60181","country":"United States","geoPoint":{"lat":41.85003,"lon":-87.96451}},{"facility":"Evanston Premier Hlthcr Res","city":"Skokie","state":"Illinois","zip":"60077","country":"United States","geoPoint":{"lat":42.03336,"lon":-87.73339}},{"facility":"NorthShore Univ Hlth Sys","city":"Skokie","state":"Illinois","zip":"60077","country":"United States","geoPoint":{"lat":42.03336,"lon":-87.73339}},{"facility":"Central Illinois Diabetes and Clinical Research","city":"Springfield","state":"Illinois","zip":"62711","country":"United States","geoPoint":{"lat":39.80172,"lon":-89.64371}},{"facility":"Community Clinical Research_Anderson","city":"Anderson","state":"Indiana","zip":"46011","country":"United States","geoPoint":{"lat":40.10532,"lon":-85.68025}},{"facility":"American Health Network of Indiana, LLC_Avon_0","city":"Avon","state":"Indiana","zip":"46123","country":"United States","geoPoint":{"lat":39.76282,"lon":-86.39972}},{"facility":"MediSphere Medical Research Center, LLC","city":"Evansville","state":"Indiana","zip":"47714","country":"United States","geoPoint":{"lat":37.97476,"lon":-87.55585}},{"facility":"American Health Network of IN LLC_Franklin","city":"Franklin","state":"Indiana","zip":"46131","country":"United States","geoPoint":{"lat":39.48061,"lon":-86.05499}},{"facility":"American Health Network of Indiana, LLC_Greenfield","city":"Greenfield","state":"Indiana","zip":"46140","country":"United States","geoPoint":{"lat":39.78504,"lon":-85.76942}},{"facility":"Franciscan Health Michigan City","city":"Michigan City","state":"Indiana","zip":"46360","country":"United States","geoPoint":{"lat":41.70754,"lon":-86.89503}},{"facility":"American Health Network of IN LLC","city":"Muncie","state":"Indiana","zip":"47304","country":"United States","geoPoint":{"lat":40.19338,"lon":-85.38636}},{"facility":"American Health Network of Indiana, LLC","city":"New Albany","state":"Indiana","zip":"47150","country":"United States","geoPoint":{"lat":38.28562,"lon":-85.82413}},{"facility":"Velocity Clinical_Valparaiso","city":"Valparaiso","state":"Indiana","zip":"46383","country":"United States","geoPoint":{"lat":41.47309,"lon":-87.06114}},{"facility":"University of Iowa Prev Inter Ctr","city":"Iowa City","state":"Iowa","zip":"52242","country":"United States","geoPoint":{"lat":41.66113,"lon":-91.53017}},{"facility":"The University Of Kansas Medical Center - Cray Dia","city":"Kansas City","state":"Kansas","zip":"66160","country":"United States","geoPoint":{"lat":39.11417,"lon":-94.62746}},{"facility":"Midwest Heart & Vasc Spec","city":"Overland Park","state":"Kansas","zip":"66211","country":"United States","geoPoint":{"lat":38.98223,"lon":-94.67079}},{"facility":"Cotton O'Neil Clin Research Ctr","city":"Topeka","state":"Kansas","zip":"66606","country":"United States","geoPoint":{"lat":39.04833,"lon":-95.67804}},{"facility":"Robley Rex VA Medical Center","city":"Louisville","state":"Kentucky","zip":"40206","country":"United States","geoPoint":{"lat":38.25424,"lon":-85.75941}},{"facility":"L-MARC Research Center","city":"Louisville","state":"Kentucky","zip":"40213","country":"United States","geoPoint":{"lat":38.25424,"lon":-85.75941}},{"facility":"Norton Clinical Research Group","city":"Louisville","state":"Kentucky","zip":"40213","country":"United States","geoPoint":{"lat":38.25424,"lon":-85.75941}},{"facility":"Cambridge Medical Trials","city":"Alexandria","state":"Louisiana","zip":"71301","country":"United States","geoPoint":{"lat":31.31129,"lon":-92.44514}},{"facility":"Louisiana Heart Center","city":"Hammond","state":"Louisiana","zip":"70403","country":"United States","geoPoint":{"lat":30.50463,"lon":-90.46293}},{"facility":"Barnum Medical Research, Inc.","city":"Natchitoches","state":"Louisiana","zip":"71457-5881","country":"United States","geoPoint":{"lat":31.76072,"lon":-93.08627}},{"facility":"Louisiana Heart Center_Slidell","city":"Slidell","state":"Louisiana","zip":"70458","country":"United States","geoPoint":{"lat":30.27519,"lon":-89.78117}},{"facility":"Anne Arundel Medical Center","city":"Annapolis","state":"Maryland","zip":"21401","country":"United States","geoPoint":{"lat":38.97845,"lon":-76.49218}},{"facility":"University Of Maryland School of Medicine","city":"Baltimore","state":"Maryland","zip":"21201","country":"United States","geoPoint":{"lat":39.29038,"lon":-76.61219}},{"facility":"Model Clinical Research","city":"Baltimore","state":"Maryland","zip":"21204","country":"United States","geoPoint":{"lat":39.29038,"lon":-76.61219}},{"facility":"Ascension Saint Agnes Heart Ca","city":"Baltimore","state":"Maryland","zip":"21229","country":"United States","geoPoint":{"lat":39.29038,"lon":-76.61219}},{"facility":"MedStar Good Samaritan Hosp","city":"Baltimore","state":"Maryland","zip":"21239","country":"United States","geoPoint":{"lat":39.29038,"lon":-76.61219}},{"facility":"Johns Hopkins University","city":"Columbia","state":"Maryland","zip":"21044","country":"United States","geoPoint":{"lat":39.24038,"lon":-76.83942}},{"facility":"Centennial Medical Group","city":"Elkridge","state":"Maryland","zip":"21075-6437","country":"United States","geoPoint":{"lat":39.21261,"lon":-76.71358}},{"facility":"MD Medical Research","city":"Oxon Hill","state":"Maryland","zip":"20745","country":"United States","geoPoint":{"lat":38.80345,"lon":-76.9897}},{"facility":"Endo And Metab Cons","city":"Rockville","state":"Maryland","zip":"20852","country":"United States","geoPoint":{"lat":39.084,"lon":-77.15276}},{"facility":"Brigham & Women's Hospital","city":"Boston","state":"Massachusetts","zip":"02115-5804","country":"United States","geoPoint":{"lat":42.35843,"lon":-71.05977}},{"facility":"Michigan Medicine","city":"Ann Arbor","state":"Michigan","zip":"48109","country":"United States","geoPoint":{"lat":42.27756,"lon":-83.74088}},{"facility":"ClinSite LLC.","city":"Canton","state":"Michigan","zip":"48187","country":"United States","geoPoint":{"lat":42.30865,"lon":-83.48216}},{"facility":"Henry Ford Health System","city":"Detroit","state":"Michigan","zip":"48202","country":"United States","geoPoint":{"lat":42.33143,"lon":-83.04575}},{"facility":"Aa Mrc Llc","city":"Flint","state":"Michigan","zip":"48504","country":"United States","geoPoint":{"lat":43.01253,"lon":-83.68746}},{"facility":"Trinity Health Michigan Heart","city":"Ypsilanti","state":"Michigan","zip":"48197","country":"United States","geoPoint":{"lat":42.24115,"lon":-83.61299}},{"facility":"Belzoni Clinical Research","city":"Belzoni","state":"Mississippi","zip":"39038","country":"United States","geoPoint":{"lat":33.18429,"lon":-90.48926}},{"facility":"Amicis Centers of Clinical Research","city":"Saint Louis","state":"Missouri","zip":"63128","country":"United States","geoPoint":{"lat":38.62727,"lon":-90.19789}},{"facility":"St Louis Heart & Vascular, P.C.","city":"Saint Louis","state":"Missouri","zip":"63136","country":"United States","geoPoint":{"lat":38.62727,"lon":-90.19789}},{"facility":"Mercury Street Medical Group, PLLC_Butte","city":"Butte","state":"Montana","zip":"59701","country":"United States","geoPoint":{"lat":46.00382,"lon":-112.53474}},{"facility":"VA NEB - Western IA Health Stm","city":"Omaha","state":"Nebraska","zip":"68105","country":"United States","geoPoint":{"lat":41.25626,"lon":-95.94043}},{"facility":"University of NE Med Ctr","city":"Omaha","state":"Nebraska","zip":"68198","country":"United States","geoPoint":{"lat":41.25626,"lon":-95.94043}},{"facility":"Synexus Clinical Research US","city":"Henderson","state":"Nevada","zip":"89052","country":"United States","geoPoint":{"lat":36.0397,"lon":-114.98194}},{"facility":"Palm Research Center Inc-Vegas","city":"Las Vegas","state":"Nevada","zip":"89128","country":"United States","geoPoint":{"lat":36.17497,"lon":-115.13722}},{"facility":"Southern NH Diabetes and Endo_Nashua","city":"Nashua","state":"New Hampshire","zip":"03060","country":"United States","geoPoint":{"lat":42.76537,"lon":-71.46757}},{"facility":"UniMed Center","city":"East Brunswick","state":"New Jersey","zip":"08816","country":"United States","geoPoint":{"lat":40.42788,"lon":-74.41598}},{"facility":"Amici Clinical Research LLC","city":"Raritan","state":"New Jersey","zip":"08869","country":"United States","geoPoint":{"lat":40.56955,"lon":-74.63294}},{"facility":"Holy Name Medical Center","city":"Teaneck","state":"New Jersey","zip":"07666","country":"United States","geoPoint":{"lat":40.8976,"lon":-74.01597}},{"facility":"Albany Medical College - Endo","city":"Albany","state":"New York","zip":"12203","country":"United States","geoPoint":{"lat":42.65258,"lon":-73.75623}},{"facility":"Dr. Alexander Perkelvald","city":"Brooklyn","state":"New York","zip":"11229","country":"United States","geoPoint":{"lat":40.6501,"lon":-73.94958}},{"facility":"Northwell Health-Division of Endocrinology Diabetes and Meta","city":"Great Neck","state":"New York","zip":"11021","country":"United States","geoPoint":{"lat":40.80066,"lon":-73.72846}},{"facility":"Long Island Cardiovascular Consultants PC","city":"Lake Success","state":"New York","zip":"11042","country":"United States","geoPoint":{"lat":40.77066,"lon":-73.71763}},{"facility":"NYU Grossman School of Med","city":"New York","state":"New York","zip":"10016","country":"United States","geoPoint":{"lat":40.71427,"lon":-74.00597}},{"facility":"NYU School of Medicine","city":"New York","state":"New York","zip":"10016","country":"United States","geoPoint":{"lat":40.71427,"lon":-74.00597}},{"facility":"Comprehensive Weight Ctrl Prog","city":"New York","state":"New York","zip":"10021","country":"United States","geoPoint":{"lat":40.71427,"lon":-74.00597}},{"facility":"Saratoga Clinical Research","city":"Saratoga Springs","state":"New York","zip":"12866","country":"United States","geoPoint":{"lat":43.08313,"lon":-73.78457}},{"facility":"Southgate Medical Group, LLP","city":"West Seneca","state":"New York","zip":"14224","country":"United States","geoPoint":{"lat":42.85006,"lon":-78.79975}},{"facility":"Great Lakes Medical Research","city":"Westfield","state":"New York","zip":"14787","country":"United States","geoPoint":{"lat":42.32228,"lon":-79.5781}},{"facility":"UNC Eastowne Clinical Trials Unit","city":"Chapel Hill","state":"North Carolina","zip":"27514","country":"United States","geoPoint":{"lat":35.9132,"lon":-79.05584}},{"facility":"OnSite Clinical Solutions, LLC","city":"Charlotte","state":"North Carolina","zip":"28226","country":"United States","geoPoint":{"lat":35.22709,"lon":-80.84313}},{"facility":"Duke University_Durham","city":"Durham","state":"North Carolina","zip":"27705","country":"United States","geoPoint":{"lat":35.99403,"lon":-78.89862}},{"facility":"Durham VA Medical Center - Duke University","city":"Durham","state":"North Carolina","zip":"27705","country":"United States","geoPoint":{"lat":35.99403,"lon":-78.89862}},{"facility":"WakeMed Garner Hlthplx","city":"Garner","state":"North Carolina","zip":"27529","country":"United States","geoPoint":{"lat":35.71126,"lon":-78.61417}},{"facility":"Physician's East Endocrinology","city":"Greenville","state":"North Carolina","zip":"27834","country":"United States","geoPoint":{"lat":35.61266,"lon":-77.36635}},{"facility":"Duke University - S.E Cardio","city":"Lumberton","state":"North Carolina","zip":"28358","country":"United States","geoPoint":{"lat":34.61834,"lon":-79.01045}},{"facility":"Burke Primary Care","city":"Morganton","state":"North Carolina","zip":"28655","country":"United States","geoPoint":{"lat":35.74541,"lon":-81.68482}},{"facility":"Accellacare","city":"Wilmington","state":"North Carolina","zip":"28401","country":"United States","geoPoint":{"lat":34.22573,"lon":-77.94471}},{"facility":"PMG Research of Winston-Salem","city":"Winston-Salem","state":"North Carolina","zip":"27103","country":"United States","geoPoint":{"lat":36.09986,"lon":-80.24422}},{"facility":"The Carl & Edyth Lindner Center","city":"Cincinnati","state":"Ohio","zip":"45219","country":"United States","geoPoint":{"lat":39.12713,"lon":-84.51435}},{"facility":"Cleveland Clinic_Cleveland","city":"Cleveland","state":"Ohio","zip":"44195","country":"United States","geoPoint":{"lat":41.4995,"lon":-81.69541}},{"facility":"Providence Health Partners Ctr","city":"Dayton","state":"Ohio","zip":"45439","country":"United States","geoPoint":{"lat":39.75895,"lon":-84.19161}},{"facility":"Advanced Med Res Maumee","city":"Maumee","state":"Ohio","zip":"43537","country":"United States","geoPoint":{"lat":41.56283,"lon":-83.65382}},{"facility":"New Venture Medical Research","city":"Wadsworth","state":"Ohio","zip":"44281","country":"United States","geoPoint":{"lat":41.02561,"lon":-81.72985}},{"facility":"Corvallis Clinic PC Clinical Research Department","city":"Corvallis","state":"Oregon","zip":"97330-3737","country":"United States","geoPoint":{"lat":44.56457,"lon":-123.26204}},{"facility":"Oregon Health & Science Uni","city":"Portland","state":"Oregon","zip":"97239","country":"United States","geoPoint":{"lat":45.52345,"lon":-122.67621}},{"facility":"Geisinger Clinic","city":"Danville","state":"Pennsylvania","zip":"17822-2111","country":"United States","geoPoint":{"lat":40.96342,"lon":-76.61273}},{"facility":"Doylestown Hospital Pharmacy","city":"Doylestown","state":"Pennsylvania","zip":"18901","country":"United States","geoPoint":{"lat":40.31011,"lon":-75.12989}},{"facility":"Harleysville Medical Associates","city":"Harleysville","state":"Pennsylvania","zip":"19438","country":"United States","geoPoint":{"lat":40.27955,"lon":-75.38712}},{"facility":"Richard M Kastelic MD Assoc","city":"Johnstown","state":"Pennsylvania","zip":"15905","country":"United States","geoPoint":{"lat":40.32674,"lon":-78.92197}},{"facility":"Hospital of the Univ PA","city":"Philadelphia","state":"Pennsylvania","zip":"19104-4206","country":"United States","geoPoint":{"lat":39.95233,"lon":-75.16379}},{"facility":"Tristar Clin Investigations, PC","city":"Philadelphia","state":"Pennsylvania","zip":"19114","country":"United States","geoPoint":{"lat":39.95233,"lon":-75.16379}},{"facility":"Parkside Family Medicine","city":"Philadelphia","state":"Pennsylvania","zip":"19144","country":"United States","geoPoint":{"lat":39.95233,"lon":-75.16379}},{"facility":"Preferred Primary Care Physicians Inc.","city":"Pittsburgh","state":"Pennsylvania","zip":"15243","country":"United States","geoPoint":{"lat":40.44062,"lon":-79.99589}},{"facility":"Internal Medicine Associates of Anderson","city":"Anderson","state":"South Carolina","zip":"29621","country":"United States","geoPoint":{"lat":34.50344,"lon":-82.65013}},{"facility":"Synexus Clin Res US-Anderson","city":"Anderson","state":"South Carolina","zip":"29621","country":"United States","geoPoint":{"lat":34.50344,"lon":-82.65013}},{"facility":"Medical Uni of SC Charleston","city":"Charleston","state":"South Carolina","zip":"29425","country":"United States","geoPoint":{"lat":32.77657,"lon":-79.93092}},{"facility":"Palmetto Clinical Research","city":"Greenville","state":"South Carolina","zip":"29615","country":"United States","geoPoint":{"lat":34.85262,"lon":-82.39401}},{"facility":"Accellacare US Inc._SC","city":"Mount Pleasant","state":"South Carolina","zip":"29464","country":"United States","geoPoint":{"lat":32.79407,"lon":-79.86259}},{"facility":"Holston Medical Group Pc","city":"Bristol","state":"Tennessee","zip":"37620-7352","country":"United States","geoPoint":{"lat":36.59511,"lon":-82.18874}},{"facility":"The Stern Cardiovascular Group","city":"Germantown","state":"Tennessee","zip":"38138","country":"United States","geoPoint":{"lat":35.08676,"lon":-89.81009}},{"facility":"Holston Medical Group","city":"Kingsport","state":"Tennessee","zip":"37660","country":"United States","geoPoint":{"lat":36.54843,"lon":-82.56182}},{"facility":"Clinical Neuroscience Solutions","city":"Memphis","state":"Tennessee","zip":"38119","country":"United States","geoPoint":{"lat":35.14953,"lon":-90.04898}},{"facility":"InvestiClin Research","city":"Nashville","state":"Tennessee","zip":"37203","country":"United States","geoPoint":{"lat":36.16589,"lon":-86.78444}},{"facility":"MidState Endocrine Associates","city":"Nashville","state":"Tennessee","zip":"37203","country":"United States","geoPoint":{"lat":36.16589,"lon":-86.78444}},{"facility":"Trinity Clinical Research LLC","city":"Tullahoma","state":"Tennessee","zip":"37388","country":"United States","geoPoint":{"lat":35.36202,"lon":-86.20943}},{"facility":"Amarillo Med Spec LLP","city":"Amarillo","state":"Texas","zip":"79106","country":"United States","geoPoint":{"lat":35.222,"lon":-101.8313}},{"facility":"Arlington Family Res. Ctr Inc","city":"Arlington","state":"Texas","zip":"76012-4637","country":"United States","geoPoint":{"lat":32.73569,"lon":-97.10807}},{"facility":"Texas Diab & Endo, P.A.","city":"Austin","state":"Texas","zip":"78749","country":"United States","geoPoint":{"lat":30.26715,"lon":-97.74306}},{"facility":"UT Health University of Texas","city":"Bellaire","state":"Texas","zip":"77401","country":"United States","geoPoint":{"lat":29.70579,"lon":-95.45883}},{"facility":"Thyroid, Endocrinology, and Diabetes, PA","city":"Dallas","state":"Texas","zip":"75208","country":"United States","geoPoint":{"lat":32.78306,"lon":-96.80667}},{"facility":"Texas Health Physicians Group_Dallas","city":"Dallas","state":"Texas","zip":"75231","country":"United States","geoPoint":{"lat":32.78306,"lon":-96.80667}},{"facility":"UT Southwestern Med Cntr","city":"Dallas","state":"Texas","zip":"75390-9302","country":"United States","geoPoint":{"lat":32.78306,"lon":-96.80667}},{"facility":"Northwest Houston Cardiology, P.A.","city":"Houston","state":"Texas","zip":"77070","country":"United States","geoPoint":{"lat":29.76328,"lon":-95.36327}},{"facility":"PlanIt Research, PLLC","city":"Houston","state":"Texas","zip":"77079","country":"United States","geoPoint":{"lat":29.76328,"lon":-95.36327}},{"facility":"DCOL Ctr for Clin Res","city":"Longview","state":"Texas","zip":"75605","country":"United States","geoPoint":{"lat":32.5007,"lon":-94.74049}},{"facility":"Research Institute Of Dallas","city":"Plano","state":"Texas","zip":"75093","country":"United States","geoPoint":{"lat":33.01984,"lon":-96.69889}},{"facility":"Quality Research Inc","city":"San Antonio","state":"Texas","zip":"78209","country":"United States","geoPoint":{"lat":29.42412,"lon":-98.49363}},{"facility":"Sun Research Institute","city":"San Antonio","state":"Texas","zip":"78215","country":"United States","geoPoint":{"lat":29.42412,"lon":-98.49363}},{"facility":"San Antonio Prem Int Med","city":"San Antonio","state":"Texas","zip":"78220","country":"United States","geoPoint":{"lat":29.42412,"lon":-98.49363}},{"facility":"Physician PrimeCare Research Institute, PLLC dba","city":"San Antonio","state":"Texas","zip":"78228-6205","country":"United States","geoPoint":{"lat":29.42412,"lon":-98.49363}},{"facility":"Audie L. Murphy Va Hospital, Stvhcs","city":"San Antonio","state":"Texas","zip":"78229","country":"United States","geoPoint":{"lat":29.42412,"lon":-98.49363}},{"facility":"VIP Trials","city":"San Antonio","state":"Texas","zip":"78230","country":"United States","geoPoint":{"lat":29.42412,"lon":-98.49363}},{"facility":"Simcare Medical Research, LLC","city":"Sugar Land","state":"Texas","zip":"77478","country":"United States","geoPoint":{"lat":29.61968,"lon":-95.63495}},{"facility":"Houston Center for Clinical Research LLC","city":"Sugar Land","state":"Texas","zip":"77479","country":"United States","geoPoint":{"lat":29.61968,"lon":-95.63495}},{"facility":"Christus Heart and Vascular Institute","city":"Tyler","state":"Texas","zip":"75701","country":"United States","geoPoint":{"lat":32.35126,"lon":-95.30106}},{"facility":"Hillcrest Family Health Center","city":"Waco","state":"Texas","zip":"76708","country":"United States","geoPoint":{"lat":31.54933,"lon":-97.14667}},{"facility":"Wade Family Medicine","city":"Bountiful","state":"Utah","zip":"84010","country":"United States","geoPoint":{"lat":40.88939,"lon":-111.88077}},{"facility":"Kalo Clinical Research","city":"West Valley City","state":"Utah","zip":"84120","country":"United States","geoPoint":{"lat":40.69161,"lon":-112.00105}},{"facility":"U. of Vermont Med Ctr Burlington","city":"South Burlington","state":"Vermont","zip":"05403-7205","country":"United States","geoPoint":{"lat":44.46699,"lon":-73.17096}},{"facility":"Inova Cardiology - Mt. Vernon","city":"Alexandria","state":"Virginia","zip":"23306","country":"United States","geoPoint":{"lat":38.80484,"lon":-77.04692}},{"facility":"Cardiology Consultants of Danville Inc.","city":"Danville","state":"Virginia","zip":"24541","country":"United States","geoPoint":{"lat":36.58597,"lon":-79.39502}},{"facility":"Inova Cardiology-Fairfax","city":"Fairfax","state":"Virginia","zip":"22031","country":"United States","geoPoint":{"lat":38.84622,"lon":-77.30637}},{"facility":"Virginia Research Center","city":"Midlothian","state":"Virginia","zip":"23114","country":"United States","geoPoint":{"lat":37.50598,"lon":-77.64916}},{"facility":"York Clinical Research LLC","city":"Norfolk","state":"Virginia","zip":"23504","country":"United States","geoPoint":{"lat":36.84681,"lon":-76.28522}},{"facility":"Strelitz Diabetes Of Eastern V.","city":"Norfolk","state":"Virginia","zip":"23510","country":"United States","geoPoint":{"lat":36.84681,"lon":-76.28522}},{"facility":"Dominion Medical Associates","city":"Richmond","state":"Virginia","zip":"23219","country":"United States","geoPoint":{"lat":37.55376,"lon":-77.46026}},{"facility":"Clinical Research Partners, LLC","city":"Richmond","state":"Virginia","zip":"23226","country":"United States","geoPoint":{"lat":37.55376,"lon":-77.46026}},{"facility":"National Clin Res Inc.","city":"Richmond","state":"Virginia","zip":"23294","country":"United States","geoPoint":{"lat":37.55376,"lon":-77.46026}},{"facility":"VA Medical Center_Salem","city":"Salem","state":"Virginia","zip":"24153-6404","country":"United States","geoPoint":{"lat":37.29347,"lon":-80.05476}},{"facility":"Bayview Physician Services","city":"Virginia Beach","state":"Virginia","zip":"23454","country":"United States","geoPoint":{"lat":36.85293,"lon":-75.97799}},{"facility":"Sentara Medical Group_Norfolk","city":"Virginia Beach","state":"Virginia","zip":"23454","country":"United States","geoPoint":{"lat":36.85293,"lon":-75.97799}},{"facility":"Selma Medical Associates","city":"Winchester","state":"Virginia","zip":"22601-3834","country":"United States","geoPoint":{"lat":39.18566,"lon":-78.16333}},{"facility":"Amherst Family Practice P.C.","city":"Winchester","state":"Virginia","zip":"22601","country":"United States","geoPoint":{"lat":39.18566,"lon":-78.16333}},{"facility":"Capital Clin Res Ctr,LLC","city":"Olympia","state":"Washington","zip":"98502","country":"United States","geoPoint":{"lat":47.03787,"lon":-122.9007}},{"facility":"Wenatchee Valley Hospital and Clinics","city":"Wenatchee","state":"Washington","zip":"98801-2028","country":"United States","geoPoint":{"lat":47.42346,"lon":-120.31035}},{"facility":"St. Vincent Hosp-Prevea Health","city":"Green Bay","state":"Wisconsin","zip":"54303","country":"United States","geoPoint":{"lat":44.51916,"lon":-88.01983}},{"facility":"Clinical Inv Spec, Inc.Kenosha","city":"Kenosha","state":"Wisconsin","zip":"53144","country":"United States","geoPoint":{"lat":42.58474,"lon":-87.82119}},{"facility":"Aspirus Research Institute","city":"Wausau","state":"Wisconsin","zip":"54401","country":"United States","geoPoint":{"lat":44.95914,"lon":-89.63012}},{"facility":"Cardiology department CHU Mustapha Pacha. Algiers","city":"Algiers","zip":"16000","country":"Algeria","geoPoint":{"lat":36.73225,"lon":3.08746}},{"facility":"Centre National De la Médecine du Sport","city":"Algiers","zip":"16000","country":"Algeria","geoPoint":{"lat":36.73225,"lon":3.08746}},{"facility":"CHU Issad Hassani, Beni Messous, Cardiology department","city":"Algiers","zip":"16000","country":"Algeria","geoPoint":{"lat":36.73225,"lon":3.08746}},{"facility":"CHU - Hussein dey Cardiology department Nafissa Hamoud","city":"Algiers","zip":"16040","country":"Algeria","geoPoint":{"lat":36.73225,"lon":3.08746}},{"facility":"Cardiology department, Benaouda Benzerdjeb CHU Oran","city":"Oran","zip":"31000","country":"Algeria","geoPoint":{"lat":35.69906,"lon":-0.63588}},{"facility":"Centro de Investigación y Prevención Cardiovascular","city":"Caba","zip":"C1061AAS.","country":"Argentina","geoPoint":{"lat":-34.61315,"lon":-58.37723}},{"facility":"Fundacion Favaloro","city":"Caba","zip":"C1093AAS","country":"Argentina","geoPoint":{"lat":-34.61315,"lon":-58.37723}},{"facility":"Sanatorio Güemes","city":"Caba","zip":"C1180AAX","country":"Argentina","geoPoint":{"lat":-34.61315,"lon":-58.37723}},{"facility":"Centro Médico MEDEOS","city":"Caba","zip":"C1426EGQ","country":"Argentina","geoPoint":{"lat":-34.61315,"lon":-58.37723}},{"facility":"Glenny Corp. S.A","city":"Caba","zip":"C1430CKE","country":"Argentina","geoPoint":{"lat":-34.61315,"lon":-58.37723}},{"facility":"Clínica Adventista Belgrano","city":"Caba","zip":"C1430EGF","country":"Argentina","geoPoint":{"lat":-34.61315,"lon":-58.37723}},{"facility":"Medical Center of Diabetes and Nutrition","city":"Caba","zip":"C1440AAD","country":"Argentina","geoPoint":{"lat":-34.61315,"lon":-58.37723}},{"facility":"Instituto de Cardiología de Corrientes","city":"Corrientes","zip":"W3400AMZ","country":"Argentina","geoPoint":{"lat":-27.4806,"lon":-58.8341}},{"facility":"Instituto Médico DAMIC","city":"Córdoba","zip":"X5003DCE","country":"Argentina","geoPoint":{"lat":-31.4135,"lon":-64.18105}},{"facility":"Sanatorio Plaza","city":"Rosario","zip":"S2000","country":"Argentina","geoPoint":{"lat":-32.94682,"lon":-60.63932}},{"facility":"The Canberra Hospital_Garran","city":"Garran","state":"Australian Capital Territory","zip":"2605","country":"Australia","geoPoint":{"lat":-35.34206,"lon":149.10846}},{"facility":"Gosford Hospital","city":"Gosford","state":"New South Wales","zip":"2250","country":"Australia","geoPoint":{"lat":-33.4244,"lon":151.34399}},{"facility":"Liverpool Hospital","city":"Liverpool","state":"New South Wales","zip":"2170","country":"Australia","geoPoint":{"lat":-33.90011,"lon":150.93328}},{"facility":"Hunter Diabetes Centre","city":"Merewether","state":"New South Wales","zip":"2291","country":"Australia","geoPoint":{"lat":-32.94801,"lon":151.74325}},{"facility":"Advara HeartCare","city":"Milton","state":"Queensland","zip":"4064","country":"Australia","geoPoint":{"lat":-35.31644,"lon":150.4361}},{"facility":"Core Research Centre","city":"Milton","state":"Queensland","zip":"4064","country":"Australia","geoPoint":{"lat":-35.31644,"lon":150.4361}},{"facility":"Cholesterol Care Australia","city":"Wollongabba","state":"Queensland","zip":"4102","country":"Australia"},{"facility":"Royal Adelaide Hospital Cardiovascular Clinical Trials","city":"Adelaide","state":"South Australia","zip":"5000","country":"Australia","geoPoint":{"lat":-34.92866,"lon":138.59863}},{"facility":"Lyell McEwin Hospital","city":"Elizabeth Vale","state":"South Australia","zip":"5112","country":"Australia","geoPoint":{"lat":-34.74857,"lon":138.66819}},{"facility":"Monash Cardiovascular Research Centre","city":"Clayton","state":"Victoria","zip":"3168","country":"Australia","geoPoint":{"lat":-37.91667,"lon":145.11667}},{"facility":"Geelong Cardiology Research Unit","city":"Geelong","state":"Victoria","zip":"3220","country":"Australia","geoPoint":{"lat":-38.14711,"lon":144.36069}},{"facility":"Austin Health, Metabolic Disorders Centre","city":"Heidelberg Heights","state":"Victoria","zip":"3081","country":"Australia","geoPoint":{"lat":-37.74313,"lon":145.05695}},{"facility":"Baker IDI Heart and Diabetes Institute","city":"Melbourne","state":"Victoria","zip":"3004","country":"Australia","geoPoint":{"lat":-37.814,"lon":144.96332}},{"facility":"HeartCare WA (Joondalup)","city":"Joondalup","state":"Western Australia","zip":"6027","country":"Australia","geoPoint":{"lat":-31.74445,"lon":115.76835}},{"facility":"Universitätsklinik für Innere Medizin","city":"Graz","zip":"8036","country":"Austria","geoPoint":{"lat":47.06667,"lon":15.45}},{"facility":"Univ.-Klinik für Innere Medizin I","city":"Innsbruck","zip":"6020","country":"Austria","geoPoint":{"lat":47.26266,"lon":11.39454}},{"facility":"LKH Salzburg Universitätsklinikum","city":"Salzburg","zip":"5020","country":"Austria","geoPoint":{"lat":47.79941,"lon":13.04399}},{"facility":"Klinik Landstraße","city":"Wien","zip":"1030","country":"Austria","geoPoint":{"lat":48.20849,"lon":16.37208}},{"facility":"Ordination Dr. Hanusch","city":"Wien","zip":"1060","country":"Austria","geoPoint":{"lat":48.20849,"lon":16.37208}},{"facility":"Universitätsklinikum AKH Wien","city":"Wien","zip":"1090","country":"Austria","geoPoint":{"lat":48.20849,"lon":16.37208}},{"facility":"Klinik Hietzing","city":"Wien","zip":"1130","country":"Austria","geoPoint":{"lat":48.20849,"lon":16.37208}},{"facility":"Algemeen Stedelijk Ziekenhuis - Aalst - Interventional Cardiology","city":"Aalst","zip":"9300","country":"Belgium","geoPoint":{"lat":50.93604,"lon":4.0355}},{"facility":"Imeldaziekenhuis - Bonheiden - Department of Endocrinology","city":"Bonheiden","zip":"2820","country":"Belgium","geoPoint":{"lat":51.02261,"lon":4.54714}},{"facility":"CUB Hôpital Erasme_Brussels_1","city":"Bruxelles","zip":"1070","country":"Belgium","geoPoint":{"lat":50.85045,"lon":4.34878}},{"facility":"Ziekenhuis Oost-Limburg AV - Cardiology","city":"Genk","zip":"3600","country":"Belgium","geoPoint":{"lat":50.965,"lon":5.50082}},{"facility":"UZ Gent - Cardiology","city":"Gent","zip":"9000","country":"Belgium","geoPoint":{"lat":51.05,"lon":3.71667}},{"facility":"UZ Gent_Gent_4","city":"Gent","zip":"9000","country":"Belgium","geoPoint":{"lat":51.05,"lon":3.71667}},{"facility":"Jessa Ziekenhuis - Hasselt - Cardiology","city":"Hasselt","zip":"3500","country":"Belgium","geoPoint":{"lat":50.93106,"lon":5.33781}},{"facility":"Cárdio Pulmonar da Bahia","city":"Salvador","state":"Bahia","zip":"40170130","country":"Brazil","geoPoint":{"lat":-12.97111,"lon":-38.51083}},{"facility":"Hospital do Coração do Brasil","city":"Brasilia","state":"Distrito Federal","zip":"70390-700","country":"Brazil","geoPoint":{"lat":-15.77972,"lon":-47.92972}},{"facility":"Eurolatino Medical Research Center","city":"Uberlândia","state":"Minas Gerais","zip":"38400-500","country":"Brazil","geoPoint":{"lat":-18.91861,"lon":-48.27722}},{"facility":"Cline Research Center","city":"Curitiba","state":"Parana","zip":"80030-480","country":"Brazil","geoPoint":{"lat":-25.42778,"lon":-49.27306}},{"facility":"Núcleo de Pesquisa Clínica S/S","city":"Curitiba","state":"Parana","zip":"80730-150","country":"Brazil","geoPoint":{"lat":-25.42778,"lon":-49.27306}},{"facility":"Hospital São Vicente de Paulo","city":"Passo Fundo","state":"Rio Grande Do Sul","zip":"99010-080","country":"Brazil","geoPoint":{"lat":-28.26278,"lon":-52.40667}},{"facility":"AngioCor Blumenau","city":"Blumenau","state":"Santa Catarina","zip":"89020-430","country":"Brazil","geoPoint":{"lat":-26.91944,"lon":-49.06611}},{"facility":"Instituto de Pesquisa Clínica de Campinas","city":"Campinas","state":"Sao Paulo","zip":"13060-080","country":"Brazil","geoPoint":{"lat":-22.90556,"lon":-47.06083}},{"facility":"CIP Centro Integrado de Pesquisas do Hospital de Base","city":"São José do Rio Preto","state":"Sao Paulo","zip":"15090-000","country":"Brazil","geoPoint":{"lat":-20.81972,"lon":-49.37944}},{"facility":"CPQuali Pesquisa Clínica Ltda","city":"São Paulo","state":"Sao Paulo","zip":"01228-000","country":"Brazil","geoPoint":{"lat":-23.5475,"lon":-46.63611}},{"facility":"CPCLIN - Centro de Pesquisas Clínicas","city":"São Paulo","state":"Sao Paulo","zip":"01228-200","country":"Brazil","geoPoint":{"lat":-23.5475,"lon":-46.63611}},{"facility":"Hospital do Coração Associação do Sanatório Sírio","city":"São Paulo","state":"Sao Paulo","zip":"04005-000","country":"Brazil","geoPoint":{"lat":-23.5475,"lon":-46.63611}},{"facility":"Instituto Dante Pazzanese de Cardiologia","city":"São Paulo","state":"Sao Paulo","zip":"04012-909","country":"Brazil","geoPoint":{"lat":-23.5475,"lon":-46.63611}},{"facility":"Departamento de Gastroenterologia - HCFMUSP","city":"São Paulo","state":"Sao Paulo","zip":"05403-000","country":"Brazil","geoPoint":{"lat":-23.5475,"lon":-46.63611}},{"facility":"Instituto do Coração - HCFMUSP","city":"São Paulo","state":"Sao Paulo","zip":"05403-000","country":"Brazil","geoPoint":{"lat":-23.5475,"lon":-46.63611}},{"facility":"Instituto Brasil de Pesquisa Clinica","city":"Rio de Janeiro","zip":"20241-180","country":"Brazil","geoPoint":{"lat":-22.90278,"lon":-43.2075}},{"facility":"Medical Centre Diamedical-2013","city":"Dimitrovgrad","zip":"6400","country":"Bulgaria","geoPoint":{"lat":42.05,"lon":25.6}},{"facility":"MHAT Lukovit, Department of Internal Diseases","city":"Lukovit","zip":"5770","country":"Bulgaria","geoPoint":{"lat":43.2,"lon":24.16667}},{"facility":"\"MHAT - Pazardzhik\" AD, Second Department of Internal Diseas","city":"Pazardzhik","zip":"4400","country":"Bulgaria","geoPoint":{"lat":42.2,"lon":24.33333}},{"facility":"\"UMBAL-Dr. Georgi Stranski\" EAD, First Clinic of cardiology","city":"Pleven","zip":"5800","country":"Bulgaria","geoPoint":{"lat":43.41667,"lon":24.61667}},{"facility":"\"UMHAT \"Sveti Georgi\" EAD","city":"Plovdiv","zip":"4002","country":"Bulgaria","geoPoint":{"lat":42.15,"lon":24.75}},{"facility":"Medical centre Razgrad OOD","city":"Razgrad","zip":"7200","country":"Bulgaria","geoPoint":{"lat":43.53333,"lon":26.51667}},{"facility":"\"MHAT \"NCH\" EAD, Cardiology clinic, Noninvasive diag. dep.","city":"Sofia","zip":"1309","country":"Bulgaria","geoPoint":{"lat":42.69751,"lon":23.32415}},{"facility":"\"MHAT \"NCH\" EAD, Clinic of Cardiology, Depart. of Cardiology","city":"Sofia","zip":"1309","country":"Bulgaria","geoPoint":{"lat":42.69751,"lon":23.32415}},{"facility":"\"Acibadem City Clinic MHAT Tokuda\" EAD,Cardiology department","city":"Sofia","zip":"1407","country":"Bulgaria","geoPoint":{"lat":42.69751,"lon":23.32415}},{"facility":"\"Acibadem City Clinic UMHAT\" EOOD, Sofia, Cardiology clinic","city":"Sofia","zip":"1407","country":"Bulgaria","geoPoint":{"lat":42.69751,"lon":23.32415}},{"facility":"\"Diagnostic - Consulting Center Aleksandrovska\" EOOD","city":"Sofia","zip":"1431","country":"Bulgaria","geoPoint":{"lat":42.69751,"lon":23.32415}},{"facility":"\"UMHAT \"Aleksandrovska\" EAD, Cardiology clinic","city":"Sofia","zip":"1431","country":"Bulgaria","geoPoint":{"lat":42.69751,"lon":23.32415}},{"facility":"\"UMHAT \"Tsaritsa Yoanna-ISUL\"\" EAD, Clinic of Cardiology","city":"Sofia","zip":"1527","country":"Bulgaria","geoPoint":{"lat":42.69751,"lon":23.32415}},{"facility":"\"UMHATEM N.I. Pirogov\" EAD","city":"Sofia","zip":"1606","country":"Bulgaria","geoPoint":{"lat":42.69751,"lon":23.32415}},{"facility":"\"UMHAT \"Sveta Anna\" Sofia\" AD, Clinic of Cardiology","city":"Sofia","zip":"1750","country":"Bulgaria","geoPoint":{"lat":42.69751,"lon":23.32415}},{"facility":"\"Diagnostic - Consulting Center \"Ekvita\"\" EOOD","city":"Varna","zip":"9002","country":"Bulgaria","geoPoint":{"lat":43.21667,"lon":27.91667}},{"facility":"University of Calgary","city":"Calgary","state":"Alberta","zip":"T2T 5C7","country":"Canada","geoPoint":{"lat":51.05011,"lon":-114.08529}},{"facility":"C-endo Diab Endo Clin Calgery","city":"Calgary","state":"Alberta","zip":"T2V 4J2","country":"Canada","geoPoint":{"lat":51.05011,"lon":-114.08529}},{"facility":"Synergy Wellness Clinic","city":"Sherwood Park","state":"Alberta","zip":"T8H 0N2","country":"Canada","geoPoint":{"lat":53.51684,"lon":-113.3187}},{"facility":"G.A. Research Associates Ltd.","city":"Moncton","state":"New Brunswick","zip":"E1G 1A7","country":"Canada","geoPoint":{"lat":46.09454,"lon":-64.7965}},{"facility":"Brampton Research Associates","city":"Brampton","state":"Ontario","zip":"L6Z 4N5","country":"Canada","geoPoint":{"lat":43.68341,"lon":-79.76633}},{"facility":"Manna Research Inc. (Burlington N)","city":"Burlington","state":"Ontario","zip":"L7M 4Y1","country":"Canada","geoPoint":{"lat":43.38621,"lon":-79.83713}},{"facility":"Cambridge Cardiac Care Centre","city":"Cambridge","state":"Ontario","zip":"N1R 6V6","country":"Canada","geoPoint":{"lat":43.3601,"lon":-80.31269}},{"facility":"St. Joseph's Health Care","city":"London","state":"Ontario","zip":"N6A 4V2","country":"Canada","geoPoint":{"lat":42.98339,"lon":-81.23304}},{"facility":"Manna Research Ottawa","city":"Nepean","state":"Ontario","zip":"K2J 4A7","country":"Canada","geoPoint":{"lat":45.2775,"lon":-75.77306}},{"facility":"North York Diagn & Cardiac Ctr","city":"North York","state":"Ontario","zip":"M6B 3H7","country":"Canada","geoPoint":{"lat":43.76681,"lon":-79.4163}},{"facility":"Dr. James Cha","city":"Oshawa","state":"Ontario","zip":"L1J 2K1","country":"Canada","geoPoint":{"lat":43.90012,"lon":-78.84957}},{"facility":"Kawartha Cardiology Clinical Trials","city":"Peterborough","state":"Ontario","zip":"K9J 0B2","country":"Canada","geoPoint":{"lat":44.30012,"lon":-78.31623}},{"facility":"Medical Associates of Port Perry","city":"Port Perry","state":"Ontario","zip":"L9L 1L9","country":"Canada","geoPoint":{"lat":44.10676,"lon":-78.94441}},{"facility":"HHI Research Inc.","city":"Scarborough","state":"Ontario","zip":"M1B 4Z8","country":"Canada","geoPoint":{"lat":43.77223,"lon":-79.25666}},{"facility":"Manna Research Stoney Creek","city":"Stoney Creek","state":"Ontario","zip":"L8J 3W2","country":"Canada"},{"facility":"The Port Arthur Clinic Research Program","city":"Thunder Bay","state":"Ontario","zip":"P7A 4V7","country":"Canada","geoPoint":{"lat":48.38202,"lon":-89.25018}},{"facility":"Manna Research Inc._Toronto","city":"Toronto","state":"Ontario","zip":"M9W 4L6","country":"Canada","geoPoint":{"lat":43.70011,"lon":-79.4163}},{"facility":"ViaCar Recherche Clinique Inc","city":"Brossard","state":"Quebec","zip":"J4Z 2K9","country":"Canada","geoPoint":{"lat":45.45008,"lon":-73.46583}},{"facility":"Manna Research Quebec","city":"Levis","state":"Quebec","zip":"G6W 0M5","country":"Canada","geoPoint":{"lat":46.80326,"lon":-71.17793}},{"facility":"Manna Research Mirabel","city":"Mirabel","state":"Quebec","zip":"J7J 2K8","country":"Canada","geoPoint":{"lat":45.65008,"lon":-74.08251}},{"facility":"Clinique Sante Cardio MC","city":"Montreal","state":"Quebec","zip":"H1T 3Y7","country":"Canada","geoPoint":{"lat":45.50884,"lon":-73.58781}},{"facility":"IRCM","city":"Montreal","state":"Quebec","zip":"H2W 1R7","country":"Canada","geoPoint":{"lat":45.50884,"lon":-73.58781}},{"facility":"Applied Med Inf Res","city":"Montreal","state":"Quebec","zip":"H4A 3T2","country":"Canada","geoPoint":{"lat":45.50884,"lon":-73.58781}},{"facility":"Centricity Res Pointe-Claire","city":"Pointe-Claire","state":"Quebec","zip":"H9R 4S3","country":"Canada","geoPoint":{"lat":45.44868,"lon":-73.81669}},{"facility":"Clin des Mal Lipid de Quebec","city":"Québec","state":"Quebec","zip":"G1V 4W2","country":"Canada","geoPoint":{"lat":46.81228,"lon":-71.21454}},{"facility":"Centre de recherché du CHUS","city":"Sherbrooke","state":"Quebec","zip":"J1H 5N4","country":"Canada","geoPoint":{"lat":45.40008,"lon":-71.89908}},{"facility":"Ctr Méd. et pro d l'Ost d port","city":"St-Marc-des-Carrières","state":"Quebec","zip":"G0A 4B0","country":"Canada","geoPoint":{"lat":46.68335,"lon":-72.0491}},{"facility":"Centre de santé et de services","city":"Terrebonne","state":"Quebec","zip":"J6V 2H2","country":"Canada","geoPoint":{"lat":45.70004,"lon":-73.64732}},{"facility":"Institut universitaire de cardiologie","city":"Quebec","zip":"G1V 4G5","country":"Canada","geoPoint":{"lat":46.81228,"lon":-71.21454}},{"facility":"Rodrigo Botero S.A.S","city":"Medellin","state":"Antioquia","zip":"050030","country":"Colombia","geoPoint":{"lat":6.25184,"lon":-75.56359}},{"facility":"IPS Centro Cientifico Asistencial Jose Luis Accini SAS","city":"Barranquilla","state":"Atlántico","zip":"080001","country":"Colombia","geoPoint":{"lat":10.96854,"lon":-74.78132}},{"facility":"Unidad de Estudios Clínicos de la Fundación Cardiovascular de Colombia","city":"Bucaramanga-piedecuesta, Valle Del Menzuli - Santander","state":"Santander","zip":"681012","country":"Colombia"},{"facility":"Fundacion del Caribe para la Investigacion Biomedica-BIOS","city":"Barranquilla","zip":"080020","country":"Colombia","geoPoint":{"lat":10.96854,"lon":-74.78132}},{"facility":"Clinica de la Costa","city":"Barranquilla","zip":"80020","country":"Colombia","geoPoint":{"lat":10.96854,"lon":-74.78132}},{"facility":"Centro de Investigacion Clinica Avanzada y Multidisciplinari","city":"Medellin","zip":"050021","country":"Colombia","geoPoint":{"lat":6.25184,"lon":-75.56359}},{"facility":"CardiovidCentro Cardiovascular Colombiano ClinicaSantaMaria","city":"Medellin","zip":"050034","country":"Colombia","geoPoint":{"lat":6.25184,"lon":-75.56359}},{"facility":"Poliklinika Solmed","city":"Zagreb","state":"Grad Zagreb","zip":"10000","country":"Croatia","geoPoint":{"lat":45.81444,"lon":15.97798}},{"facility":"Specijalna bolnica Krapinske Toplice - Kardiologija","city":"Krapinske Toplice","state":"Krapinsko Zagorska County","zip":"49217","country":"Croatia","geoPoint":{"lat":46.09333,"lon":15.84333}},{"facility":"Klinicki bolnicki centar Osijek","city":"Osijek","zip":"31 000","country":"Croatia","geoPoint":{"lat":45.55111,"lon":18.69389}},{"facility":"KBC Rijeka, Zavod za kardiomiopatije","city":"Rijeka","zip":"51000","country":"Croatia","geoPoint":{"lat":45.32674,"lon":14.44239}},{"facility":"KBC \"Sestre milosrdnice\", Kardiologija","city":"Zagreb","zip":"10000","country":"Croatia","geoPoint":{"lat":45.81444,"lon":15.97798}},{"facility":"KBC Zagreb, Klinika za bolesti srca i krvnih zila","city":"Zagreb","zip":"10000","country":"Croatia","geoPoint":{"lat":45.81444,"lon":15.97798}},{"facility":"Klinicka bolnica Sveti Duh","city":"Zagreb","zip":"10000","country":"Croatia","geoPoint":{"lat":45.81444,"lon":15.97798}},{"facility":"Fakultni poliklinika","city":"Praha 2","state":"Czech Republic","zip":"128 08","country":"Czechia","geoPoint":{"lat":50.08804,"lon":14.42076}},{"facility":"Edumed Broumov","city":"Broumov","zip":"550 01","country":"Czechia","geoPoint":{"lat":50.58566,"lon":16.33181}},{"facility":"Ordinace pro choroby srdce","city":"Chomutov","zip":"430 02","country":"Czechia","geoPoint":{"lat":50.46048,"lon":13.41779}},{"facility":"Fakultni nemocnice Hradec Kralove_Hradec Kralove_0","city":"Hradec Kralove","zip":"500 05","country":"Czechia","geoPoint":{"lat":50.20923,"lon":15.83277}},{"facility":"Nemocnice Jihlava Kardiologie","city":"Jihlava","zip":"586 33","country":"Czechia","geoPoint":{"lat":49.3961,"lon":15.59124}},{"facility":"Kardiologické centrum","city":"Liberec","zip":"460 63","country":"Czechia","geoPoint":{"lat":50.76711,"lon":15.05619}},{"facility":"Policska nemocnice","city":"Policka","zip":"572 01","country":"Czechia","geoPoint":{"lat":49.71465,"lon":16.26543}},{"facility":"Endocare","city":"Praha 4","zip":"140 00","country":"Czechia","geoPoint":{"lat":50.08804,"lon":14.42076}},{"facility":"ResTrial","city":"Praha 8","zip":"181 00","country":"Czechia","geoPoint":{"lat":50.08804,"lon":14.42076}},{"facility":"Nemocnice Slany Kardiologie","city":"Slany","zip":"274 01","country":"Czechia","geoPoint":{"lat":50.23046,"lon":14.08693}},{"facility":"Svitavska nemocnice Kardiologie","city":"Svitavy","zip":"568 25","country":"Czechia","geoPoint":{"lat":49.75594,"lon":16.46829}},{"facility":"Vseobecna kardiologicka ambulance","city":"Tabor","zip":"39003","country":"Czechia","geoPoint":{"lat":49.41441,"lon":14.6578}},{"facility":"Herlev og Gentofte Hospital","city":"Hellerup","state":"Region Hovedstaden","zip":"2900","country":"Denmark","geoPoint":{"lat":55.73204,"lon":12.57093}},{"facility":"Aalborg Universitetshospital Kardiologisk Afdeling","city":"Aalborg","zip":"9000","country":"Denmark","geoPoint":{"lat":57.048,"lon":9.9187}},{"facility":"Aarhus Universitetshospital, Skejby Hjertesygdomme","city":"Aarhus N","zip":"8200","country":"Denmark","geoPoint":{"lat":56.15674,"lon":10.21076}},{"facility":"Regionshospitalet Gødstrup, Hjertesygdomme","city":"Herning","zip":"7400","country":"Denmark","geoPoint":{"lat":56.13932,"lon":8.97378}},{"facility":"Hvidovre Hospital Hjertemedicinsk","city":"Hvidovre","zip":"2650","country":"Denmark","geoPoint":{"lat":55.65719,"lon":12.47364}},{"facility":"Kardiologisk Odense & Svendborg","city":"Svendborg","zip":"5700","country":"Denmark","geoPoint":{"lat":55.05982,"lon":10.60677}},{"facility":"StudyCor","city":"Jyväskylä","zip":"40620","country":"Finland","geoPoint":{"lat":62.24147,"lon":25.72088}},{"facility":"Health Step Finland Oy","city":"Kuopio","zip":"70210","country":"Finland","geoPoint":{"lat":62.89238,"lon":27.67703}},{"facility":"Päijät-Häme Central Hospital","city":"Lahti","zip":"15850","country":"Finland","geoPoint":{"lat":60.98267,"lon":25.66151}},{"facility":"OYS Sisätautien tutkimusyksikkö","city":"Oulu","zip":"90220","country":"Finland","geoPoint":{"lat":65.01236,"lon":25.46816}},{"facility":"Seinäjoen keskussairaala","city":"Seinäjoki","zip":"60220","country":"Finland","geoPoint":{"lat":62.79446,"lon":22.82822}},{"facility":"TAYS Sydänsairaala","city":"Tampere","zip":"33520","country":"Finland","geoPoint":{"lat":61.49911,"lon":23.78712}},{"facility":"TYKS Sydänkeskus","city":"Turku","zip":"20520","country":"Finland","geoPoint":{"lat":60.45148,"lon":22.26869}},{"facility":"CHRU Besançon","city":"Besançon","zip":"25030","country":"France","geoPoint":{"lat":47.24878,"lon":6.01815}},{"facility":"Hôpital Jean Verdier","city":"Bondy","zip":"93143","country":"France","geoPoint":{"lat":48.9018,"lon":2.48931}},{"facility":"Centre Hospitalier Sud Francilien","city":"Corbeil Essonnes","zip":"91106","country":"France","geoPoint":{"lat":48.60603,"lon":2.48757}},{"facility":"Centre Hospitalier Universitaire de Dijon-Hopital Le Bocage","city":"DIJON cedex","zip":"21079","country":"France","geoPoint":{"lat":47.31667,"lon":5.01667}},{"facility":"Chu Du Bocage","city":"DIJON cedex","zip":"21079","country":"France","geoPoint":{"lat":47.31667,"lon":5.01667}},{"facility":"Centre Hospitalier Universitaire Grenoble Alpes-Site Nord Michallon-1","city":"La Tronche","zip":"38700","country":"France","geoPoint":{"lat":45.20429,"lon":5.73645}},{"facility":"Les Hopitaux de Chartres-Hopital Louis Pasteur","city":"Le Coudray","zip":"28630","country":"France","geoPoint":{"lat":48.42115,"lon":1.50057}},{"facility":"Centre Hospitalier de Narbonne","city":"Narbonne","zip":"11100","country":"France","geoPoint":{"lat":43.18396,"lon":3.00141}},{"facility":"CHU de Nice","city":"Nice","zip":"06000","country":"France","geoPoint":{"lat":43.70313,"lon":7.26608}},{"facility":"Ap-Hp-Hopital Bichat-Claude Bernard-2","city":"Paris Cedex 18","zip":"75877","country":"France","geoPoint":{"lat":48.85341,"lon":2.3488}},{"facility":"Aphp-Hopital La Pitie Salpetriere-2","city":"Paris","zip":"75013","country":"France","geoPoint":{"lat":48.85341,"lon":2.3488}},{"facility":"Ap-Hp-Hopital Europeen Georges Pompidou","city":"Paris","zip":"75015","country":"France","geoPoint":{"lat":48.85341,"lon":2.3488}},{"facility":"Hôpital Européen Georges Pompidou","city":"Paris","zip":"75015","country":"France","geoPoint":{"lat":48.85341,"lon":2.3488}},{"facility":"Centre Hospitalier Universitaire de Bordeaux-Hopital Haut Leveque-2","city":"Pessac","zip":"33600","country":"France","geoPoint":{"lat":44.81011,"lon":-0.64129}},{"facility":"Centre Hospitalier Universitaire de Nantes-Hopital Nord Laennec-1","city":"Saint Herblain","zip":"44800","country":"France","geoPoint":{"lat":47.21765,"lon":-1.64841}},{"facility":"Les Hopitaux Universitaires de Strasbourg-Hopital Civil-2","city":"Strasbourg","zip":"67091","country":"France","geoPoint":{"lat":48.58392,"lon":7.74553}},{"facility":"Groupe Hospitalier Mutualiste Des Portes Du Sud","city":"Venissieux","zip":"69200","country":"France","geoPoint":{"lat":45.70254,"lon":4.87147}},{"facility":"Universitaetsklinikum Aachen AöR","city":"Aachen","zip":"52074","country":"Germany","geoPoint":{"lat":50.77664,"lon":6.08342}},{"facility":"Kardiologische Praxis","city":"Bad Homburg","zip":"61348","country":"Germany","geoPoint":{"lat":50.22683,"lon":8.61816}},{"facility":"Klinische Forschung Berlin (kfgn)","city":"Berlin","zip":"10117","country":"Germany","geoPoint":{"lat":52.52437,"lon":13.41053}},{"facility":"Emovis GmbH","city":"Berlin","zip":"10629","country":"Germany","geoPoint":{"lat":52.52437,"lon":13.41053}},{"facility":"Synexus Berlin","city":"Berlin","zip":"12627","country":"Germany","geoPoint":{"lat":52.52437,"lon":13.41053}},{"facility":"Synexus Bochum","city":"Bochum","zip":"44787","country":"Germany","geoPoint":{"lat":51.48165,"lon":7.21648}},{"facility":"Klinische Forschung Dresden","city":"Dresden","zip":"01069","country":"Germany","geoPoint":{"lat":51.05089,"lon":13.73832}},{"facility":"Hausaerztlich-Kardiologisches MVZ Am Felsenkeller GmbH","city":"Dresden","zip":"01277","country":"Germany","geoPoint":{"lat":51.05089,"lon":13.73832}},{"facility":"Zentrum fuer klinische Studien Suedbrandenburg GmbH","city":"Elsterwerda","zip":"04910","country":"Germany","geoPoint":{"lat":51.46043,"lon":13.52001}},{"facility":"InnoDiab Forschung GmbH","city":"Essen","zip":"45136","country":"Germany","geoPoint":{"lat":51.45657,"lon":7.01228}},{"facility":"Synexus Frankfurt","city":"Frankfurt","zip":"60313","country":"Germany","geoPoint":{"lat":50.11552,"lon":8.68417}},{"facility":"MVZ CCB Frankfurt Und Main-Taunus GbR","city":"Frankfurt","zip":"60389","country":"Germany","geoPoint":{"lat":50.11552,"lon":8.68417}},{"facility":"Denger, Friedrichsthal","city":"Friedrichsthal","zip":"66299","country":"Germany","geoPoint":{"lat":49.32786,"lon":7.09622}},{"facility":"Klinische Forschung Hamburg","city":"Hamburg","zip":"20253","country":"Germany","geoPoint":{"lat":53.57532,"lon":10.01534}},{"facility":"Wendisch/Dahl Hamburg","city":"Hamburg","zip":"22607","country":"Germany","geoPoint":{"lat":53.57532,"lon":10.01534}},{"facility":"Klinische Forschung Hannover","city":"Hannover","zip":"30159","country":"Germany","geoPoint":{"lat":52.37052,"lon":9.73322}},{"facility":"Chevts","city":"Karlsruhe","zip":"76137","country":"Germany","geoPoint":{"lat":49.00937,"lon":8.40444}},{"facility":"Appel","city":"Kassel","zip":"34121","country":"Germany","geoPoint":{"lat":51.31667,"lon":9.5}},{"facility":"Universitätsklinikum Leipzig, Endokrinologie und Nephrologie","city":"Leipzig","zip":"04103","country":"Germany","geoPoint":{"lat":51.33962,"lon":12.37129}},{"facility":"AmBeNet GmbH","city":"Leipzig","zip":"04107","country":"Germany","geoPoint":{"lat":51.33962,"lon":12.37129}},{"facility":"Die Praxis am Ludwigsplatz","city":"Ludwigshafen","zip":"67059","country":"Germany","geoPoint":{"lat":49.48121,"lon":8.44641}},{"facility":"Universitätsklinikum Schleswig-Holstein","city":"Lübeck","zip":"23562","country":"Germany","geoPoint":{"lat":53.86893,"lon":10.68729}},{"facility":"RED-Institut für medizinische Forschung und Fortbildung GmbH","city":"Oldenburg in Holstein","zip":"23758","country":"Germany","geoPoint":{"lat":54.29576,"lon":10.90156}},{"facility":"Dr. Axthelm Christoph, Pirna","city":"Pirna","zip":"01796","country":"Germany","geoPoint":{"lat":50.95843,"lon":13.93702}},{"facility":"Zentrum für klinische Studien Alexander Segner","city":"Saint Ingbert-Oberwürzbach","zip":"66386","country":"Germany"},{"facility":"Steindorf, Schkeuditz","city":"Schkeuditz","zip":"04435","country":"Germany","geoPoint":{"lat":51.39678,"lon":12.22141}},{"facility":"Klinische Forschung Schwerin","city":"Schwerin","zip":"19055","country":"Germany","geoPoint":{"lat":53.62937,"lon":11.41316}},{"facility":"Jacob, Villingen-Schwenningen","city":"Villingen-Schwenningen","zip":"78048","country":"Germany","geoPoint":{"lat":48.06226,"lon":8.49358}},{"facility":"Zentrum für klinische Studien Allgäu Oberschwaben","city":"Wangen","zip":"88239","country":"Germany","geoPoint":{"lat":48.72933,"lon":9.61175}},{"facility":"Al-Zoebi","city":"Wermsdorf","zip":"04779","country":"Germany","geoPoint":{"lat":51.28333,"lon":12.95}},{"facility":"Forschungszentrum Ruhr KliFoCenter GmbH, Dr. med. Kahrmann","city":"Witten","zip":"58455","country":"Germany","geoPoint":{"lat":51.44362,"lon":7.35258}},{"facility":"Onassis Cardiac Surgery Center","city":"Athens","zip":"17674","country":"Greece","geoPoint":{"lat":37.97945,"lon":23.71622}},{"facility":"\"Laiko\" General Hospital of Athens","city":"Athens","zip":"GR-11527","country":"Greece","geoPoint":{"lat":37.97945,"lon":23.71622}},{"facility":"Hippokration Hospital","city":"Athens","zip":"GR-11527","country":"Greece","geoPoint":{"lat":37.97945,"lon":23.71622}},{"facility":"Alexandra General Hospital, Therapeutic Clinic","city":"Athens","zip":"GR-11528","country":"Greece","geoPoint":{"lat":37.97945,"lon":23.71622}},{"facility":"Konstantopouleio G.H. of Athens, \"Agia Olga\"","city":"Athens","zip":"GR-14233","country":"Greece","geoPoint":{"lat":37.97945,"lon":23.71622}},{"facility":"\"Hygeia\" General Hospital of Athens","city":"Athens","zip":"GR-15123","country":"Greece","geoPoint":{"lat":37.97945,"lon":23.71622}},{"facility":"Iatriko Athinon (Athens Medical Canter)","city":"Athens","zip":"GR-15125","country":"Greece","geoPoint":{"lat":37.97945,"lon":23.71622}},{"facility":"General Hospital of Chios \"Skilitsio\"","city":"Chios","zip":"GR82100","country":"Greece","geoPoint":{"lat":38.36778,"lon":26.13583}},{"facility":"University Hospital of Athens ATTIKON","city":"Haidari-Athens","zip":"GR-12462","country":"Greece"},{"facility":"University General Hospital of Ioannina,Internal Medicine","city":"Ioannina","zip":"45500","country":"Greece","geoPoint":{"lat":39.66486,"lon":20.85189}},{"facility":"General Hospital of Lamia","city":"Lamia","zip":"GR35100","country":"Greece","geoPoint":{"lat":38.9,"lon":22.43333}},{"facility":"Univ Gen Hospital Larisa, Internal Medicine Clinic","city":"Larissa","zip":"GR-41110","country":"Greece","geoPoint":{"lat":39.63689,"lon":22.41761}},{"facility":"AHEPA General University Hospital","city":"Thessaloniki","zip":"GR-54636","country":"Greece","geoPoint":{"lat":40.64361,"lon":22.93086}},{"facility":"\"Thermi\" Private Hosital","city":"Thessaloniki","zip":"GR-57001","country":"Greece","geoPoint":{"lat":40.64361,"lon":22.93086}},{"facility":"Lausmed Kft.","city":"Baja","state":"Bács-Kiskun Vármegye","zip":"6500","country":"Hungary","geoPoint":{"lat":46.17496,"lon":18.95639}},{"facility":"Szegedi Tudomanyegyetem St Györgyi Albert Klinikai Központ","city":"Szeged","state":"Csongrád-Csanád","zip":"H-6725","country":"Hungary","geoPoint":{"lat":46.253,"lon":20.14824}},{"facility":"Léda Platán Magánklinika","city":"Zalaegerszeg","state":"Zala Megye","zip":"8900","country":"Hungary","geoPoint":{"lat":46.84,"lon":16.84389}},{"facility":"Debreceni Egyetem Klinikai Központ Belgyógyászati Klinika","city":"Debrecen","zip":"H-4032","country":"Hungary","geoPoint":{"lat":47.53333,"lon":21.63333}},{"facility":"Bugát Pál Kórház","city":"Gyöngyös","zip":"3200","country":"Hungary","geoPoint":{"lat":47.78257,"lon":19.928}},{"facility":"Markusovszky Egyetemi Oktatókórház","city":"Szombathely","zip":"H-9700","country":"Hungary","geoPoint":{"lat":47.23088,"lon":16.62155}},{"facility":"Ramesh Hospitals","city":"Vijayawada","state":"Andhra Pradesh","zip":"520008","country":"India","geoPoint":{"lat":16.50745,"lon":80.6466}},{"facility":"Batra Hospital and Medical Research Center","city":"New Delhi","state":"Delhi","zip":"110062","country":"India","geoPoint":{"lat":28.63576,"lon":77.22445}},{"facility":"Apex Heart Institute","city":"Ahmedabad","state":"Gujarat","zip":"380054","country":"India","geoPoint":{"lat":23.02579,"lon":72.58727}},{"facility":"CIMS- Care Institute of Medical Sciences","city":"Ahmedabad","state":"Gujarat","zip":"380060","country":"India","geoPoint":{"lat":23.02579,"lon":72.58727}},{"facility":"Shri B. D. Mehta Mahavir Heart Institute","city":"Surat","state":"Gujarat","zip":"395001","country":"India","geoPoint":{"lat":21.19594,"lon":72.83023}},{"facility":"Unicare heart institute and research centre","city":"Surat","state":"Gujarat","zip":"395001","country":"India","geoPoint":{"lat":21.19594,"lon":72.83023}},{"facility":"Nirmal Hospital Pvt. Ltd.","city":"Surat","state":"Gujarat","zip":"395002","country":"India","geoPoint":{"lat":21.19594,"lon":72.83023}},{"facility":"Medanta - The Medicity Multi-Speciality Hospital, Gurugram","city":"Gurgaon","state":"Haryana","zip":"122001","country":"India","geoPoint":{"lat":28.4601,"lon":77.02635}},{"facility":"Sri Jayadeva Institute of Cardiovascular Sciences & Research","city":"Bangalore","state":"Karnataka","zip":"560069","country":"India","geoPoint":{"lat":12.97194,"lon":77.59369}},{"facility":"St John's Medical College Hospital","city":"Bengaluru","state":"Karnataka","zip":"560034","country":"India","geoPoint":{"lat":12.97194,"lon":77.59369}},{"facility":"Department of Medicine - Kasturba Hospital","city":"Manipal","state":"Karnataka","zip":"576104","country":"India"},{"facility":"Kamalnayan Bajaj Hospital","city":"Aurangabad","state":"Maharashtra","zip":"431010","country":"India","geoPoint":{"lat":19.87757,"lon":75.34226}},{"facility":"Seth GS medical college and KEM Hospital","city":"Mumbai","state":"Maharashtra","zip":"400012","country":"India","geoPoint":{"lat":19.07283,"lon":72.88261}},{"facility":"Lokmanya Tilak Municipal Medical College & General Hospital","city":"Mumbai","state":"Maharashtra","zip":"400022","country":"India","geoPoint":{"lat":19.07283,"lon":72.88261}},{"facility":"Holy Family Hospital and Medical Research Centre","city":"Mumbai","state":"Maharashtra","zip":"400050","country":"India","geoPoint":{"lat":19.07283,"lon":72.88261}},{"facility":"Arneja Heart & Multispeciality Hospital","city":"Nagpur","state":"Maharashtra","zip":"440010","country":"India","geoPoint":{"lat":21.14631,"lon":79.08491}},{"facility":"Shri Krishna Hrudayalaya & Critical Care Centre","city":"Nagpur","state":"Maharashtra","zip":"440012","country":"India","geoPoint":{"lat":21.14631,"lon":79.08491}},{"facility":"Vijan Hospital & Research Centre","city":"Nashik","state":"Maharashtra","zip":"422005","country":"India","geoPoint":{"lat":19.99727,"lon":73.79096}},{"facility":"Grant Medical Foundation","city":"Pune","state":"Maharashtra","zip":"411001","country":"India","geoPoint":{"lat":18.51957,"lon":73.85535}},{"facility":"Deenanath Mangeshkar Hospital and Research Centre","city":"Pune","state":"Maharashtra","zip":"411004","country":"India","geoPoint":{"lat":18.51957,"lon":73.85535}},{"facility":"Maulana Azad Medical College","city":"Delhi","state":"New Delhi","zip":"110002","country":"India","geoPoint":{"lat":28.65195,"lon":77.23149}},{"facility":"All India Institute of Medical Sciences","city":"New Dehli","state":"New Delhi","zip":"110029","country":"India"},{"facility":"VMMC & Safdarjung Hospital","city":"New Dehli","state":"New Delhi","zip":"110029","country":"India"},{"facility":"Dayanand Medical College & Hospital","city":"Ludhiana","state":"Punjab","zip":"141001","country":"India","geoPoint":{"lat":30.91204,"lon":75.85379}},{"facility":"SP Medical College","city":"Bikaner","state":"Rajasthan","zip":"334003","country":"India","geoPoint":{"lat":28.01762,"lon":73.31495}},{"facility":"The Madras Medical Mission","city":"Chennai","state":"Tamil Nadu","zip":"600037","country":"India","geoPoint":{"lat":13.08784,"lon":80.27847}},{"facility":"G Kuppuswamy Naidu Memorial Hospital","city":"Coimbatore","state":"Tamil Nadu","zip":"641037","country":"India","geoPoint":{"lat":11.00555,"lon":76.96612}},{"facility":"Christian Medical College Hospital, Vellore","city":"Vellore","state":"Tamil Nadu","zip":"632004","country":"India","geoPoint":{"lat":12.9184,"lon":79.13255}},{"facility":"Guru Nanak CARE Hospitals","city":"Hyderabad","state":"Telangana","zip":"500020","country":"India","geoPoint":{"lat":17.38405,"lon":78.45636}},{"facility":"Osmania General Hospital","city":"Hyderabad","state":"Telengana","zip":"500 012","country":"India","geoPoint":{"lat":17.38405,"lon":78.45636}},{"facility":"Gandhi Memorial Hospital- King George's Medical University","city":"Lucknow","state":"Uttar Pradesh","zip":"226003","country":"India","geoPoint":{"lat":26.83928,"lon":80.92313}},{"facility":"B M Birla Heart Research Centre","city":"Kolkata","state":"West Bengal","zip":"700027","country":"India","geoPoint":{"lat":22.56263,"lon":88.36304}},{"facility":"Narayana Hrudayalya Institute of Cardiac Sciences","city":"Bangalore","zip":"560 099","country":"India","geoPoint":{"lat":12.97194,"lon":77.59369}},{"facility":"St John's Medical College and Hospital","city":"Bangalore","zip":"560034","country":"India","geoPoint":{"lat":12.97194,"lon":77.59369}},{"facility":"Dr. BL Kapur Memorial Hospital","city":"New Delhi","zip":"110005","country":"India","geoPoint":{"lat":28.63576,"lon":77.22445}},{"facility":"Sir Ganga Ram Hospital","city":"New Delhi","zip":"110060","country":"India","geoPoint":{"lat":28.63576,"lon":77.22445}},{"facility":"Mater Miscericordiae Hospital","city":"Dublin","state":"Leinster","zip":"D07 XAO9","country":"Ireland","geoPoint":{"lat":53.33306,"lon":-6.24889}},{"facility":"Connolly Hospital","city":"Dublin","state":"Leinster","zip":"DUBLIN 15","country":"Ireland","geoPoint":{"lat":53.33306,"lon":-6.24889}},{"facility":"The Heartbeat Trust","city":"Dublin","zip":"A96 D628","country":"Ireland","geoPoint":{"lat":53.33306,"lon":-6.24889}},{"facility":"St Vincent's Private Hospital","city":"Dublin","zip":"D04 T6F4","country":"Ireland","geoPoint":{"lat":53.33306,"lon":-6.24889}},{"facility":"Tallaght Hospital - Cardiology","city":"Dublin","zip":"D24NR0A","country":"Ireland","geoPoint":{"lat":53.33306,"lon":-6.24889}},{"facility":"Mallow Primary Healthcare Centre","city":"Mallow","zip":"P51Y8EC","country":"Ireland","geoPoint":{"lat":52.13333,"lon":-8.63333}},{"facility":"Outpatient Diabetes Clinic Soroka MC","city":"Beer Sheva","zip":"84101","country":"Israel","geoPoint":{"lat":31.25181,"lon":34.7913}},{"facility":"Diabetes and obesity center of excellence, Rambam MC","city":"Haifa","zip":"31096","country":"Israel","geoPoint":{"lat":32.81841,"lon":34.9885}},{"facility":"Diabetes Unit Hadassah Ein Karem MC","city":"Jerusalem","zip":"91120","country":"Israel","geoPoint":{"lat":31.76904,"lon":35.21633}},{"facility":"Hadassah Ein Kerem MC - Cardio","city":"Jerusalem","zip":"91120","country":"Israel","geoPoint":{"lat":31.76904,"lon":35.21633}},{"facility":"Clinical Research Unit Meir Medical Center","city":"Kfar Saba","zip":"44281","country":"Israel","geoPoint":{"lat":32.175,"lon":34.90694}},{"facility":"Institute of Diabetes, Western Galilee MC Nahariya","city":"Nahariya","zip":"22100","country":"Israel","geoPoint":{"lat":33.00892,"lon":35.09814}},{"facility":"Rabin Medical Center - Hasharon Hospital, Dept. D","city":"Petah-Tikva","zip":"49372","country":"Israel","geoPoint":{"lat":32.08707,"lon":34.88747}},{"facility":"Kaplan MC","city":"Rehovot","zip":"76100","country":"Israel","geoPoint":{"lat":31.89421,"lon":34.81199}},{"facility":"Cardio Vascular Research Center Sourasky MC","city":"Tel Aviv","zip":"6423906","country":"Israel","geoPoint":{"lat":32.08088,"lon":34.78057}},{"facility":"Endrocrinolgy Clinic - Sheba Medical Center","city":"Tel Hashomer","zip":"52621","country":"Israel","geoPoint":{"lat":32.04195,"lon":34.85623}},{"facility":"Sheba Medica Center - Clinical Research Unit","city":"Tel Hashomer","zip":"5265601","country":"Israel","geoPoint":{"lat":32.04195,"lon":34.85623}},{"facility":"Institute of Endocrinology, metabolism and hypertension","city":"Tel-Aviv","zip":"64239","country":"Israel","geoPoint":{"lat":32.08088,"lon":34.78057}},{"facility":"Ospedale Santa Maria Goretti - UOD Diabetologia","city":"Latina","state":"LT","zip":"04100","country":"Italy","geoPoint":{"lat":41.46614,"lon":12.9043}},{"facility":"Centro di Alta Spec. Diet., Educ. Alim. e Prev. Cardio Metab","city":"San Donato Milanese (MI)","state":"MI","zip":"20097","country":"Italy"},{"facility":"Pol. Uni. Campus Biomedico UOC Endocrinologia e Diabetologia","city":"Roma","state":"RM","zip":"00128","country":"Italy","geoPoint":{"lat":41.89193,"lon":12.51133}},{"facility":"AO Papa Giovanni XXIII USS Dietologia Clinica","city":"Bergamo","zip":"24127","country":"Italy","geoPoint":{"lat":45.69601,"lon":9.66721}},{"facility":"A. O. Universitaria S.ORSOLA-MALPIGHI - U. O. Endocrinologia","city":"Bologna","zip":"40138","country":"Italy","geoPoint":{"lat":44.49381,"lon":11.33875}},{"facility":"ARNAS Ospedale Garibaldi","city":"Catania","zip":"95122","country":"Italy","geoPoint":{"lat":37.49223,"lon":15.07041}},{"facility":"Università degli studi G. D'Annunzio Chieti Pescara - CAST","city":"Chieti Scalo","zip":"66100","country":"Italy"},{"facility":"Ospedale di San Fermo della Battaglia","city":"Como","zip":"22042","country":"Italy","geoPoint":{"lat":45.80819,"lon":9.0832}},{"facility":"Azienda Osp-Univ Ferrara-Dip Scienze Mediche-Endocrinologia","city":"Cona - Ferrara","zip":"44124","country":"Italy"},{"facility":"AOU Careggi Dipartimento Medico Geriatrico SOD Diabetologia","city":"Firenze","zip":"50134","country":"Italy","geoPoint":{"lat":43.77925,"lon":11.24626}},{"facility":"U.O.D. Dietetica e Nutrizione Clinica","city":"Genova","zip":"16132","country":"Italy","geoPoint":{"lat":44.40478,"lon":8.94438}},{"facility":"Azienda Ospedaliera Universitaria Federico II di Napoli","city":"Napoli","zip":"80131","country":"Italy","geoPoint":{"lat":40.85216,"lon":14.26811}},{"facility":"Azienda Ospedaliera di Padova Clin.Med.3","city":"Padova","zip":"35128","country":"Italy","geoPoint":{"lat":45.40797,"lon":11.88586}},{"facility":"Unità Funzionale di nutrizione clinica cod 58.01.3","city":"Palermo","zip":"90127","country":"Italy","geoPoint":{"lat":38.13205,"lon":13.33561}},{"facility":"IRCCS Fondazione \"S. Maugeri\" U.O. Medicina Interna ed Endo","city":"Pavia","zip":"27100","country":"Italy","geoPoint":{"lat":45.19205,"lon":9.15917}},{"facility":"Azienda Ospedaliero Universitaria Pisana Ospedale Cisanello","city":"Pisa","zip":"56124","country":"Italy","geoPoint":{"lat":43.70853,"lon":10.4036}},{"facility":"UOC di Medicina Interna - Centro Medico dell'Obesità","city":"Roma","zip":"00133","country":"Italy","geoPoint":{"lat":41.89193,"lon":12.51133}},{"facility":"Policlinico Universitario AGemelli DH Patologie dell'Obesità","city":"Rome","zip":"00168","country":"Italy","geoPoint":{"lat":41.89193,"lon":12.51133}},{"facility":"Ist.Clinico Humanitas Endocrinologia e Malattie del ricambio","city":"Rozzano (MI)","zip":"20089","country":"Italy","geoPoint":{"lat":45.38193,"lon":9.1559}},{"facility":"Centro di Alta Spec. Diet., Educ. Alim. e Prev. Cardio Metab","city":"San Donato Milanese (MI)","zip":"20097","country":"Italy"},{"facility":"Osp. Santissima Annunziata ASL CN1 Endocrinol. Diabetol.","city":"Savigliano (CN)","zip":"12038","country":"Italy"},{"facility":"IRCCS Multimedica","city":"Sesto San Giovanni (MI)","zip":"20099","country":"Italy"},{"facility":"A.O.U. Senese Policlinico \"Le Scotte\" , U.O.C. Diabetologia","city":"Siena","zip":"53100","country":"Italy","geoPoint":{"lat":43.31822,"lon":11.33064}},{"facility":"A.O.U. Città della Salute e della Scienza di Torino","city":"Torino","zip":"10126","country":"Italy","geoPoint":{"lat":45.07049,"lon":7.68682}},{"facility":"Seiwa Clinic","city":"Adachi-ku, Tokyo","zip":"123-0845","country":"Japan"},{"facility":"Toyooka Chuo Hospital","city":"Asahikawa, Hokkaido","zip":"078-8237","country":"Japan"},{"facility":"The Univ. of Tokyo Hp., Dept. of Cardiovascular Medicine","city":"Bunkyo-ku, Tokyo","zip":"113-8655","country":"Japan","geoPoint":{"lat":35.37517,"lon":139.92991}},{"facility":"New Tokyo Heart Clinic_Matsudo-shi, Chiba,","city":"Chiba","zip":"271-0077","country":"Japan","geoPoint":{"lat":35.6,"lon":140.11667}},{"facility":"Fukuokaken Saiseikai Futsukaichi Hospital_Cardiovascular Medicine","city":"Chikushino-shi, Fukuoka","zip":"818-8516","country":"Japan"},{"facility":"Ehime Prefectural Central Hospital","city":"Ehime","zip":"790-0024","country":"Japan","geoPoint":{"lat":33.63163,"lon":132.76886}},{"facility":"Chiba Tokushukai Hospital","city":"Funabashi-shi, Chiba","zip":"274-8503","country":"Japan"},{"facility":"Gifu Heart Center","city":"Gifu-city, Gifu","zip":"500-8384","country":"Japan","geoPoint":{"lat":35.42291,"lon":136.76039}},{"facility":"Hirakata Kohsai Hospital","city":"Hirakata-shi, Osaka","zip":"573-0153","country":"Japan"},{"facility":"Medical Corporation JR Hiroshima Hospital","city":"Hiroshima-shi, Hiroshima","zip":"732-0057","country":"Japan","geoPoint":{"lat":34.4,"lon":132.45}},{"facility":"Hiroshi Yamaguchi Clinic","city":"Kagoshima-shi, Kagoshima","zip":"892-0828","country":"Japan"},{"facility":"H.E.C Science Clinic","city":"Kanagawa","zip":"235-0045","country":"Japan","geoPoint":{"lat":37.58333,"lon":139.91667}},{"facility":"Kasugai Municipal Hospital","city":"Kasugai-shi, Aichi","zip":"486-8510","country":"Japan"},{"facility":"Sugiura Clinic","city":"Kawaguchi-shi, Saitama","zip":"332-0012","country":"Japan"},{"facility":"Steel Memorial Yawata Hospital","city":"Kitakyushu-shi, Fukuoka","zip":"805-8508","country":"Japan"},{"facility":"Chikamori Hospital","city":"Kochi-shi, Kochi","zip":"780-8522","country":"Japan"},{"facility":"Saiseikai Kumamoto Hospital","city":"Kumamoto-shi, Kumamoto","zip":"861-4193","country":"Japan","geoPoint":{"lat":32.80589,"lon":130.69182}},{"facility":"Koseikai Takeda Hospital","city":"Kyoto-shi, Kyoto","zip":"600-8558","country":"Japan","geoPoint":{"lat":35.02107,"lon":135.75385}},{"facility":"Ijinkai Takeda General Hospital, Cardiovascular Medicine","city":"Kyoto-shi,Kyoto","zip":"601-1495","country":"Japan","geoPoint":{"lat":35.02107,"lon":135.75385}},{"facility":"Ijinkai Takeda General Hospital, Neurosurgery","city":"Kyoto-shi,Kyoto","zip":"601-1495","country":"Japan","geoPoint":{"lat":35.02107,"lon":135.75385}},{"facility":"Uji Tokushukai Medical Center","city":"Kyoto","zip":"611-0041","country":"Japan","geoPoint":{"lat":35.02107,"lon":135.75385}},{"facility":"Medical Corporation Matsuyama-heartcenter Yotsuba Circulatio","city":"Matsuyama-shi, Ehime","zip":"790-0062","country":"Japan"},{"facility":"Shinden Higashi Clinic_Miyagi","city":"Miyagi","zip":"983-0039","country":"Japan"},{"facility":"Shiga General Hospital","city":"Moriyama-shi, Shiga","zip":"524-8524","country":"Japan"},{"facility":"Nagoya Ekisaikai Hospital","city":"Nagoya-shi, Aichi","zip":"454-8502","country":"Japan","geoPoint":{"lat":35.18147,"lon":136.90641}},{"facility":"Naha City Hospital","city":"Naha-shi, Okinawa","zip":"902-8511","country":"Japan"},{"facility":"Takagi hospital, Internal Medicine","city":"Okawa-shi, Fukuoka","zip":"831-0016","country":"Japan"},{"facility":"Okayama Medical Center","city":"Okayama-shi, Okayama","zip":"701-1192","country":"Japan"},{"facility":"Specified Med.Corp.Watanabeigakukai Sakurabashi Watanabe Hp.","city":"Osaka-city, Osaka","zip":"530-0001","country":"Japan"},{"facility":"Takatsuki Red Cross Hospital","city":"Osaka","zip":"569-1045","country":"Japan","geoPoint":{"lat":34.69374,"lon":135.50218}},{"facility":"Saga University Hospital, Department of Cardiology","city":"Saga-shi, Saga","zip":"849-8501","country":"Japan"},{"facility":"Shinsapporo Seiryou Hospital, Intenal Medicine","city":"Sapporo-shi, Hokkaido","zip":"004-0004","country":"Japan","geoPoint":{"lat":43.06667,"lon":141.35}},{"facility":"Hanaoka Seishu Memorial Hospital","city":"Sapporo-shi, Hokkaido","zip":"062-0003","country":"Japan","geoPoint":{"lat":43.06667,"lon":141.35}},{"facility":"Medical corporation Sanseikai Miyanomori Memorial Hospital","city":"Sapporo-shi, Hokkaido","zip":"064-8570","country":"Japan","geoPoint":{"lat":43.06667,"lon":141.35}},{"facility":"Sendai Kousei Hospital_Sendai-shi, Miyagi","city":"Sendai-shi, Miyagi","zip":"980-0873","country":"Japan","geoPoint":{"lat":38.26667,"lon":140.86667}},{"facility":"National Center for Global Health and Medicine","city":"Shinjuku-ku, Tokyo","zip":"162-8655","country":"Japan","geoPoint":{"lat":35.2946,"lon":139.57059}},{"facility":"Japan Community Health care Organization Ritsurin Hospital","city":"Takamatsu-shi, Kagawa","zip":"760-0073","country":"Japan"},{"facility":"Kagawa Prefectural Central Hospital, Cardiovascular Medicine","city":"Takamatsu-shi, Kagawa","zip":"760-8557","country":"Japan"},{"facility":"Kagawa Prefectural Central Hospital","city":"Takamatsu-shi, Kagawa","zip":"760-8557","country":"Japan"},{"facility":"Kan-etsu chu-oh Hospital","city":"Takasaki-shi, Gunma","zip":"370-3513","country":"Japan"},{"facility":"Tokorozawa Heart Center","city":"Tokorozawa-shi, Saitama","zip":"356-1142","country":"Japan"},{"facility":"Saino Clinic","city":"Tokorozawa-shi,Saitama","zip":"359-1141","country":"Japan"},{"facility":"Tokyo-Eki Center-building Clinic","city":"Tokyo","zip":"103-0027","country":"Japan","geoPoint":{"lat":35.6895,"lon":139.69171}},{"facility":"Fukuwa Clinic","city":"Tokyo","zip":"104-0031","country":"Japan","geoPoint":{"lat":35.6895,"lon":139.69171}},{"facility":"Tokyo Shinagawa Hospital Social Medical Corporation Association Tokyokyojuno-kai","city":"Tokyo","zip":"140-8522","country":"Japan","geoPoint":{"lat":35.6895,"lon":139.69171}},{"facility":"Minamino Cardiovascular Hospital","city":"Tokyo","zip":"192-0918","country":"Japan","geoPoint":{"lat":35.6895,"lon":139.69171}},{"facility":"National Hospital Organization Saitama National Hospital","city":"Wako-city, Saitama","zip":"351-0102","country":"Japan"},{"facility":"Nagata Hospital","city":"Yanagawa-shi, Fukuoka","zip":"832-0059","country":"Japan"},{"facility":"Yokosuka General Hospital Uwamachi, Cardiology","city":"Yokosuka-shi, Kanagawa","zip":"238-856","country":"Japan"},{"facility":"Ari Med","city":"Daugavpils","zip":"LV5401","country":"Latvia","geoPoint":{"lat":55.88333,"lon":26.53333}},{"facility":"Meissana Ltd","city":"Liepaja","zip":"LV-3414","country":"Latvia","geoPoint":{"lat":56.51667,"lon":21.01667}},{"facility":"Teterovska practice","city":"Ogre","zip":"LV-5001","country":"Latvia","geoPoint":{"lat":56.8162,"lon":24.61401}},{"facility":"Stradini Cardiology","city":"Riga","zip":"LV-1002","country":"Latvia","geoPoint":{"lat":56.946,"lon":24.10589}},{"facility":"Medical Centre Pulss 5","city":"Riga","zip":"LV-1011","country":"Latvia","geoPoint":{"lat":56.946,"lon":24.10589}},{"facility":"Adoria","city":"Riga","zip":"LV1011","country":"Latvia","geoPoint":{"lat":56.946,"lon":24.10589}},{"facility":"Health Centre-4","city":"Riga","zip":"LV1012","country":"Latvia","geoPoint":{"lat":56.946,"lon":24.10589}},{"facility":"Ziemelkurzeme Regional Hospital","city":"Ventspils","zip":"LV3601","country":"Latvia","geoPoint":{"lat":57.38988,"lon":21.57288}},{"facility":"Hospital Universiti Sains Malaysia","city":"Kota Bharu","state":"Kelantan","zip":"16150","country":"Malaysia","geoPoint":{"lat":6.13328,"lon":102.2386}},{"facility":"Hospital Tengku Ampuan Afzan","city":"Kuantan","state":"Pahang","zip":"25100","country":"Malaysia","geoPoint":{"lat":3.8077,"lon":103.326}},{"facility":"Hospital Seri Manjung","city":"Seri Manjung","state":"Perak","zip":"32040","country":"Malaysia","geoPoint":{"lat":4.1987,"lon":100.67}},{"facility":"Sarawak Heart Centre","city":"Kota Samarahan","state":"Sarawak","zip":"94300","country":"Malaysia"},{"facility":"University Technology MARA (UiTM) - Puncak Alam","city":"Sungai Buloh","state":"Selangor","zip":"47000","country":"Malaysia","geoPoint":{"lat":3.2,"lon":101.58333}},{"facility":"Klinik Kesihatan Masjid Tanah","city":"Alor Gajah","zip":"78300","country":"Malaysia","geoPoint":{"lat":2.3804,"lon":102.2089}},{"facility":"Hospital Sultanah Bahiyah","city":"Alor Setar","zip":"05460","country":"Malaysia","geoPoint":{"lat":6.12104,"lon":100.36014}},{"facility":"Hospital Raja Perempuan Zainab II","city":"Kota Bharu","zip":"15586","country":"Malaysia","geoPoint":{"lat":6.13328,"lon":102.2386}},{"facility":"Sarawak Heart Centre","city":"Kota Samarahan","zip":"94300","country":"Malaysia"},{"facility":"National Heart Institute","city":"Kuala Lumpur","zip":"50400","country":"Malaysia","geoPoint":{"lat":3.1412,"lon":101.68653}},{"facility":"University Malaya Medical Centre","city":"Kuala Lumpur","zip":"59100","country":"Malaysia","geoPoint":{"lat":3.1412,"lon":101.68653}},{"facility":"Hospital Tengku Ampuan Afzan","city":"Kuantan","zip":"25100","country":"Malaysia","geoPoint":{"lat":3.8077,"lon":103.326}},{"facility":"Hospital Putrajaya","city":"Putrajaya","zip":"62250","country":"Malaysia","geoPoint":{"lat":2.93527,"lon":101.69112}},{"facility":"Hospital Queen Elizabeth II","city":"Sabah","zip":"88300","country":"Malaysia"},{"facility":"CIMAB SA de CV","city":"Torreon","state":"Coahuila","zip":"27000","country":"Mexico","geoPoint":{"lat":25.54389,"lon":-103.41898}},{"facility":"Centro de Investigacion Clinica Endocrinologica de Jalisco","city":"Guadalajara","state":"Jalisco","zip":"44670","country":"Mexico","geoPoint":{"lat":20.66682,"lon":-103.39182}},{"facility":"Hospital General Regional 1 \"Dr. Carlos Mac Gregor Sánchez\"","city":"Ciudad de Mexico","state":"México, D.F.","zip":"03100","country":"Mexico","geoPoint":{"lat":19.42847,"lon":-99.12766}},{"facility":"Instituto Nacional de Cardiología Ignacio Chavez","city":"Ciudad de Mexico","state":"México, D.F.","zip":"14080","country":"Mexico","geoPoint":{"lat":19.42847,"lon":-99.12766}},{"facility":"Hospital Universitario Dr. José Eleuterio González_Monterrey","city":"Monterrey","state":"Nuevo León","zip":"64460","country":"Mexico","geoPoint":{"lat":25.67507,"lon":-100.31847}},{"facility":"Unidad Biomedica Avanzada Monterrey","city":"Monterrey","state":"Nuevo León","zip":"64460","country":"Mexico","geoPoint":{"lat":25.67507,"lon":-100.31847}},{"facility":"Centro de atención e investigación cardiovascular del Potosí","city":"San Luis Potosí","state":"San Luis Potosi","zip":"78200","country":"Mexico","geoPoint":{"lat":22.14982,"lon":-100.97916}},{"facility":"Centro para el Desarrollo de la Medicina y la Asistencia","city":"Culiacán","state":"Sinaloa","zip":"80230","country":"Mexico","geoPoint":{"lat":24.79032,"lon":-107.38782}},{"facility":"Centro de Investigación Cardiometabólica de Aguascalientes","city":"Aguascalientes","zip":"20230","country":"Mexico","geoPoint":{"lat":21.88234,"lon":-102.28259}},{"facility":"Lahoja Asociación para la Investigación y Farmacovigilancia","city":"Durango","zip":"34000","country":"Mexico","geoPoint":{"lat":24.02032,"lon":-104.65756}},{"facility":"Gelre Ziekenhuizen Apeldoorn","city":"Apeldoorn","zip":"7334 DZ","country":"Netherlands","geoPoint":{"lat":52.21,"lon":5.96944}},{"facility":"Amphia Ziekenhuis","city":"Breda","zip":"4818 CK","country":"Netherlands","geoPoint":{"lat":51.58656,"lon":4.77596}},{"facility":"Deventer Ziekenhuis","city":"Deventer","zip":"7416 SE","country":"Netherlands","geoPoint":{"lat":52.255,"lon":6.16389}},{"facility":"UMC Groningen","city":"Groningen","zip":"9713 GZ","country":"Netherlands","geoPoint":{"lat":53.21917,"lon":6.56667}},{"facility":"Medisch Centrum Leeuwarden","city":"Leeuwarden","zip":"8934 AD","country":"Netherlands","geoPoint":{"lat":53.20139,"lon":5.80859}},{"facility":"Alrijne Leiderdorp","city":"Leiderdorp","zip":"2353 GA","country":"Netherlands","geoPoint":{"lat":52.15833,"lon":4.52917}},{"facility":"Bravis Ziekenhuis","city":"Roosendaal","zip":"4708 AE","country":"Netherlands","geoPoint":{"lat":51.53083,"lon":4.46528}},{"facility":"Franciscus Gasthuis en Vlietland","city":"Rotterdam","zip":"3045 PM","country":"Netherlands","geoPoint":{"lat":51.9225,"lon":4.47917}},{"facility":"D & A Research B.V.","city":"Sneek","zip":"8601 ZR","country":"Netherlands","geoPoint":{"lat":53.03297,"lon":5.6589}},{"facility":"Ziekenhuis Rivierenland Tiel","city":"Tiel","zip":"4002 WP","country":"Netherlands","geoPoint":{"lat":51.88667,"lon":5.42917}},{"facility":"Haukeland Universitetssykehus","city":"Bergen","zip":"5021","country":"Norway","geoPoint":{"lat":60.39299,"lon":5.32415}},{"facility":"Falck Norge AS","city":"Hamar","zip":"2317","country":"Norway","geoPoint":{"lat":60.7945,"lon":11.06798}},{"facility":"Sykehuset Innlandet Lillehammer","city":"Lillehammer","zip":"2609","country":"Norway","geoPoint":{"lat":61.11514,"lon":10.46628}},{"facility":"Akershus Universitetssykehus","city":"Nordbyhagen","zip":"1474","country":"Norway"},{"facility":"Rikshospitalet - Kardiologisk forskning","city":"Oslo","zip":"0372","country":"Norway","geoPoint":{"lat":59.91273,"lon":10.74609}},{"facility":"Oslo universitetssykehus HF Ullevål","city":"Oslo","zip":"0450","country":"Norway","geoPoint":{"lat":59.91273,"lon":10.74609}},{"facility":"Oslo universitetssykehus Aker","city":"Oslo","zip":"0586","country":"Norway","geoPoint":{"lat":59.91273,"lon":10.74609}},{"facility":"Senter for sykelig overvekt i Helse Sør-Øst","city":"Tønsberg","zip":"3117","country":"Norway","geoPoint":{"lat":59.26754,"lon":10.40762}},{"facility":"Ålesund Sjukehus - Hjertemedisinsk poliklinikk","city":"Ålesund","zip":"6017","country":"Norway","geoPoint":{"lat":62.47225,"lon":6.15492}},{"facility":"Clinmedica Research sp. z o.o.","city":"Skierniewice","state":"Lodzkie","zip":"96-100","country":"Poland","geoPoint":{"lat":51.95485,"lon":20.15837}},{"facility":"NZOZ \"CenterMed Lublin\" Sp. z o.o.","city":"Lublin","state":"Lubelskie","zip":"20-044","country":"Poland","geoPoint":{"lat":51.25,"lon":22.56667}},{"facility":"ETG Siedlce","city":"Siedlce","state":"Masovian","zip":"08-110","country":"Poland","geoPoint":{"lat":52.16772,"lon":22.29006}},{"facility":"ETG Warszawa","city":"Warsaw","state":"Masovian","zip":"02-677","country":"Poland","geoPoint":{"lat":52.22977,"lon":21.01178}},{"facility":"Gabinet Leczenia Otylosci i Chorob Dietozaleznych","city":"Bialystok","state":"Podlaskie Voivodeship","zip":"15-281","country":"Poland","geoPoint":{"lat":53.13333,"lon":23.16433}},{"facility":"Kresmed Sp. z o. o.","city":"Bialystok","state":"Podlaskie","zip":"15-481","country":"Poland","geoPoint":{"lat":53.13333,"lon":23.16433}},{"facility":"Centrum Medyczne Pratia Gdynia","city":"Gdynia","state":"Pomorskie","zip":"81-338","country":"Poland","geoPoint":{"lat":54.51889,"lon":18.53188}},{"facility":"PRATIA Centrum Medyczne","city":"Gdynia","state":"Pomorskie","zip":"81-338","country":"Poland","geoPoint":{"lat":54.51889,"lon":18.53188}},{"facility":"Centrum Zdrowia Metabolicznego","city":"Poznan","state":"Wielkopolskie Voivodeship","zip":"60-589","country":"Poland","geoPoint":{"lat":52.40692,"lon":16.92993}},{"facility":"Poradnia Kardiologiczna Jaroslaw Jurowiecki","city":"Gdansk","zip":"80-286","country":"Poland","geoPoint":{"lat":54.35205,"lon":18.64637}},{"facility":"Centrum Badan Klinicznych PI-House","city":"Gdansk","zip":"80-546","country":"Poland","geoPoint":{"lat":54.35205,"lon":18.64637}},{"facility":"Grazyna Pulka Specjalistyczny Osrodek \"All-Med\"","city":"Krakow","zip":"30-033","country":"Poland","geoPoint":{"lat":50.06143,"lon":19.93658}},{"facility":"UniCardia & UniMedica & UniEstetica","city":"Krakow","zip":"31-271","country":"Poland","geoPoint":{"lat":50.06143,"lon":19.93658}},{"facility":"Centrum Terapii Wspolczesnej","city":"Lodz","zip":"90-338","country":"Poland","geoPoint":{"lat":51.75,"lon":19.46667}},{"facility":"Klimed Lomza","city":"Lomza","zip":"18-404","country":"Poland","geoPoint":{"lat":53.17806,"lon":22.05935}},{"facility":"ETG Lowicz","city":"Lowicz","zip":"99-400","country":"Poland","geoPoint":{"lat":52.10714,"lon":19.94525}},{"facility":"Centrum Medyczne HCP Sp. z o.o.","city":"Poznan","zip":"61-485","country":"Poland","geoPoint":{"lat":52.40692,"lon":16.92993}},{"facility":"KO-MED Centra Kliniczne Sp. z o.o.","city":"Pulawy","zip":"24-100","country":"Poland","geoPoint":{"lat":51.41655,"lon":21.96939}},{"facility":"Gabinety Lekarskie LabMed","city":"Szczecin","zip":"71-531","country":"Poland","geoPoint":{"lat":53.42894,"lon":14.55302}},{"facility":"Przychodnia Lekarzy Specjalistow Serce","city":"Warszawa","zip":"00-416","country":"Poland","geoPoint":{"lat":52.22977,"lon":21.01178}},{"facility":"Panstwowy Instytut Medyczny Ministerstwa Spraw Wewnetrznych I Administracji","city":"Warszawa","zip":"02-507","country":"Poland","geoPoint":{"lat":52.22977,"lon":21.01178}},{"facility":"Ko-Med Nova Sp.zo.o. oddział w Zamosciu","city":"Zamosc","zip":"22-400","country":"Poland","geoPoint":{"lat":50.72314,"lon":23.25196}},{"facility":"Hospital Garcia de Orta","city":"Almada","zip":"2805-267","country":"Portugal","geoPoint":{"lat":38.67902,"lon":-9.1569}},{"facility":"Centro Hospitalar e Universitário de Coimbra","city":"Coimbra","zip":"3000-459","country":"Portugal","geoPoint":{"lat":40.20564,"lon":-8.41955}},{"facility":"Hospital da Luz","city":"Lisboa","zip":"1500-650","country":"Portugal","geoPoint":{"lat":38.71667,"lon":-9.13333}},{"facility":"Centro Hospitalar Lisboa Norte","city":"Lisboa","zip":"1649-035","country":"Portugal","geoPoint":{"lat":38.71667,"lon":-9.13333}},{"facility":"Unidade Local de Saúde de Matosinhos","city":"Matosinhos","zip":"4464-513","country":"Portugal","geoPoint":{"lat":41.18207,"lon":-8.68908}},{"facility":"Centro Hospitalar de São João","city":"Porto","zip":"4200-319","country":"Portugal","geoPoint":{"lat":41.14961,"lon":-8.61099}},{"facility":"San Miguel Medical","city":"Trujillo Alto","zip":"00976","country":"Puerto Rico","geoPoint":{"lat":18.35467,"lon":-66.00739}},{"facility":"SC Grand Med SRL","city":"Oradea","state":"Bihor","zip":"410025","country":"Romania","geoPoint":{"lat":47.0458,"lon":21.91833}},{"facility":"S.C. Endodigest S.R.L.","city":"Oradea","state":"Bihor","zip":"410151","country":"Romania","geoPoint":{"lat":47.0458,"lon":21.91833}},{"facility":"SC Ames Research Center SRL","city":"Clarasi","state":"Calaras","zip":"910103","country":"Romania"},{"facility":"S.C. Centrul Medical Unirea S.R.L.","city":"Cluj Napoca","state":"Cluj","zip":"400349","country":"Romania","geoPoint":{"lat":46.76667,"lon":23.6}},{"facility":"S.C. Top Diabet Srl","city":"Craiova","state":"Dolj","zip":"200515","country":"Romania","geoPoint":{"lat":44.31667,"lon":23.8}},{"facility":"County Hospital Deva","city":"Deva","state":"Hunedoara","zip":"330084","country":"Romania","geoPoint":{"lat":45.88333,"lon":22.9}},{"facility":"CMI Dr Pop Lavinia","city":"Baia Mare","state":"Maramures","zip":"430222","country":"Romania","geoPoint":{"lat":47.65529,"lon":23.57381}},{"facility":"Sc Mediab Srl","city":"Targu Mures","state":"Mures","zip":"540142","country":"Romania","geoPoint":{"lat":46.54245,"lon":24.55747}},{"facility":"3rd Clinic for Nutrition-Spitalulul Județean de Urgenta","city":"Timisoara","state":"Timis","zip":"300736","country":"Romania","geoPoint":{"lat":45.75372,"lon":21.22571}},{"facility":"Minimed S.R.L.","city":"Bacau","zip":"600238","country":"Romania","geoPoint":{"lat":46.56718,"lon":26.91384}},{"facility":"Centrul Medical de Diagnostic si Tratament Ambulatoriu Neomed","city":"Brasov","zip":"500283","country":"Romania","geoPoint":{"lat":45.64861,"lon":25.60613}},{"facility":"Sc Nicodiab Srl","city":"Bucharest","zip":"010507","country":"Romania","geoPoint":{"lat":44.43225,"lon":26.10626}},{"facility":"\"Carol Davila\" Military Emergency Hospital","city":"Bucharest","zip":"010825","country":"Romania","geoPoint":{"lat":44.43225,"lon":26.10626}},{"facility":"Sana Monitoring SRL","city":"Bucharest","zip":"011025","country":"Romania","geoPoint":{"lat":44.43225,"lon":26.10626}},{"facility":"SC Eco-Diagnosis SRL","city":"Bucharest","zip":"031818","country":"Romania","geoPoint":{"lat":44.43225,"lon":26.10626}},{"facility":"Institutul National de Endocrinologie C.I. Parhon","city":"Bucuresti","zip":"011863","country":"Romania","geoPoint":{"lat":44.42802,"lon":26.09665}},{"facility":"S.C. Medcon S.R.L","city":"Buzau","zip":"120203","country":"Romania","geoPoint":{"lat":45.15,"lon":26.83333}},{"facility":"S.C Milena Sante SRL","city":"Galati","zip":"800001","country":"Romania","geoPoint":{"lat":45.45,"lon":28.05}},{"facility":"SC Diamed Obesity SRL","city":"Galati","zip":"800291","country":"Romania","geoPoint":{"lat":45.45,"lon":28.05}},{"facility":"SC Consultmed SRL","city":"Iasi","zip":"700547","country":"Romania","geoPoint":{"lat":47.16667,"lon":27.6}},{"facility":"SC Cardiomed SRL","city":"Iasi","zip":"700687","country":"Romania","geoPoint":{"lat":47.16667,"lon":27.6}},{"facility":"Centrul Medical Bella Praxis","city":"Pascani","zip":"700502","country":"Romania","geoPoint":{"lat":47.2469,"lon":26.72291}},{"facility":"Bella Praxis S.R.L.","city":"Pascani","zip":"705200","country":"Romania","geoPoint":{"lat":47.2469,"lon":26.72291}},{"facility":"S.C. Dianutrilife Medica S.R.L.","city":"Ploiesti","zip":"100561","country":"Romania","geoPoint":{"lat":44.95,"lon":26.01667}},{"facility":"County Emergency Hospital Satu Mare","city":"Satu Mare","zip":"440055","country":"Romania","geoPoint":{"lat":47.79926,"lon":22.86255}},{"facility":"SC Gensan SRL, Policlinica ASTRA","city":"Sibiu","zip":"550371","country":"Romania","geoPoint":{"lat":45.8,"lon":24.15}},{"facility":"Tumen State Medical University","city":"Tumen","state":"Russia","zip":"625023","country":"Russian Federation"},{"facility":"Volosevich First City Clinical Hospital","city":"Arkhangelsk","zip":"163001","country":"Russian Federation","geoPoint":{"lat":64.5401,"lon":40.5433}},{"facility":"Reg. State Budget Healthc. Inst. Regional Clinical Hospital","city":"Barnaul","zip":"656024","country":"Russian Federation","geoPoint":{"lat":53.36056,"lon":83.76361}},{"facility":"City Hospital #5","city":"Barnaul","zip":"656045","country":"Russian Federation","geoPoint":{"lat":53.36056,"lon":83.76361}},{"facility":"RBSHI \"Altay Regional Cardiology Dispensary\"","city":"Barnaul","zip":"656055","country":"Russian Federation","geoPoint":{"lat":53.36056,"lon":83.76361}},{"facility":"Belgorod regional clinical hospital of the St. Ioasaph","city":"Belgorod","zip":"308007","country":"Russian Federation","geoPoint":{"lat":50.61074,"lon":36.58015}},{"facility":"Urals State Medical University","city":"Ekaterinburg","zip":"620026","country":"Russian Federation","geoPoint":{"lat":56.8519,"lon":60.6122}},{"facility":"Cardiological dispensary","city":"Ivanovo","zip":"153012","country":"Russian Federation","geoPoint":{"lat":56.99719,"lon":40.97139}},{"facility":"KSFMU, Inrereginal Clinical Diagnostic center","city":"Kazan","zip":"420010","country":"Russian Federation","geoPoint":{"lat":55.78874,"lon":49.12214}},{"facility":"Institute of Complex Problems of Cardio-Vascular Diseases","city":"Kemerovo","zip":"650002","country":"Russian Federation","geoPoint":{"lat":55.33333,"lon":86.08333}},{"facility":"Medical Center CAPITAL-HEALTH","city":"Moscow","zip":"109369","country":"Russian Federation","geoPoint":{"lat":55.75222,"lon":37.61556}},{"facility":"Moscow City Clinical Hospital #15","city":"Moscow","zip":"111539","country":"Russian Federation","geoPoint":{"lat":55.75222,"lon":37.61556}},{"facility":"Friendship University of Russia","city":"Moscow","zip":"117292","country":"Russian Federation","geoPoint":{"lat":55.75222,"lon":37.61556}},{"facility":"Moscow State University n.a. M.V. Lomonosov","city":"Moscow","zip":"119991","country":"Russian Federation","geoPoint":{"lat":55.75222,"lon":37.61556}},{"facility":"National Medical Research Center of Cardiology","city":"Moscow","zip":"121552","country":"Russian Federation","geoPoint":{"lat":55.75222,"lon":37.61556}},{"facility":"City Clinical Hospital №52","city":"Moscow","zip":"123182","country":"Russian Federation","geoPoint":{"lat":55.75222,"lon":37.61556}},{"facility":"Federal Bureau for Medical and Social Expertise","city":"Moscow","zip":"127486","country":"Russian Federation","geoPoint":{"lat":55.75222,"lon":37.61556}},{"facility":"PHI \"Central Clinical Hospital RZD- Medicine\"","city":"Moscow","zip":"129128","country":"Russian Federation","geoPoint":{"lat":55.75222,"lon":37.61556}},{"facility":"Moscow City Clinical Hospital n.a. A.K. Eramishantseva","city":"Moscow","zip":"129327","country":"Russian Federation","geoPoint":{"lat":55.75222,"lon":37.61556}},{"facility":"LLC RC Medical","city":"Novosibirsk","zip":"630005","country":"Russian Federation","geoPoint":{"lat":55.0415,"lon":82.9346}},{"facility":"Limited Law Company \"Healthy Family\" Medicine Center\"","city":"Novosibirsk","zip":"630099","country":"Russian Federation","geoPoint":{"lat":55.0415,"lon":82.9346}},{"facility":"LLC Reafan","city":"Novosibirsk","zip":"630099","country":"Russian Federation","geoPoint":{"lat":55.0415,"lon":82.9346}},{"facility":"Scientific Research Institute of neuroscience and Medicine","city":"Novosibirsk","zip":"630117","country":"Russian Federation","geoPoint":{"lat":55.0415,"lon":82.9346}},{"facility":"Orenburg Regional Clinical Hospital","city":"Orenburg","zip":"460018","country":"Russian Federation","geoPoint":{"lat":51.7727,"lon":55.0988}},{"facility":"Penza Regional Clinical Hospital named after N.N. Burdenko","city":"Penza","zip":"440052","country":"Russian Federation","geoPoint":{"lat":53.20066,"lon":45.00464}},{"facility":"Rostov State Medical University_Rostov-on-Don","city":"Rostov-on-Don","zip":"344068","country":"Russian Federation","geoPoint":{"lat":47.23135,"lon":39.72328}},{"facility":"SPb SBHI City Outpatient clinic #109","city":"Saint Petersburg","zip":"192283","country":"Russian Federation","geoPoint":{"lat":59.93863,"lon":30.31413}},{"facility":"SPb SBHI City Hospital #38 n.a. N.A. Semashko","city":"Saint-Petersburg, Pushkin","zip":"196601","country":"Russian Federation"},{"facility":"City policlinic #28","city":"Saint-Petersburg","zip":"190013","country":"Russian Federation","geoPoint":{"lat":59.93863,"lon":30.31413}},{"facility":"Joint Stock Company \"Modern Medical Technologies\"","city":"Saint-Petersburg","zip":"190121","country":"Russian Federation","geoPoint":{"lat":59.93863,"lon":30.31413}},{"facility":"SPb SBHI City Outpatient clinic #37","city":"Saint-Petersburg","zip":"191119","country":"Russian Federation","geoPoint":{"lat":59.93863,"lon":30.31413}},{"facility":"Limited Liability Company \"Energiya Zdoroviya\"","city":"Saint-Petersburg","zip":"194156","country":"Russian Federation","geoPoint":{"lat":59.93863,"lon":30.31413}},{"facility":"SPb SBHI City polyclinic #117","city":"Saint-Petersburg","zip":"194358","country":"Russian Federation","geoPoint":{"lat":59.93863,"lon":30.31413}},{"facility":"FSPbSMU n.a. Academic I.P. Pavlov","city":"Saint-Petersburg","zip":"197022","country":"Russian Federation","geoPoint":{"lat":59.93863,"lon":30.31413}},{"facility":"Consultative & Diagnostic Center with a Outpatient Hospital","city":"Saint-Petersburg","zip":"197110","country":"Russian Federation","geoPoint":{"lat":59.93863,"lon":30.31413}},{"facility":"Saint-Petersburg \"City Policlinic # 74\"","city":"Saint-Petersburg","zip":"197762","country":"Russian Federation","geoPoint":{"lat":59.93863,"lon":30.31413}},{"facility":"Astarta Clinic LLC","city":"Saint-Petersburg","zip":"199226","country":"Russian Federation","geoPoint":{"lat":59.93863,"lon":30.31413}},{"facility":"Regional Clinical cardiological dispensary n.a. Polyakov","city":"Samara","zip":"443070","country":"Russian Federation","geoPoint":{"lat":53.20007,"lon":50.15}},{"facility":"City Hospital #4, Sochi","city":"Sochi","zip":"354057","country":"Russian Federation","geoPoint":{"lat":43.59917,"lon":39.72569}},{"facility":"SPb SBHI City Multifield Hospital #2","city":"St. Petersburg","zip":"194354","country":"Russian Federation","geoPoint":{"lat":59.93863,"lon":30.31413}},{"facility":"SAHI of Komi Republic \"Consultative Diagnostic Center\"","city":"Syktyvkar","zip":"167981","country":"Russian Federation","geoPoint":{"lat":61.67642,"lon":50.80994}},{"facility":"Tomsk National Research Medical Center of the RAS","city":"Tomsk","zip":"634012","country":"Russian Federation","geoPoint":{"lat":56.49771,"lon":84.97437}},{"facility":"Tomsk Regional Clinical Hospital","city":"Tomsk","zip":"634041","country":"Russian Federation","geoPoint":{"lat":56.49771,"lon":84.97437}},{"facility":"Siberian State Medical University_Tomsk","city":"Tomsk","zip":"634050","country":"Russian Federation","geoPoint":{"lat":56.49771,"lon":84.97437}},{"facility":"Tumen State Medical University - RIMBB","city":"Tumen","zip":"625023","country":"Russian Federation"},{"facility":"Regional Clinical Hospital of Tver","city":"Tver","zip":"170036","country":"Russian Federation","geoPoint":{"lat":56.85836,"lon":35.90057}},{"facility":"Ulianovsk Regional Clinical Hospital","city":"Ulianovsk","zip":"432063","country":"Russian Federation","geoPoint":{"lat":54.32824,"lon":48.38657}},{"facility":"Voronezh Regional Clinical Consultive-diagnostic Centre","city":"Voronezh","zip":"394018","country":"Russian Federation","geoPoint":{"lat":51.67204,"lon":39.1843}},{"facility":"Solovyov Clinical Emergency Hospital","city":"Yaroslavl","zip":"150003","country":"Russian Federation","geoPoint":{"lat":57.62987,"lon":39.87368}},{"facility":"Clin. Centre Vojvodina, Clin. endocr., diab. and met. dis.","city":"Novi Sad","state":"Vojvodina","zip":"21000","country":"Serbia","geoPoint":{"lat":45.25167,"lon":19.83694}},{"facility":"Clinical centre of Serbia, Clinic for cardiology","city":"Belgrade","zip":"11000","country":"Serbia","geoPoint":{"lat":44.80401,"lon":20.46513}},{"facility":"Clinical Centre of Serbia, Emergency Centre, Department of Cardiology","city":"Belgrade","zip":"11000","country":"Serbia","geoPoint":{"lat":44.80401,"lon":20.46513}},{"facility":"Emergency Internal Medicine Clinic","city":"Belgrade","zip":"11000","country":"Serbia","geoPoint":{"lat":44.80401,"lon":20.46513}},{"facility":"Endocrinology, Diabetes and Metabolism Diseases Clinic","city":"Belgrade","zip":"11000","country":"Serbia","geoPoint":{"lat":44.80401,"lon":20.46513}},{"facility":"Special Hospital \"Sveti Sava\"","city":"Belgrade","zip":"11000","country":"Serbia","geoPoint":{"lat":44.80401,"lon":20.46513}},{"facility":"Phoenix Pharma","city":"Port Elizabeth","state":"Eastern Cape","zip":"6001","country":"South Africa","geoPoint":{"lat":-33.91799,"lon":25.57007}},{"facility":"Cardiology Research_Bloemfontein","city":"Bloemfontein","state":"Free State","zip":"9301","country":"South Africa","geoPoint":{"lat":-29.12107,"lon":26.214}},{"facility":"IATROS International","city":"Bloemfontein","state":"Free State","zip":"9301","country":"South Africa","geoPoint":{"lat":-29.12107,"lon":26.214}},{"facility":"Josha Research","city":"Bloemfontein","state":"Free State","zip":"9301","country":"South Africa","geoPoint":{"lat":-29.12107,"lon":26.214}},{"facility":"Cardiology Clinical Research","city":"Alberton","state":"Gauteng","zip":"1450","country":"South Africa","geoPoint":{"lat":-26.26786,"lon":28.12225}},{"facility":"Dr Iftikhar Osman Ebrahim","city":"Centurion","state":"Gauteng","zip":"0157","country":"South Africa","geoPoint":{"lat":-25.85891,"lon":28.18577}},{"facility":"CRISMO","city":"Germiston","state":"Gauteng","zip":"1401","country":"South Africa","geoPoint":{"lat":-26.23481,"lon":28.17665}},{"facility":"Wits Bara Clinical Trial Site","city":"Johannesburg","state":"Gauteng","zip":"2013","country":"South Africa","geoPoint":{"lat":-26.20227,"lon":28.04363}},{"facility":"Tickerdoc Research (Pty) LTD","city":"Johannesburg","state":"Gauteng","zip":"2157","country":"South Africa","geoPoint":{"lat":-26.20227,"lon":28.04363}},{"facility":"WITS Clinical Research","city":"Johannesburg","state":"Gauteng","zip":"2193","country":"South Africa","geoPoint":{"lat":-26.20227,"lon":28.04363}},{"facility":"Dr Moosa's Rooms","city":"Lenasia","state":"Gauteng","zip":"1827","country":"South Africa","geoPoint":{"lat":-26.32052,"lon":27.83564}},{"facility":"Lenasia Clinical Trial Centre","city":"Lenasia","state":"Gauteng","zip":"1827","country":"South Africa","geoPoint":{"lat":-26.32052,"lon":27.83564}},{"facility":"Jongaie Research","city":"Pretoria","state":"Gauteng","zip":"0183","country":"South Africa","geoPoint":{"lat":-25.74486,"lon":28.18783}},{"facility":"Synexus Watermeyer Clinical Research Centre","city":"Pretoria","state":"Gauteng","zip":"0184","country":"South Africa","geoPoint":{"lat":-25.74486,"lon":28.18783}},{"facility":"Clinical Trial Systems (CTC)","city":"Pretoria","state":"Gauteng","zip":"0186","country":"South Africa","geoPoint":{"lat":-25.74486,"lon":28.18783}},{"facility":"Roodepoort Medicross Clinical Research Centre","city":"Roodepoort","state":"Gauteng","zip":"1724","country":"South Africa","geoPoint":{"lat":-26.1625,"lon":27.8725}},{"facility":"Dr Jugnundan's Rooms","city":"Durban","state":"KwaZulu-Natal","zip":"4091","country":"South Africa","geoPoint":{"lat":-29.8579,"lon":31.0292}},{"facility":"Synexus Helderberg Clinical Research Centre","city":"Cape Town","state":"Western Cape","zip":"7130","country":"South Africa","geoPoint":{"lat":-33.92584,"lon":18.42322}},{"facility":"Dr S Dawood","city":"Cape Town","state":"Western Cape","zip":"7405","country":"South Africa","geoPoint":{"lat":-33.92584,"lon":18.42322}},{"facility":"Dr Corbett","city":"Cape Town","state":"Western Cape","zip":"7500","country":"South Africa","geoPoint":{"lat":-33.92584,"lon":18.42322}},{"facility":"Tread Research (Pty)Ltd","city":"Cape Town","state":"Western Cape","zip":"7500","country":"South Africa","geoPoint":{"lat":-33.92584,"lon":18.42322}},{"facility":"UCT Lung institute","city":"Cape Town","state":"Western Cape","zip":"7700","country":"South Africa","geoPoint":{"lat":-33.92584,"lon":18.42322}},{"facility":"Cape Town Medical Research Centre","city":"Kuilsriver","state":"Western Cape","zip":"7580","country":"South Africa"},{"facility":"Paarl Research Centre","city":"Paarl","state":"Western Cape","zip":"7646","country":"South Africa","geoPoint":{"lat":-33.73378,"lon":18.97523}},{"facility":"Clinical Projects Research","city":"Worcester","state":"Western Cape","zip":"6850","country":"South Africa","geoPoint":{"lat":-33.64651,"lon":19.44852}},{"facility":"Centro Periférico de Especialidades Bola Azul","city":"Almeria","zip":"04009","country":"Spain","geoPoint":{"lat":36.83814,"lon":-2.45974}},{"facility":"Complejo Hospitalario Universitario A Coruña","city":"La Coruña","zip":"15006","country":"Spain","geoPoint":{"lat":43.37135,"lon":-8.396}},{"facility":"Hospital Gregorio Marañón","city":"Madrid","zip":"28009","country":"Spain","geoPoint":{"lat":40.4165,"lon":-3.70256}},{"facility":"Hospital Ramón y Cajal","city":"Madrid","zip":"28034","country":"Spain","geoPoint":{"lat":40.4165,"lon":-3.70256}},{"facility":"Hospital Universitario La Paz","city":"Madrid","zip":"28046","country":"Spain","geoPoint":{"lat":40.4165,"lon":-3.70256}},{"facility":"Hospital Clínico Virgen de la Victoria","city":"Málaga","zip":"29010","country":"Spain","geoPoint":{"lat":36.72016,"lon":-4.42034}},{"facility":"Hospital Son Llatzer","city":"Palma de Mallorca","zip":"07198","country":"Spain","geoPoint":{"lat":39.56939,"lon":2.65024}},{"facility":"Clínica Nuevas Tecnologías en Diabetes y Endocrinología","city":"Sevilla","zip":"41003","country":"Spain","geoPoint":{"lat":37.38283,"lon":-5.97317}},{"facility":"Hospital Virgen de la Macarena","city":"Sevilla","zip":"41009","country":"Spain","geoPoint":{"lat":37.38283,"lon":-5.97317}},{"facility":"Hospital Infanta Luisa","city":"Sevilla","zip":"41010","country":"Spain","geoPoint":{"lat":37.38283,"lon":-5.97317}},{"facility":"Hospital La Fe - Endocrinología y Nutrición","city":"Valencia","zip":"46026","country":"Spain","geoPoint":{"lat":39.46975,"lon":-0.37739}},{"facility":"Lundberglab for Diab Research","city":"Göteborg","zip":"413 45","country":"Sweden","geoPoint":{"lat":57.70716,"lon":11.96679}},{"facility":"Centralsjukhuset, Kristianstad","city":"Kristianstad","zip":"291 85","country":"Sweden","geoPoint":{"lat":56.03129,"lon":14.15242}},{"facility":"Clemenstorgets Hjärtmottagning","city":"Lund","zip":"222 21","country":"Sweden","geoPoint":{"lat":55.70584,"lon":13.19321}},{"facility":"Karolinska Universitetssjukhuset Solna,FOU Tema Hjärta Kärl","city":"Stockholm","zip":"171 76","country":"Sweden","geoPoint":{"lat":59.33258,"lon":18.0649}},{"facility":"Enheten för Kliniska Studier (EKS), Örebro","city":"Örebro","zip":"703 62","country":"Sweden","geoPoint":{"lat":59.27412,"lon":15.2066}},{"facility":"Hjärtenheten","city":"Östersund","zip":"831 83","country":"Sweden","geoPoint":{"lat":63.1792,"lon":14.63566}},{"facility":"HsinChu MacKay Memorial Hospital","city":"Hsinchu City","zip":"300","country":"Taiwan"},{"facility":"E-DA Hosiptal","city":"Kaohsiung City","zip":"82445","country":"Taiwan","geoPoint":{"lat":22.61626,"lon":120.31333}},{"facility":"MacKay Memorial Hospital-Tamsui Branch","city":"New Taipei City","zip":"25160","country":"Taiwan","geoPoint":{"lat":25.01111,"lon":121.44583}},{"facility":"National Taiwan University Hospital","city":"Taipei","zip":"100","country":"Taiwan","geoPoint":{"lat":25.04776,"lon":121.53185}},{"facility":"Chang Gung Memorial Hospital Linkou","city":"Taoyuan City","zip":"333","country":"Taiwan","geoPoint":{"lat":24.95233,"lon":121.20193}},{"facility":"Maharaj Nakorn Chiang Mai Hospital","city":"Chiang Mai","state":"Mueang Chiang Mai District","zip":"50200","country":"Thailand","geoPoint":{"lat":18.79038,"lon":98.98468}},{"facility":"Thammasat University Hospital","city":"Klong Luang, Pathumthani","state":"Pathumthani","zip":"12120","country":"Thailand"},{"facility":"King Chulalongkorn Memorial Hospital_Bangkok","city":"Bangkok","zip":"10330","country":"Thailand","geoPoint":{"lat":13.75398,"lon":100.50144}},{"facility":"Phramongkutklao Hospital-cardio","city":"Bangkok","zip":"10400","country":"Thailand","geoPoint":{"lat":13.75398,"lon":100.50144}},{"facility":"Phramongkutklao Hospital-neuro","city":"Bangkok","zip":"10400","country":"Thailand","geoPoint":{"lat":13.75398,"lon":100.50144}},{"facility":"Ramathibodi Hospital-Cardiovascular metabolic Center","city":"Bangkok","zip":"10400","country":"Thailand","geoPoint":{"lat":13.75398,"lon":100.50144}},{"facility":"Siriraj Hospital_Bangkok_1","city":"Bangkok","zip":"10700","country":"Thailand","geoPoint":{"lat":13.75398,"lon":100.50144}},{"facility":"Maharaj Nakorn Chiang Mai Hospital-cardio","city":"Chiang Mai","zip":"50200","country":"Thailand","geoPoint":{"lat":18.79038,"lon":98.98468}},{"facility":"Srinakarind Hospital-Division of Cardiology","city":"Khon kaen","zip":"40002","country":"Thailand","geoPoint":{"lat":16.44671,"lon":102.833}},{"facility":"Baskent Universitesi Adana","city":"Adana","zip":"01250","country":"Turkey","geoPoint":{"lat":37.00167,"lon":35.32889}},{"facility":"Cukurova University School of Medicine Balcali Hospital","city":"Adana","zip":"01330","country":"Turkey","geoPoint":{"lat":37.00167,"lon":35.32889}},{"facility":"Gulhane Egitim Arastirma Hastanesi","city":"Ankara","zip":"06010","country":"Turkey","geoPoint":{"lat":39.91987,"lon":32.85427}},{"facility":"Hacettepe Universitesi Tip Fakultesi Hastanesi","city":"Ankara","zip":"06100","country":"Turkey","geoPoint":{"lat":39.91987,"lon":32.85427}},{"facility":"Akdeniz University Tip Fakultesi Hastanesi","city":"Antalya","zip":"07058","country":"Turkey","geoPoint":{"lat":36.90812,"lon":30.69556}},{"facility":"Adnan Menderes Universitesi Uygulama ve Arastirma Hastanesi","city":"Aydin","zip":"09010","country":"Turkey","geoPoint":{"lat":37.84501,"lon":27.83963}},{"facility":"Eskisehir Osmangazi University-Cardio","city":"Eskisehir","zip":"26040","country":"Turkey","geoPoint":{"lat":39.77667,"lon":30.52056}},{"facility":"Gaziantep Universitesi Tip Fakultesi Hastanesi","city":"Gaziantep","zip":"27070","country":"Turkey","geoPoint":{"lat":37.05944,"lon":37.3825}},{"facility":"Koc University Hospital","city":"Istanbul","zip":"34010","country":"Turkey","geoPoint":{"lat":41.01384,"lon":28.94966}},{"facility":"Seyrantepe Hamidiye Etfal Egitim ve Arastirma Hastanesi","city":"Istanbul","zip":"34371","country":"Turkey","geoPoint":{"lat":41.01384,"lon":28.94966}},{"facility":"Istanbul Universitesi Istanbul Tip Fakultesi - Endokrinoloji","city":"Istanbul","zip":"34390","country":"Turkey","geoPoint":{"lat":41.01384,"lon":28.94966}},{"facility":"TC SB Ist.İl Sag.Müd.Prof.Dr.Cemil Tascioglu Sehir Hastanesi","city":"Istanbul","zip":"34400","country":"Turkey","geoPoint":{"lat":41.01384,"lon":28.94966}},{"facility":"Fatih Sultan Mehmet Hastanesi","city":"Istanbul","zip":"34752","country":"Turkey","geoPoint":{"lat":41.01384,"lon":28.94966}},{"facility":"Umraniye Egitim ve Arastirma Hastanesi","city":"Istanbul","zip":"34760","country":"Turkey","geoPoint":{"lat":41.01384,"lon":28.94966}},{"facility":"T.C. Saglik Bakanligi Pendik Egitim ve Arastirma Hastanesi","city":"Istanbul","zip":"34899","country":"Turkey","geoPoint":{"lat":41.01384,"lon":28.94966}},{"facility":"Ege University School of Medicine, Cardiology Department","city":"Izmir","zip":"35100","country":"Turkey","geoPoint":{"lat":38.41273,"lon":27.13838}},{"facility":"Izmir Tepecik Training and Research Hospital","city":"Izmir","zip":"35180","country":"Turkey","geoPoint":{"lat":38.41273,"lon":27.13838}},{"facility":"Dokuz Eylul University School of Medicine, Cardiology","city":"Izmir","zip":"35340","country":"Turkey","geoPoint":{"lat":38.41273,"lon":27.13838}},{"facility":"Erciyes University Cardiology","city":"Kayseri","zip":"38039","country":"Turkey","geoPoint":{"lat":38.73222,"lon":35.48528}},{"facility":"Mersin University Cardiology","city":"Mersin","zip":"33343","country":"Turkey","geoPoint":{"lat":36.79526,"lon":34.61792}},{"facility":"Cumhuriyet University School of Medicine-Cardiology","city":"Sivas","zip":"58140","country":"Turkey","geoPoint":{"lat":39.74833,"lon":37.01611}},{"facility":"CMI City Clinical Hospital #3","city":"Chernivtsi","zip":"58000","country":"Ukraine","geoPoint":{"lat":48.29149,"lon":25.94034}},{"facility":"CNPI \"Kharkiv City Clinical Hospital #27\"","city":"Kharkiv","zip":"61002","country":"Ukraine","geoPoint":{"lat":49.98081,"lon":36.25272}},{"facility":"NI of Therapy na LT Malaya of NAMSU - Chr. Non-Communicable","city":"Kharkiv","zip":"61039","country":"Ukraine","geoPoint":{"lat":49.98081,"lon":36.25272}},{"facility":"Oleksandrivska Clinical Hospital - cardio rehabilitation dep","city":"Kyiv","zip":"01023","country":"Ukraine","geoPoint":{"lat":50.45466,"lon":30.5238}},{"facility":"Medical Center of LLC 'Harmoniya Krasy'","city":"Kyiv","zip":"01135","country":"Ukraine","geoPoint":{"lat":50.45466,"lon":30.5238}},{"facility":"Medical Center 'Ok!Clinic+' of II of Clinical Studies LLC","city":"Kyiv","zip":"02091","country":"Ukraine","geoPoint":{"lat":50.45466,"lon":30.5238}},{"facility":"Kyiv City Clinical Hospital of Emergency Care - Infarction","city":"Kyiv","zip":"02660","country":"Ukraine","geoPoint":{"lat":50.45466,"lon":30.5238}},{"facility":"Clinical Hosp on the railway line №2 branch PHC JSC Ukrzaliz","city":"Kyiv","zip":"03049","country":"Ukraine","geoPoint":{"lat":50.45466,"lon":30.5238}},{"facility":"MD Strazheska Institute of Cardiology of NAMSU - Resuscitati","city":"Kyiv","zip":"03151","country":"Ukraine","geoPoint":{"lat":50.45466,"lon":30.5238}},{"facility":"Kyiv Regional Hospital","city":"Kyiv","zip":"04053","country":"Ukraine","geoPoint":{"lat":50.45466,"lon":30.5238}},{"facility":"City Clinical Emergency Hospital - Cardiology department","city":"Lviv","zip":"79059","country":"Ukraine","geoPoint":{"lat":49.83826,"lon":24.02324}},{"facility":"Odesa Regional Clinical Hospital","city":"Odesa","zip":"65025","country":"Ukraine","geoPoint":{"lat":46.47747,"lon":30.73262}},{"facility":"Odessa Clinical Railway Hospital - Outpatient department","city":"Odesa","zip":"65059","country":"Ukraine","geoPoint":{"lat":46.47747,"lon":30.73262}},{"facility":"City Clinical Hospital #1 - Therapy department","city":"Vinnytsia","zip":"21000","country":"Ukraine","geoPoint":{"lat":49.23278,"lon":28.48097}},{"facility":"Vinnytsia Regional Clinical Hospital - Cardiology department","city":"Vinnytsia","zip":"21018","country":"Ukraine","geoPoint":{"lat":49.23278,"lon":28.48097}},{"facility":"Central City Hospital #1 - Scientific-Research center","city":"Zhytomyr","zip":"10002","country":"Ukraine","geoPoint":{"lat":50.26487,"lon":28.67669}},{"facility":"Zhytomir Regional Clinical Hospital - Cardio-Arrhytm. centre","city":"Zhytomyr","zip":"10002","country":"Ukraine","geoPoint":{"lat":50.26487,"lon":28.67669}},{"facility":"Clifton Medical Centre","city":"Rotherham","state":"South Yorkshire","zip":"S65 1DA","country":"United Kingdom","geoPoint":{"lat":53.43012,"lon":-1.35678}},{"facility":"St. Richards Hospital","city":"Chichester","state":"West Sussex","zip":"PO19 6SE","country":"United Kingdom","geoPoint":{"lat":50.83673,"lon":-0.78003}},{"facility":"Crouch Oak Family Practice","city":"Addlestone","zip":"KT15 2BH","country":"United Kingdom","geoPoint":{"lat":51.37135,"lon":-0.49353}},{"facility":"Stroke Trials Office","city":"Airdrie","zip":"ML6 0JS","country":"United Kingdom","geoPoint":{"lat":55.86602,"lon":-3.98025}},{"facility":"Antrim Area Hospital","city":"Antrim","zip":"BT42 2RL","country":"United Kingdom","geoPoint":{"lat":54.7,"lon":-6.2}},{"facility":"Axbridge & Wedmore Medical Practice","city":"Axbridge","zip":"BS26 2BJ","country":"United Kingdom","geoPoint":{"lat":51.28466,"lon":-2.82078}},{"facility":"Bermuda Practice","city":"Basingstoke","zip":"RG24 9GT","country":"United Kingdom","geoPoint":{"lat":51.26249,"lon":-1.08708}},{"facility":"Sea Road Surgery","city":"Bexhill-on-Sea","zip":"TN40 1JJ","country":"United Kingdom","geoPoint":{"lat":50.85023,"lon":0.47095}},{"facility":"Birmingham Heartlands Hospital","city":"Birmingham","zip":"B9 5SS","country":"United Kingdom","geoPoint":{"lat":52.48142,"lon":-1.89983}},{"facility":"Layton Medical Centre","city":"Blackpool","zip":"FY3 7EN","country":"United Kingdom","geoPoint":{"lat":53.81667,"lon":-3.05}},{"facility":"Bollington Medical Centre","city":"Bollington","zip":"SK10 5JH","country":"United Kingdom","geoPoint":{"lat":53.29446,"lon":-2.10963}},{"facility":"The Health Centre","city":"Bradford-on-Avon","zip":"BA15 1DQ","country":"United Kingdom","geoPoint":{"lat":51.34772,"lon":-2.25065}},{"facility":"Southmead Hospital","city":"Bristol","zip":"BS10 5NB","country":"United Kingdom","geoPoint":{"lat":51.45523,"lon":-2.59665}},{"facility":"Ely Bridge Surgery","city":"Cardiff","zip":"CF5 4AD","country":"United Kingdom","geoPoint":{"lat":51.48,"lon":-3.18}},{"facility":"St Peters Hospital, Chertsey","city":"Chertsey","zip":"KT16 0PZ","country":"United Kingdom","geoPoint":{"lat":51.38812,"lon":-0.50782}},{"facility":"Countess Of Chester NHS Foundation Trust","city":"Chester","zip":"CH2 1UL","country":"United Kingdom","geoPoint":{"lat":53.1905,"lon":-2.89189}},{"facility":"WISDEM Centre","city":"Coventry","zip":"CV2 2DX","country":"United Kingdom","geoPoint":{"lat":52.40656,"lon":-1.51217}},{"facility":"Kings College Hospital","city":"Denmark Hill, London","zip":"SE5 9RS","country":"United Kingdom"},{"facility":"Ninewells Hospital","city":"Dundee","zip":"DD1 9SY","country":"United Kingdom","geoPoint":{"lat":56.46913,"lon":-2.97489}},{"facility":"Royal Devon University Healthcare NHS Foundation Trust","city":"Exeter","zip":"EX2 5DW","country":"United Kingdom","geoPoint":{"lat":50.7236,"lon":-3.52751}},{"facility":"Harrogate District Hospital","city":"Harrogate, North Yorkshire","zip":"HG2 7SX","country":"United Kingdom"},{"facility":"Department Of Cardiac Research","city":"Harrow","zip":"HA1 3UJ","country":"United Kingdom","geoPoint":{"lat":51.57142,"lon":-0.33371}},{"facility":"Wycombe General Hospital","city":"High Wycombe","zip":"HP11 2TT","country":"United Kingdom","geoPoint":{"lat":51.62907,"lon":-0.74934}},{"facility":"Hull Royal Infirmary","city":"Hull","zip":"HU3 2JZ","country":"United Kingdom","geoPoint":{"lat":53.7446,"lon":-0.33525}},{"facility":"Cardiology","city":"Leicester","zip":"LE3 9QP","country":"United Kingdom","geoPoint":{"lat":52.6386,"lon":-1.13169}},{"facility":"Lincoln County Hospital","city":"Lincoln","zip":"LN2 5QY","country":"United Kingdom","geoPoint":{"lat":53.22683,"lon":-0.53792}},{"facility":"University Hospital Aintree","city":"Liverpool","zip":"L9 7AL","country":"United Kingdom","geoPoint":{"lat":53.41058,"lon":-2.97794}},{"facility":"Guys Hospital","city":"London","zip":"SE1 9RT","country":"United Kingdom","geoPoint":{"lat":51.50853,"lon":-0.12574}},{"facility":"Imperial College London","city":"London","zip":"W12 0HS","country":"United Kingdom","geoPoint":{"lat":51.50853,"lon":-0.12574}},{"facility":"Diabetes Centre North Manchester General Hospital","city":"Manchester","zip":"M8 5RB","country":"United Kingdom","geoPoint":{"lat":53.48095,"lon":-2.23743}},{"facility":"Cardio Research","city":"Middlesbrough","zip":"TS4 3BW","country":"United Kingdom","geoPoint":{"lat":54.57623,"lon":-1.23483}},{"facility":"University Dept of Medicine, Derriford Hospital, Plymouth","city":"Plymouth","zip":"PL6 8DH","country":"United Kingdom","geoPoint":{"lat":50.37153,"lon":-4.14305}},{"facility":"Clarence Medical Centre","city":"Rhyl","zip":"LL18 1DA","country":"United Kingdom","geoPoint":{"lat":53.31929,"lon":-3.49228}},{"facility":"Ashfields Primary Care Centre","city":"Sandbach","zip":"CW11 1EQ","country":"United Kingdom","geoPoint":{"lat":53.14515,"lon":-2.36251}},{"facility":"Clinical Research Unit","city":"Somerset","zip":"BA21 4AT","country":"United Kingdom"},{"facility":"Moorgreen Hospital","city":"Southampton","zip":"SO30 3JB","country":"United Kingdom","geoPoint":{"lat":50.90395,"lon":-1.40428}},{"facility":"Lister Hospital","city":"Stevenage","zip":"SG1 4AB","country":"United Kingdom","geoPoint":{"lat":51.90224,"lon":-0.20256}},{"facility":"Sunderland Royal Hospital","city":"Sunderland","zip":"SR4 7TP","country":"United Kingdom","geoPoint":{"lat":54.90465,"lon":-1.38222}},{"facility":"Musgrove Park Hospital","city":"Taunton","zip":"TA1 5DA","country":"United Kingdom","geoPoint":{"lat":51.01494,"lon":-3.10293}},{"facility":"Cardiology Department","city":"Torquay","zip":"TQ2 7AA","country":"United Kingdom","geoPoint":{"lat":50.46198,"lon":-3.5252}},{"facility":"Royal Cornwall Hospital (Treliske)","city":"Truro","zip":"TR1 3LJ","country":"United Kingdom","geoPoint":{"lat":50.26526,"lon":-5.05436}},{"facility":"University Hospital Wishaw","city":"Wishaw","zip":"ML2 0DP","country":"United Kingdom","geoPoint":{"lat":55.76667,"lon":-3.91667}}]},"referencesModule":{"references":[{"pmid":"32916609","type":"RESULT","citation":"Ryan DH, Lingvay I, Colhoun HM, Deanfield J, Emerson SS, Kahn SE, Kushner RF, Marso S, Plutzky J, Brown-Frandsen K, Gronning MOL, Hovingh GK, Holst AG, Ravn H, Lincoff AM. Semaglutide Effects on Cardiovascular Outcomes in People With Overweight or Obesity (SELECT) rationale and design. Am Heart J. 2020 Nov;229:61-69. doi: 10.1016/j.ahj.2020.07.008. Epub 2020 Jul 17."},{"pmid":"33567185","type":"RESULT","citation":"Wilding JPH, Batterham RL, Calanna S, Davies M, Van Gaal LF, Lingvay I, McGowan BM, Rosenstock J, Tran MTD, Wadden TA, Wharton S, Yokote K, Zeuthen N, Kushner RF; STEP 1 Study Group. Once-Weekly Semaglutide in Adults with Overweight or Obesity. N Engl J Med. 2021 Mar 18;384(11):989-1002. doi: 10.1056/NEJMoa2032183. Epub 2021 Feb 10."},{"pmid":"37952131","type":"RESULT","citation":"Lincoff AM, Brown-Frandsen K, Colhoun HM, Deanfield J, Emerson SS, Esbjerg S, Hardt-Lindberg S, Hovingh GK, Kahn SE, Kushner RF, Lingvay I, Oral TK, Michelsen MM, Plutzky J, Tornoe CW, Ryan DH; SELECT Trial Investigators. Semaglutide and Cardiovascular Outcomes in Obesity without Diabetes. N Engl J Med. 2023 Dec 14;389(24):2221-2232. doi: 10.1056/NEJMoa2307563. Epub 2023 Nov 11."},{"pmid":"35373878","type":"DERIVED","citation":"Leite AR, Angelico-Goncalves A, Vasques-Novoa F, Borges-Canha M, Leite-Moreira A, Neves JS, Ferreira JP. Effect of glucagon-like peptide-1 receptor agonists on cardiovascular events in overweight or obese adults without diabetes: A meta-analysis of placebo-controlled randomized trials. Diabetes Obes Metab. 2022 Aug;24(8):1676-1680. doi: 10.1111/dom.14707. Epub 2022 May 3."},{"pmid":"35175229","type":"DERIVED","citation":"Mares AC, Chatterjee S, Mukherjee D. Semaglutide for weight loss and cardiometabolic risk reduction in overweight/obesity. Curr Opin Cardiol. 2022 Jul 1;37(4):350-355. doi: 10.1097/HCO.0000000000000955. Epub 2022 Feb 16."},{"pmid":"34693515","type":"DERIVED","citation":"Kanie T, Mizuno A, Takaoka Y, Suzuki T, Yoneoka D, Nishikawa Y, Tam WWS, Morze J, Rynkiewicz A, Xin Y, Wu O, Providencia R, Kwong JS. Dipeptidyl peptidase-4 inhibitors, glucagon-like peptide 1 receptor agonists and sodium-glucose co-transporter-2 inhibitors for people with cardiovascular disease: a network meta-analysis. Cochrane Database Syst Rev. 2021 Oct 25;10(10):CD013650. doi: 10.1002/14651858.CD013650.pub2."}]},"ipdSharingStatementModule":{"ipdSharing":"YES","description":"According to the Novo Nordisk disclosure commitment on novonordisk-trials.com","url":"http://novonordisk-trials.com"}},"derivedSection":{"miscInfoModule":{"versionHolder":"2024-02-14"},"conditionBrowseModule":{"meshes":[{"id":"D000009765","term":"Obesity"},{"id":"D000050177","term":"Overweight"}],"ancestors":[{"id":"D000044343","term":"Overnutrition"},{"id":"D000009748","term":"Nutrition Disorders"},{"id":"D000001835","term":"Body Weight"}],"browseLeaves":[{"id":"M12391","name":"Obesity","asFound":"Obesity","relevance":"HIGH"},{"id":"M21996","name":"Stroke","relevance":"LOW"},{"id":"M25876","name":"Overweight","asFound":"Overweight","relevance":"HIGH"},{"id":"M9109","name":"Heart Diseases","relevance":"LOW"},{"id":"M24997","name":"Overnutrition","relevance":"LOW"},{"id":"M12374","name":"Nutrition Disorders","relevance":"LOW"},{"id":"M4804","name":"Body Weight","relevance":"LOW"}],"browseBranches":[{"abbrev":"BC18","name":"Nutritional and Metabolic Diseases"},{"abbrev":"BC23","name":"Symptoms and General Pathology"},{"abbrev":"All","name":"All Conditions"},{"abbrev":"BC10","name":"Nervous System Diseases"},{"abbrev":"BC14","name":"Heart and Blood Diseases"}]}},"hasResults":false}