{"protocolSection":{"identificationModule":{"nctId":"NCT04023552","orgStudyIdInfo":{"id":"CTQJ230A12301"},"secondaryIdInfos":[{"id":"CTQJ230A12301","type":"OTHER","domain":"Novartis"},{"id":"2019-001076-11","type":"EUDRACT_NUMBER"}],"organization":{"fullName":"Novartis","class":"INDUSTRY"},"briefTitle":"Assessing the Impact of Lipoprotein (a) Lowering With Pelacarsen (TQJ230) on Major Cardiovascular Events in Patients With CVD","officialTitle":"A Randomized Double-blind, Placebo-controlled, Multicenter Trial Assessing the Impact of Lipoprotein (a) Lowering With Pelacarsen (TQJ230) on Major Cardiovascular Events in Patients With Established Cardiovascular Disease","acronym":"Lp(a)HORIZON"},"statusModule":{"statusVerifiedDate":"2023-11","overallStatus":"ACTIVE_NOT_RECRUITING","expandedAccessInfo":{"hasExpandedAccess":false},"startDateStruct":{"date":"2019-12-12","type":"ACTUAL"},"primaryCompletionDateStruct":{"date":"2025-05-29","type":"ESTIMATED"},"completionDateStruct":{"date":"2025-05-30","type":"ESTIMATED"},"studyFirstSubmitDate":"2019-07-16","studyFirstSubmitQcDate":"2019-07-16","studyFirstPostDateStruct":{"date":"2019-07-17","type":"ACTUAL"},"lastUpdateSubmitDate":"2023-11-13","lastUpdatePostDateStruct":{"date":"2023-11-14","type":"ACTUAL"}},"sponsorCollaboratorsModule":{"responsibleParty":{"type":"SPONSOR"},"leadSponsor":{"name":"Novartis Pharmaceuticals","class":"INDUSTRY"}},"oversightModule":{"oversightHasDmc":true,"isFdaRegulatedDrug":true,"isFdaRegulatedDevice":false},"descriptionModule":{"briefSummary":"This is a pivotal phase 3 study designed to support an indication for the reduction of cardiovascular risk in patients with established CVD and elevated Lp(a)"},"conditionsModule":{"conditions":["Cardiovascular Disease and Lipoprotein(a)"],"keywords":["Lipoprotein(a), Lp(a),CVD, myocardial infarction, PAD,Stroke, Pelacarsen"]},"designModule":{"studyType":"INTERVENTIONAL","phases":["PHASE3"],"designInfo":{"allocation":"RANDOMIZED","interventionModel":"PARALLEL","primaryPurpose":"TREATMENT","maskingInfo":{"masking":"DOUBLE","whoMasked":["PARTICIPANT","INVESTIGATOR"]}},"enrollmentInfo":{"count":8323,"type":"ACTUAL"}},"armsInterventionsModule":{"armGroups":[{"label":"TQJ230","type":"EXPERIMENTAL","description":"TQJ230 80 mg injected monthly administered subcutaneously","interventionNames":["Drug: TQJ230"]},{"label":"Placebo","type":"PLACEBO_COMPARATOR","description":"Monthly subcutaneous injections.","interventionNames":["Drug: Placebo"]}],"interventions":[{"type":"DRUG","name":"TQJ230","description":"TQJ230 80 mg injected monthly administered subcutaneously","armGroupLabels":["TQJ230"]},{"type":"DRUG","name":"Placebo","description":"Placebo to match TQJ230 prefilled syringe to be injected subcutaneously","armGroupLabels":["Placebo"],"otherNames":["Placebo to match TQJ230"]}]},"outcomesModule":{"primaryOutcomes":[{"measure":"Time to first occurrence of clinical endpoint committee confirmed expanded major adverse cardiovascular events in patients with elevated Lp(a) ≥ 70 mg/dL","description":"Demonstrate the superiority of pelacarsen (TQJ230) compared to placebo in reducing the risk of expanded MACE (cardiovascular death, non-fatal MI, non-fatal stroke and urgent coronary re-vascularization requiring hospitalization) in the overall study population with established CVD and (Lp(a) ≥ 70 mg/dL)","timeFrame":"approximately 4 years"},{"measure":"Time to the first occurrence of clinical endpoint committee confirmed expanded major adverse cardiovascular events in a population of patients with elevated Lp(a) ≥ 90 mg/dL.","description":"Demonstrate the superiority of pelacarsen (TQJ230) compared to placebo in reducing the risk of expanded MACE (cardiovascular death, non-fatal MI, non-fatal stroke and urgent coronary re-vascularization requiring hospitalization) in the overall study population with established CVD and (Lp(a) ≥ 90 mg/dL)","timeFrame":"approximately 4 years"}],"secondaryOutcomes":[{"measure":"Time to the first occurrence of the clinical endpoint committee confirmed composite endpoint of major adverse cardiovascular events (CV death, non-fatal MI, and non-fatal stroke)","description":"Demonstrate the superiority of pelacarsen (TQJ230) compared to placebo in reducing the risk of the MACE composite of CV death, nonfatal MI and non-fatal stroke.","timeFrame":"approximately 4 years"},{"measure":"Time to the first occurrence of the clinical endpoint committee confirmed composite endpoint of coronary heart disease: coronary heart disease death, non-fatal MI, urgent coronary re-vascularization requiring hospitalization","description":"Demonstrate the superiority of pelacarsen (TQJ230) compared to placebo in reducing the risk of the composite of coronary heart disease (CHD) outcomes: death due to CHD, nonfatal MI and urgent coronary revascularization requiring hospitalization.","timeFrame":"approximately 4 years"},{"measure":"Number of participants with confirmed all-cause death","description":"Evaluation by clinical endpoint committee the rate of all-cause death","timeFrame":"approximately 4 years"}]},"eligibilityModule":{"eligibilityCriteria":"Key Inclusion Criteria\n\n* Lp(a) ≥ 70 mg/dL at the screening visit, measured at the Central laboratory\n* Myocardial infarction: ≥ 3 months from screening and randomization to ≤ 10 years prior to the screening visit\n* Ischemic stroke: ≥ 3 months from screening and randomization to ≤ 10 years prior to the screening visit\n* Clinically significant symptomatic peripheral artery disease\n\nKey Exclusion Criteria\n\n* Uncontrolled hypertension\n* Heart failure New York Heart Association (NYHA) class IV\n* History of malignancy of any organ system\n* History of hemorrhagic stroke or other major bleeding\n* Platelet count ≤LLN\n* Active liver disease or hepatic dysfunction\n* Significant kidney disease\n* Pregnant or nursing women\n\nOther protocol-defined inclusion/exclusion criteria may apply at the end.","healthyVolunteers":false,"sex":"ALL","minimumAge":"18 Years","maximumAge":"80 Years","stdAges":["ADULT","OLDER_ADULT"]},"contactsLocationsModule":{"overallOfficials":[{"name":"Novartis Pharmaceuticals","affiliation":"Novartis Pharmaceuticals","role":"STUDY_DIRECTOR"}],"locations":[{"facility":"Novartis Investigative Site","city":"Andalusia","state":"Alabama","zip":"36420","country":"United States","geoPoint":{"lat":31.30809,"lon":-86.48245}},{"facility":"Novartis Investigative Site","city":"Birmingham","state":"Alabama","zip":"35243","country":"United States","geoPoint":{"lat":33.52066,"lon":-86.80249}},{"facility":"Novartis Investigative Site","city":"Huntsville","state":"Alabama","zip":"35801","country":"United States","geoPoint":{"lat":34.7304,"lon":-86.58594}},{"facility":"Novartis Investigative Site","city":"Mobile","state":"Alabama","zip":"36608","country":"United States","geoPoint":{"lat":30.69436,"lon":-88.04305}},{"facility":"Novartis Investigative Site","city":"Cottonwood","state":"Arizona","zip":"86326","country":"United States","geoPoint":{"lat":34.73919,"lon":-112.00988}},{"facility":"Novartis Investigative Site","city":"Gilbert","state":"Arizona","zip":"85297","country":"United States","geoPoint":{"lat":33.35283,"lon":-111.78903}},{"facility":"Novartis Investigative Site","city":"Sun City West","state":"Arizona","zip":"85375","country":"United States","geoPoint":{"lat":33.66198,"lon":-112.34127}},{"facility":"Novartis Investigative Site","city":"Tucson","state":"Arizona","zip":"85745","country":"United States","geoPoint":{"lat":32.22174,"lon":-110.92648}},{"facility":"Novartis Investigative Site","city":"Little Rock","state":"Arkansas","zip":"72204","country":"United States","geoPoint":{"lat":34.74648,"lon":-92.28959}},{"facility":"Novartis Investigative Site","city":"Beverly Hills","state":"California","zip":"90210","country":"United States","geoPoint":{"lat":34.07362,"lon":-118.40036}},{"facility":"Novartis Investigative Site","city":"Beverly Hills","state":"California","zip":"90211","country":"United States","geoPoint":{"lat":34.07362,"lon":-118.40036}},{"facility":"Novartis Investigative Site","city":"Covina","state":"California","zip":"91723","country":"United States","geoPoint":{"lat":34.09001,"lon":-117.89034}},{"facility":"Novartis Investigative Site","city":"Huntington Beach","state":"California","zip":"92648","country":"United States","geoPoint":{"lat":33.6603,"lon":-117.99923}},{"facility":"Novartis Investigative Site","city":"La Jolla","state":"California","zip":"92037","country":"United States","geoPoint":{"lat":32.84727,"lon":-117.2742}},{"facility":"Novartis Investigative Site","city":"Long Beach","state":"California","zip":"90806","country":"United States","geoPoint":{"lat":33.76696,"lon":-118.18923}},{"facility":"Novartis Investigative Site","city":"Los Angeles","state":"California","zip":"90033","country":"United States","geoPoint":{"lat":34.05223,"lon":-118.24368}},{"facility":"Novartis Investigative Site","city":"Los Angeles","state":"California","zip":"90073","country":"United States","geoPoint":{"lat":34.05223,"lon":-118.24368}},{"facility":"Novartis Investigative Site","city":"Northridge","state":"California","zip":"91325","country":"United States","geoPoint":{"lat":34.22834,"lon":-118.53675}},{"facility":"Novartis Investigative Site","city":"Orange","state":"California","zip":"92868","country":"United States","geoPoint":{"lat":33.78779,"lon":-117.85311}},{"facility":"Novartis Investigative Site","city":"San Diego","state":"California","zip":"92103","country":"United States","geoPoint":{"lat":32.71533,"lon":-117.15726}},{"facility":"Novartis Investigative Site","city":"San Francisco","state":"California","zip":"94115","country":"United States","geoPoint":{"lat":37.77493,"lon":-122.41942}},{"facility":"Novartis Investigative Site","city":"San Francisco","state":"California","zip":"94158","country":"United States","geoPoint":{"lat":37.77493,"lon":-122.41942}},{"facility":"Novartis Investigative Site","city":"Santa Ana","state":"California","zip":"92704","country":"United States","geoPoint":{"lat":33.74557,"lon":-117.86783}},{"facility":"Novartis Investigative Site","city":"Stanford","state":"California","zip":"94305","country":"United States","geoPoint":{"lat":37.42411,"lon":-122.16608}},{"facility":"Novartis Investigative Site","city":"Stockton","state":"California","zip":"95204","country":"United States","geoPoint":{"lat":37.9577,"lon":-121.29078}},{"facility":"Novartis Investigative Site","city":"West Hills","state":"California","zip":"91307","country":"United States","geoPoint":{"lat":34.19731,"lon":-118.64398}},{"facility":"Novartis Investigative Site","city":"Aurora","state":"Colorado","zip":"80045","country":"United States","geoPoint":{"lat":39.72943,"lon":-104.83192}},{"facility":"Novartis Investigative Site","city":"Bridgeport","state":"Connecticut","zip":"06610","country":"United States","geoPoint":{"lat":41.16704,"lon":-73.20483}},{"facility":"Novartis Investigative Site","city":"Hartford","state":"Connecticut","zip":"06102-5037","country":"United States","geoPoint":{"lat":41.76371,"lon":-72.68509}},{"facility":"Novartis Investigative Site","city":"Waterbury","state":"Connecticut","zip":"06708","country":"United States","geoPoint":{"lat":41.55815,"lon":-73.0515}},{"facility":"Novartis Investigative Site","city":"Boca Raton","state":"Florida","zip":"33434","country":"United States","geoPoint":{"lat":26.3669,"lon":-80.13033}},{"facility":"Novartis Investigative Site","city":"Bradenton","state":"Florida","zip":"34209","country":"United States","geoPoint":{"lat":27.49893,"lon":-82.57482}},{"facility":"Novartis Investigative Site","city":"Brandon","state":"Florida","zip":"33511","country":"United States","geoPoint":{"lat":27.9378,"lon":-82.28592}},{"facility":"Novartis Investigative Site","city":"Fort Lauderdale","state":"Florida","zip":"33312","country":"United States","geoPoint":{"lat":26.12231,"lon":-80.14338}},{"facility":"Novartis Investigative Site","city":"Jacksonville","state":"Florida","zip":"32205","country":"United States","geoPoint":{"lat":30.33218,"lon":-81.65565}},{"facility":"Novartis Investigative Site","city":"Jacksonville","state":"Florida","zip":"32216","country":"United States","geoPoint":{"lat":30.33218,"lon":-81.65565}},{"facility":"Novartis Investigative Site","city":"Jacksonville","state":"Florida","zip":"32223","country":"United States","geoPoint":{"lat":30.33218,"lon":-81.65565}},{"facility":"Novartis Investigative Site","city":"Miami","state":"Florida","zip":"33133","country":"United States","geoPoint":{"lat":25.77427,"lon":-80.19366}},{"facility":"Novartis Investigative Site","city":"Naples","state":"Florida","zip":"34102","country":"United States","geoPoint":{"lat":26.14234,"lon":-81.79596}},{"facility":"Novartis Investigative Site","city":"Port Charlotte","state":"Florida","zip":"33952","country":"United States","geoPoint":{"lat":26.97617,"lon":-82.09064}},{"facility":"Novartis Investigative Site","city":"Port Orange","state":"Florida","zip":"32127","country":"United States","geoPoint":{"lat":29.13832,"lon":-80.99561}},{"facility":"Novartis Investigative Site","city":"Saint Augustine","state":"Florida","zip":"32086","country":"United States","geoPoint":{"lat":29.89469,"lon":-81.31452}},{"facility":"Novartis Investigative Site","city":"Wellington","state":"Florida","zip":"33449","country":"United States","geoPoint":{"lat":26.65868,"lon":-80.24144}},{"facility":"Novartis Investigative Site","city":"Atlanta","state":"Georgia","zip":"30084","country":"United States","geoPoint":{"lat":33.749,"lon":-84.38798}},{"facility":"Novartis Investigative Site","city":"Atlanta","state":"Georgia","zip":"30309","country":"United States","geoPoint":{"lat":33.749,"lon":-84.38798}},{"facility":"Novartis Investigative Site","city":"Atlanta","state":"Georgia","zip":"30322","country":"United States","geoPoint":{"lat":33.749,"lon":-84.38798}},{"facility":"Novartis Investigative Site","city":"Atlanta","state":"Georgia","zip":"30324","country":"United States","geoPoint":{"lat":33.749,"lon":-84.38798}},{"facility":"Novartis Investigative Site","city":"Dunwoody","state":"Georgia","zip":"30338","country":"United States","geoPoint":{"lat":33.94621,"lon":-84.33465}},{"facility":"Novartis Investigative Site","city":"Thomasville","state":"Georgia","zip":"31792","country":"United States","geoPoint":{"lat":30.83658,"lon":-83.97878}},{"facility":"Novartis Investigative Site","city":"Chicago","state":"Illinois","zip":"60612","country":"United States","geoPoint":{"lat":41.85003,"lon":-87.65005}},{"facility":"Novartis Investigative Site","city":"Park Ridge","state":"Illinois","zip":"60068","country":"United States","geoPoint":{"lat":42.01114,"lon":-87.84062}},{"facility":"Novartis Investigative Site","city":"Indianapolis","state":"Indiana","zip":"46202 4800","country":"United States","geoPoint":{"lat":39.76838,"lon":-86.15804}},{"facility":"Novartis Investigative Site","city":"Iowa City","state":"Iowa","zip":"52242","country":"United States","geoPoint":{"lat":41.66113,"lon":-91.53017}},{"facility":"Novartis Investigative Site","city":"Kansas City","state":"Kansas","zip":"66160","country":"United States","geoPoint":{"lat":39.11417,"lon":-94.62746}},{"facility":"Novartis Investigative Site","city":"Topeka","state":"Kansas","zip":"66606","country":"United States","geoPoint":{"lat":39.04833,"lon":-95.67804}},{"facility":"Novartis Investigative Site","city":"Alexandria","state":"Louisiana","zip":"71301","country":"United States","geoPoint":{"lat":31.31129,"lon":-92.44514}},{"facility":"Novartis Investigative Site","city":"Baton Rouge","state":"Louisiana","zip":"70808","country":"United States","geoPoint":{"lat":30.45075,"lon":-91.15455}},{"facility":"Novartis Investigative Site","city":"Bogalusa","state":"Louisiana","zip":"70427","country":"United States","geoPoint":{"lat":30.79102,"lon":-89.84869}},{"facility":"Novartis Investigative Site","city":"Bossier City","state":"Louisiana","zip":"71111","country":"United States","geoPoint":{"lat":32.51599,"lon":-93.73212}},{"facility":"Novartis Investigative Site","city":"Covington","state":"Louisiana","zip":"70433","country":"United States","geoPoint":{"lat":30.47549,"lon":-90.10042}},{"facility":"Novartis Investigative Site","city":"Eunice","state":"Louisiana","zip":"70535","country":"United States","geoPoint":{"lat":30.49437,"lon":-92.41763}},{"facility":"Novartis Investigative Site","city":"Hammond","state":"Louisiana","zip":"70403","country":"United States","geoPoint":{"lat":30.50463,"lon":-90.46293}},{"facility":"Novartis Investigative Site","city":"Houma","state":"Louisiana","zip":"70360","country":"United States","geoPoint":{"lat":29.59577,"lon":-90.71953}},{"facility":"Novartis Investigative Site","city":"Lafayette","state":"Louisiana","zip":"70501","country":"United States","geoPoint":{"lat":30.22409,"lon":-92.01984}},{"facility":"Novartis Investigative Site","city":"Metairie","state":"Louisiana","zip":"70006","country":"United States","geoPoint":{"lat":29.98409,"lon":-90.15285}},{"facility":"Novartis Investigative Site","city":"New Orleans","state":"Louisiana","zip":"70112","country":"United States","geoPoint":{"lat":29.95465,"lon":-90.07507}},{"facility":"Novartis Investigative Site","city":"New Orleans","state":"Louisiana","zip":"70115","country":"United States","geoPoint":{"lat":29.95465,"lon":-90.07507}},{"facility":"Novartis Investigative Site","city":"Opelousas","state":"Louisiana","zip":"70570","country":"United States","geoPoint":{"lat":30.53353,"lon":-92.08151}},{"facility":"Novartis Investigative Site","city":"Shreveport","state":"Louisiana","zip":"71101","country":"United States","geoPoint":{"lat":32.52515,"lon":-93.75018}},{"facility":"Novartis Investigative Site","city":"Shreveport","state":"Louisiana","zip":"71105","country":"United States","geoPoint":{"lat":32.52515,"lon":-93.75018}},{"facility":"Novartis Investigative Site","city":"Slidell","state":"Louisiana","zip":"70458","country":"United States","geoPoint":{"lat":30.27519,"lon":-89.78117}},{"facility":"Novartis Investigative Site","city":"Zachary","state":"Louisiana","zip":"70791","country":"United States","geoPoint":{"lat":30.64852,"lon":-91.1565}},{"facility":"Novartis Investigative Site","city":"Scarborough","state":"Maine","zip":"04074","country":"United States","geoPoint":{"lat":43.57814,"lon":-70.32172}},{"facility":"Novartis Investigative Site","city":"Baltimore","state":"Maryland","zip":"21201","country":"United States","geoPoint":{"lat":39.29038,"lon":-76.61219}},{"facility":"Novartis Investigative Site","city":"Baltimore","state":"Maryland","zip":"21209","country":"United States","geoPoint":{"lat":39.29038,"lon":-76.61219}},{"facility":"Novartis Investigative Site","city":"Baltimore","state":"Maryland","zip":"21287","country":"United States","geoPoint":{"lat":39.29038,"lon":-76.61219}},{"facility":"Novartis Investigative Site","city":"Columbia","state":"Maryland","zip":"21044","country":"United States","geoPoint":{"lat":39.24038,"lon":-76.83942}},{"facility":"Novartis Investigative Site","city":"Fort Washington","state":"Maryland","zip":"20744","country":"United States","geoPoint":{"lat":38.70734,"lon":-77.02303}},{"facility":"Novartis Investigative Site","city":"Rockville","state":"Maryland","zip":"20850","country":"United States","geoPoint":{"lat":39.084,"lon":-77.15276}},{"facility":"Novartis Investigative Site","city":"Boston","state":"Massachusetts","zip":"02114-2696","country":"United States","geoPoint":{"lat":42.35843,"lon":-71.05977}},{"facility":"Novartis Investigative Site","city":"Boston","state":"Massachusetts","zip":"02115","country":"United States","geoPoint":{"lat":42.35843,"lon":-71.05977}},{"facility":"Novartis Investigative Site","city":"Detroit","state":"Michigan","zip":"48201","country":"United States","geoPoint":{"lat":42.33143,"lon":-83.04575}},{"facility":"Novartis Investigative Site","city":"Detroit","state":"Michigan","zip":"48202","country":"United States","geoPoint":{"lat":42.33143,"lon":-83.04575}},{"facility":"Novartis Investigative Site","city":"Flint","state":"Michigan","zip":"48504","country":"United States","geoPoint":{"lat":43.01253,"lon":-83.68746}},{"facility":"Novartis Investigative Site","city":"Grand Blanc","state":"Michigan","zip":"48439","country":"United States","geoPoint":{"lat":42.92753,"lon":-83.62995}},{"facility":"Novartis Investigative Site","city":"Kalamazoo","state":"Michigan","zip":"49008","country":"United States","geoPoint":{"lat":42.29171,"lon":-85.58723}},{"facility":"Novartis Investigative Site","city":"Petoskey","state":"Michigan","zip":"49770","country":"United States","geoPoint":{"lat":45.37334,"lon":-84.95533}},{"facility":"Novartis Investigative Site","city":"Saginaw","state":"Michigan","zip":"48601","country":"United States","geoPoint":{"lat":43.41947,"lon":-83.95081}},{"facility":"Novartis Investigative Site","city":"Wyoming","state":"Michigan","zip":"49519","country":"United States","geoPoint":{"lat":42.91336,"lon":-85.70531}},{"facility":"Novartis Investigative Site","city":"Maplewood","state":"Minnesota","zip":"55109","country":"United States","geoPoint":{"lat":44.95302,"lon":-92.99522}},{"facility":"Novartis Investigative Site","city":"Minneapolis","state":"Minnesota","zip":"55407","country":"United States","geoPoint":{"lat":44.97997,"lon":-93.26384}},{"facility":"Novartis Investigative Site","city":"Minneapolis","state":"Minnesota","zip":"55455","country":"United States","geoPoint":{"lat":44.97997,"lon":-93.26384}},{"facility":"Novartis Investigative Site","city":"Belzoni","state":"Mississippi","zip":"39038","country":"United States","geoPoint":{"lat":33.18429,"lon":-90.48926}},{"facility":"Novartis Investigative Site","city":"Southaven","state":"Mississippi","zip":"38671","country":"United States","geoPoint":{"lat":34.98898,"lon":-90.01259}},{"facility":"Novartis Investigative Site","city":"Yazoo City","state":"Mississippi","zip":"39194","country":"United States","geoPoint":{"lat":32.85513,"lon":-90.40565}},{"facility":"Novartis Investigative Site","city":"Saint Louis","state":"Missouri","zip":"63110","country":"United States","geoPoint":{"lat":38.62727,"lon":-90.19789}},{"facility":"Novartis Investigative Site","city":"Saint Louis","state":"Missouri","zip":"63128","country":"United States","geoPoint":{"lat":38.62727,"lon":-90.19789}},{"facility":"Novartis Investigative Site","city":"Saint Louis","state":"Missouri","zip":"63141","country":"United States","geoPoint":{"lat":38.62727,"lon":-90.19789}},{"facility":"Novartis Investigative Site","city":"Saint Peters","state":"Missouri","zip":"63303","country":"United States","geoPoint":{"lat":38.80033,"lon":-90.62651}},{"facility":"Novartis Investigative Site","city":"Lincoln","state":"Nebraska","zip":"68526","country":"United States","geoPoint":{"lat":40.8,"lon":-96.66696}},{"facility":"Novartis Investigative Site","city":"Omaha","state":"Nebraska","zip":"68114","country":"United States","geoPoint":{"lat":41.25626,"lon":-95.94043}},{"facility":"Novartis Investigative Site","city":"Omaha","state":"Nebraska","zip":"68134","country":"United States","geoPoint":{"lat":41.25626,"lon":-95.94043}},{"facility":"Novartis Investigative Site","city":"Lebanon","state":"New Hampshire","zip":"03756","country":"United States","geoPoint":{"lat":43.64229,"lon":-72.25176}},{"facility":"Novartis Investigative Site","city":"Ridgewood","state":"New Jersey","zip":"07450","country":"United States","geoPoint":{"lat":40.97926,"lon":-74.11653}},{"facility":"Novartis Investigative Site","city":"Summit","state":"New Jersey","zip":"07901","country":"United States","geoPoint":{"lat":40.71562,"lon":-74.36468}},{"facility":"Novartis Investigative Site","city":"Albany","state":"New York","zip":"12206","country":"United States","geoPoint":{"lat":42.65258,"lon":-73.75623}},{"facility":"Novartis Investigative Site","city":"Manhasset","state":"New York","zip":"11030","country":"United States","geoPoint":{"lat":40.79788,"lon":-73.69957}},{"facility":"Novartis Investigative Site","city":"New York","state":"New York","zip":"10016","country":"United States","geoPoint":{"lat":40.71427,"lon":-74.00597}},{"facility":"Novartis Investigative Site","city":"New York","state":"New York","zip":"10021","country":"United States","geoPoint":{"lat":40.71427,"lon":-74.00597}},{"facility":"Novartis Investigative Site","city":"New York","state":"New York","zip":"10029","country":"United States","geoPoint":{"lat":40.71427,"lon":-74.00597}},{"facility":"Novartis Investigative Site","city":"New York","state":"New York","zip":"10075","country":"United States","geoPoint":{"lat":40.71427,"lon":-74.00597}},{"facility":"Novartis Investigative Site","city":"New York","state":"New York","zip":"43210","country":"United States","geoPoint":{"lat":40.71427,"lon":-74.00597}},{"facility":"Novartis Investigative Site","city":"Rochester","state":"New York","zip":"14621","country":"United States","geoPoint":{"lat":43.15478,"lon":-77.61556}},{"facility":"Novartis Investigative Site","city":"Rochester","state":"New York","zip":"14642","country":"United States","geoPoint":{"lat":43.15478,"lon":-77.61556}},{"facility":"Novartis Investigative Site","city":"Southampton","state":"New York","zip":"11968","country":"United States","geoPoint":{"lat":40.88427,"lon":-72.38953}},{"facility":"Novartis Investigative Site","city":"Charlotte","state":"North Carolina","zip":"28204","country":"United States","geoPoint":{"lat":35.22709,"lon":-80.84313}},{"facility":"Novartis Investigative Site","city":"Greensboro","state":"North Carolina","zip":"27405","country":"United States","geoPoint":{"lat":36.07264,"lon":-79.79198}},{"facility":"Novartis Investigative Site","city":"Greensboro","state":"North Carolina","zip":"27408","country":"United States","geoPoint":{"lat":36.07264,"lon":-79.79198}},{"facility":"Novartis Investigative Site","city":"High Point","state":"North Carolina","zip":"27262","country":"United States","geoPoint":{"lat":35.95569,"lon":-80.00532}},{"facility":"Novartis Investigative Site","city":"Raleigh","state":"North Carolina","zip":"27609","country":"United States","geoPoint":{"lat":35.7721,"lon":-78.63861}},{"facility":"Novartis Investigative Site","city":"Sanford","state":"North Carolina","zip":"27330","country":"United States","geoPoint":{"lat":35.47988,"lon":-79.1803}},{"facility":"Novartis Investigative Site","city":"Shelby","state":"North Carolina","zip":"28150","country":"United States","geoPoint":{"lat":35.29235,"lon":-81.53565}},{"facility":"Novartis Investigative Site","city":"Winston-Salem","state":"North Carolina","zip":"27157","country":"United States","geoPoint":{"lat":36.09986,"lon":-80.24422}},{"facility":"Novartis Investigative Site","city":"Akron","state":"Ohio","zip":"44304","country":"United States","geoPoint":{"lat":41.08144,"lon":-81.51901}},{"facility":"Novartis Investigative Site","city":"Akron","state":"Ohio","zip":"44309","country":"United States","geoPoint":{"lat":41.08144,"lon":-81.51901}},{"facility":"Novartis Investigative Site","city":"Canton","state":"Ohio","zip":"44710","country":"United States","geoPoint":{"lat":40.79895,"lon":-81.37845}},{"facility":"Novartis Investigative Site","city":"Cincinnati","state":"Ohio","zip":"45219","country":"United States","geoPoint":{"lat":39.12713,"lon":-84.51435}},{"facility":"Novartis Investigative Site","city":"Cincinnati","state":"Ohio","zip":"45246","country":"United States","geoPoint":{"lat":39.12713,"lon":-84.51435}},{"facility":"Novartis Investigative Site","city":"Cincinnati","state":"Ohio","zip":"45267","country":"United States","geoPoint":{"lat":39.12713,"lon":-84.51435}},{"facility":"Novartis Investigative Site","city":"Cleveland","state":"Ohio","zip":"44195","country":"United States","geoPoint":{"lat":41.4995,"lon":-81.69541}},{"facility":"Novartis Investigative Site","city":"Columbus","state":"Ohio","zip":"43210","country":"United States","geoPoint":{"lat":39.96118,"lon":-82.99879}},{"facility":"Novartis Investigative Site","city":"Marion","state":"Ohio","zip":"43302","country":"United States","geoPoint":{"lat":40.58867,"lon":-83.12852}},{"facility":"Novartis Investigative Site","city":"Portland","state":"Oregon","zip":"97239","country":"United States","geoPoint":{"lat":45.52345,"lon":-122.67621}},{"facility":"Novartis Investigative Site","city":"Lancaster","state":"Pennsylvania","zip":"17603","country":"United States","geoPoint":{"lat":40.03788,"lon":-76.30551}},{"facility":"Novartis Investigative Site","city":"Philadelphia","state":"Pennsylvania","zip":"19104","country":"United States","geoPoint":{"lat":39.95233,"lon":-75.16379}},{"facility":"Novartis Investigative Site","city":"Pittsburgh","state":"Pennsylvania","zip":"15212","country":"United States","geoPoint":{"lat":40.44062,"lon":-79.99589}},{"facility":"Novartis Investigative Site","city":"Yardley","state":"Pennsylvania","zip":"19067","country":"United States","geoPoint":{"lat":40.24566,"lon":-74.846}},{"facility":"Novartis Investigative Site","city":"Providence","state":"Rhode Island","zip":"02906","country":"United States","geoPoint":{"lat":41.82399,"lon":-71.41283}},{"facility":"Novartis Investigative Site","city":"Fort Mill","state":"South Carolina","zip":"29707","country":"United States","geoPoint":{"lat":35.00737,"lon":-80.94508}},{"facility":"Novartis Investigative Site","city":"Summerville","state":"South Carolina","zip":"29485","country":"United States","geoPoint":{"lat":33.0185,"lon":-80.17565}},{"facility":"Novartis Investigative Site","city":"Rapid City","state":"South Dakota","zip":"57701","country":"United States","geoPoint":{"lat":44.08054,"lon":-103.23101}},{"facility":"Novartis Investigative Site","city":"Germantown","state":"Tennessee","zip":"38138","country":"United States","geoPoint":{"lat":35.08676,"lon":-89.81009}},{"facility":"Novartis Investigative Site","city":"Jackson","state":"Tennessee","zip":"38301","country":"United States","geoPoint":{"lat":35.61452,"lon":-88.81395}},{"facility":"Novartis Investigative Site","city":"Knoxville","state":"Tennessee","zip":"37917","country":"United States","geoPoint":{"lat":35.96064,"lon":-83.92074}},{"facility":"Novartis Investigative Site","city":"Nashville","state":"Tennessee","zip":"37232","country":"United States","geoPoint":{"lat":36.16589,"lon":-86.78444}},{"facility":"Novartis Investigative Site","city":"Powell","state":"Tennessee","zip":"37849","country":"United States","geoPoint":{"lat":36.03175,"lon":-84.02797}},{"facility":"Novartis Investigative Site","city":"Dallas","state":"Texas","zip":"75226","country":"United States","geoPoint":{"lat":32.78306,"lon":-96.80667}},{"facility":"Novartis Investigative Site","city":"Dallas","state":"Texas","zip":"75231","country":"United States","geoPoint":{"lat":32.78306,"lon":-96.80667}},{"facility":"Novartis Investigative Site","city":"Dallas","state":"Texas","zip":"75235","country":"United States","geoPoint":{"lat":32.78306,"lon":-96.80667}},{"facility":"Novartis Investigative Site","city":"Dallas","state":"Texas","zip":"75390","country":"United States","geoPoint":{"lat":32.78306,"lon":-96.80667}},{"facility":"Novartis Investigative Site","city":"Houston","state":"Texas","zip":"77030","country":"United States","geoPoint":{"lat":29.76328,"lon":-95.36327}},{"facility":"Novartis Investigative Site","city":"Livingston","state":"Texas","zip":"77351","country":"United States","geoPoint":{"lat":30.71103,"lon":-94.93299}},{"facility":"Novartis Investigative Site","city":"Marshall","state":"Texas","zip":"75670","country":"United States","geoPoint":{"lat":32.54487,"lon":-94.36742}},{"facility":"Novartis Investigative Site","city":"Temple","state":"Texas","zip":"76508","country":"United States","geoPoint":{"lat":31.09823,"lon":-97.34278}},{"facility":"Novartis Investigative Site","city":"Tomball","state":"Texas","zip":"77375","country":"United States","geoPoint":{"lat":30.09716,"lon":-95.61605}},{"facility":"Novartis Investigative Site","city":"Bountiful","state":"Utah","zip":"84010","country":"United States","geoPoint":{"lat":40.88939,"lon":-111.88077}},{"facility":"Novartis Investigative Site","city":"Layton","state":"Utah","zip":"84041","country":"United States","geoPoint":{"lat":41.06022,"lon":-111.97105}},{"facility":"Novartis Investigative Site","city":"Murray","state":"Utah","zip":"84107","country":"United States","geoPoint":{"lat":40.66689,"lon":-111.88799}},{"facility":"Novartis Investigative Site","city":"Salt Lake City","state":"Utah","zip":"84132","country":"United States","geoPoint":{"lat":40.76078,"lon":-111.89105}},{"facility":"Novartis Investigative Site","city":"Danville","state":"Virginia","zip":"24541","country":"United States","geoPoint":{"lat":36.58597,"lon":-79.39502}},{"facility":"Novartis Investigative Site","city":"Falls Church","state":"Virginia","zip":"22042","country":"United States","geoPoint":{"lat":38.88233,"lon":-77.17109}},{"facility":"Novartis Investigative Site","city":"Manassas","state":"Virginia","zip":"20109","country":"United States","geoPoint":{"lat":38.75095,"lon":-77.47527}},{"facility":"Novartis Investigative Site","city":"Norfolk","state":"Virginia","zip":"23510","country":"United States","geoPoint":{"lat":36.84681,"lon":-76.28522}},{"facility":"Novartis Investigative Site","city":"Richmond","state":"Virginia","zip":"23219","country":"United States","geoPoint":{"lat":37.55376,"lon":-77.46026}},{"facility":"Novartis Investigative Site","city":"Seattle","state":"Washington","zip":"98104","country":"United States","geoPoint":{"lat":47.60621,"lon":-122.33207}},{"facility":"Novartis Investigative Site","city":"Seattle","state":"Washington","zip":"98122","country":"United States","geoPoint":{"lat":47.60621,"lon":-122.33207}},{"facility":"Novartis Investigative Site","city":"Seattle","state":"Washington","zip":"98195","country":"United States","geoPoint":{"lat":47.60621,"lon":-122.33207}},{"facility":"Novartis Investigative Site","city":"Morgantown","state":"West Virginia","zip":"26506","country":"United States","geoPoint":{"lat":39.62953,"lon":-79.9559}},{"facility":"Novartis Investigative Site","city":"Milwaukee","state":"Wisconsin","zip":"53215","country":"United States","geoPoint":{"lat":43.0389,"lon":-87.90647}},{"facility":"Novartis Investigative Site","city":"Caba","state":"Buenos Aires","zip":"1407","country":"Argentina","geoPoint":{"lat":-34.61315,"lon":-58.37723}},{"facility":"Novartis Investigative Site","city":"Caba","state":"Buenos Aires","zip":"C1056ABJ","country":"Argentina","geoPoint":{"lat":-34.61315,"lon":-58.37723}},{"facility":"Novartis Investigative Site","city":"Caba","state":"Buenos Aires","zip":"C1280AEB","country":"Argentina","geoPoint":{"lat":-34.61315,"lon":-58.37723}},{"facility":"Novartis Investigative Site","city":"Mar del Plata","state":"Buenos Aires","zip":"7600","country":"Argentina","geoPoint":{"lat":-38.00228,"lon":-57.55754}},{"facility":"Novartis Investigative Site","city":"Ramos Mejia","state":"Buenos Aires","zip":"B1704ETD","country":"Argentina","geoPoint":{"lat":-34.6551,"lon":-58.55318}},{"facility":"Novartis Investigative Site","city":"Tucuman","state":"San Miguel De Tucuman","zip":"T4000ICL","country":"Argentina","geoPoint":{"lat":-26.82414,"lon":-65.2226}},{"facility":"Novartis Investigative Site","city":"Rosario","state":"Santa Fe","zip":"2000","country":"Argentina","geoPoint":{"lat":-32.94682,"lon":-60.63932}},{"facility":"Novartis Investigative Site","city":"Rosario","state":"Santa Fe","zip":"S200CVD","country":"Argentina","geoPoint":{"lat":-32.94682,"lon":-60.63932}},{"facility":"Novartis Investigative Site","city":"San Miguel de Tucuman","state":"Tucuman","zip":"T4000IFL","country":"Argentina","geoPoint":{"lat":-26.82414,"lon":-65.2226}},{"facility":"Novartis Investigative Site","city":"Buenos Aires","zip":"C1430EGF","country":"Argentina","geoPoint":{"lat":-34.61315,"lon":-58.37723}},{"facility":"Novartis Investigative Site","city":"Caba","zip":"1426","country":"Argentina","geoPoint":{"lat":-34.61315,"lon":-58.37723}},{"facility":"Novartis Investigative Site","city":"Capital Federal","zip":"C1023AAB","country":"Argentina","geoPoint":{"lat":-34.61315,"lon":-58.37723}},{"facility":"Novartis Investigative Site","city":"Cordoba","zip":"X5000EVQ","country":"Argentina","geoPoint":{"lat":-31.4135,"lon":-64.18105}},{"facility":"Novartis Investigative Site","city":"Cordoba","zip":"X5016KET","country":"Argentina","geoPoint":{"lat":-31.4135,"lon":-64.18105}},{"facility":"Novartis Investigative Site","city":"Corrientes","zip":"W3400","country":"Argentina","geoPoint":{"lat":-27.4806,"lon":-58.8341}},{"facility":"Novartis Investigative Site","city":"San Luis","zip":"D5702JRS","country":"Argentina","geoPoint":{"lat":-33.29501,"lon":-66.33563}},{"facility":"Novartis Investigative Site","city":"Santa Fe","zip":"S3000FWO","country":"Argentina","geoPoint":{"lat":-31.63333,"lon":-60.7}},{"facility":"Novartis Investigative Site","city":"Camperdown","state":"New South Wales","zip":"2050","country":"Australia","geoPoint":{"lat":-33.88965,"lon":151.17642}},{"facility":"Novartis Investigative Site","city":"Liverpool","state":"New South Wales","zip":"2170","country":"Australia","geoPoint":{"lat":-33.90011,"lon":150.93328}},{"facility":"Novartis Investigative Site","city":"Chemside","state":"Queensland","zip":"4032","country":"Australia"},{"facility":"Novartis Investigative Site","city":"Southport","state":"Queensland","zip":"4215","country":"Australia","geoPoint":{"lat":-27.96724,"lon":153.39796}},{"facility":"Novartis Investigative Site","city":"Woolloongabba","state":"Queensland","zip":"4102","country":"Australia","geoPoint":{"lat":-27.48855,"lon":153.03655}},{"facility":"Novartis Investigative Site","city":"Clayton","state":"Victoria","zip":"3168","country":"Australia","geoPoint":{"lat":-37.91667,"lon":145.11667}},{"facility":"Novartis Investigative Site","city":"Perth","state":"Western Australia","zip":"6000","country":"Australia","geoPoint":{"lat":-31.95224,"lon":115.8614}},{"facility":"Novartis Investigative Site","city":"Graz","zip":"8036","country":"Austria","geoPoint":{"lat":47.06667,"lon":15.45}},{"facility":"Novartis Investigative Site","city":"Innsbruck","zip":"6020","country":"Austria","geoPoint":{"lat":47.26266,"lon":11.39454}},{"facility":"Novartis Investigative Site","city":"Linz","zip":"4021","country":"Austria","geoPoint":{"lat":48.30639,"lon":14.28611}},{"facility":"Novartis Investigative Site","city":"Salzburg","zip":"A-5020","country":"Austria","geoPoint":{"lat":47.79941,"lon":13.04399}},{"facility":"Novartis Investigative Site","city":"Wien","zip":"1090","country":"Austria","geoPoint":{"lat":48.20849,"lon":16.37208}},{"facility":"Novartis Investigative Site","city":"Wien","zip":"1210","country":"Austria","geoPoint":{"lat":48.20849,"lon":16.37208}},{"facility":"Novartis Investigative Site","city":"Aalst","zip":"9300","country":"Belgium","geoPoint":{"lat":50.93604,"lon":4.0355}},{"facility":"Novartis Investigative Site","city":"Brugge","zip":"8000","country":"Belgium","geoPoint":{"lat":51.20892,"lon":3.22424}},{"facility":"Novartis Investigative Site","city":"Bruxelles","zip":"1070","country":"Belgium","geoPoint":{"lat":50.85045,"lon":4.34878}},{"facility":"Novartis Investigative Site","city":"Dendermonde","zip":"9200","country":"Belgium","geoPoint":{"lat":51.02869,"lon":4.10106}},{"facility":"Novartis Investigative Site","city":"Genk","zip":"3600","country":"Belgium","geoPoint":{"lat":50.965,"lon":5.50082}},{"facility":"Novartis Investigative Site","city":"Huy","zip":"4500","country":"Belgium","geoPoint":{"lat":50.51894,"lon":5.23284}},{"facility":"Novartis Investigative Site","city":"Kortrijk","zip":"8500","country":"Belgium","geoPoint":{"lat":50.82803,"lon":3.26487}},{"facility":"Novartis Investigative Site","city":"Mechelen","zip":"2800","country":"Belgium","geoPoint":{"lat":51.02574,"lon":4.47762}},{"facility":"Novartis Investigative Site","city":"Maceio","state":"AL","zip":"57051-160","country":"Brazil","geoPoint":{"lat":-9.66583,"lon":-35.73528}},{"facility":"Novartis Investigative Site","city":"Salvador","state":"BA","zip":"40170-130","country":"Brazil","geoPoint":{"lat":-12.97111,"lon":-38.51083}},{"facility":"Novartis Investigative Site","city":"Brasilia","state":"DF","zip":"70390-903","country":"Brazil","geoPoint":{"lat":-15.77972,"lon":-47.92972}},{"facility":"Novartis Investigative Site","city":"Vitoria","state":"ES","zip":"29055-450","country":"Brazil","geoPoint":{"lat":-20.31944,"lon":-40.33778}},{"facility":"Novartis Investigative Site","city":"Goiania","state":"GO","zip":"74605-020","country":"Brazil","geoPoint":{"lat":-16.67861,"lon":-49.25389}},{"facility":"Novartis Investigative Site","city":"Belo Horizonte","state":"MG","zip":"30150-221","country":"Brazil","geoPoint":{"lat":-19.92083,"lon":-43.93778}},{"facility":"Novartis Investigative Site","city":"Belo Horizonte","state":"MG","zip":"30220330","country":"Brazil","geoPoint":{"lat":-19.92083,"lon":-43.93778}},{"facility":"Novartis Investigative Site","city":"Juiz de Fora","state":"MG","zip":"36033-318","country":"Brazil","geoPoint":{"lat":-21.76417,"lon":-43.35028}},{"facility":"Novartis Investigative Site","city":"Uberlandia","state":"Minas Gerais","zip":"38400 500","country":"Brazil","geoPoint":{"lat":-18.91861,"lon":-48.27722}},{"facility":"Novartis Investigative Site","city":"Curitiba","state":"Parana","zip":"80230-130","country":"Brazil","geoPoint":{"lat":-25.42778,"lon":-49.27306}},{"facility":"Novartis Investigative Site","city":"Curitiba","state":"PR","zip":"80730-150","country":"Brazil","geoPoint":{"lat":-25.42778,"lon":-49.27306}},{"facility":"Novartis Investigative Site","city":"Canoas","state":"RS","zip":"92425 900","country":"Brazil","geoPoint":{"lat":-29.91778,"lon":-51.18361}},{"facility":"Novartis Investigative Site","city":"Porto Alegre","state":"RS","zip":"90160093","country":"Brazil","geoPoint":{"lat":-30.03306,"lon":-51.23}},{"facility":"Novartis Investigative Site","city":"Porto Alegre","state":"RS","zip":"90880-480","country":"Brazil","geoPoint":{"lat":-30.03306,"lon":-51.23}},{"facility":"Novartis Investigative Site","city":"Blumenau","state":"Santa Catarina","zip":"89020 430","country":"Brazil","geoPoint":{"lat":-26.91944,"lon":-49.06611}},{"facility":"Novartis Investigative Site","city":"Aracaju","state":"SE","zip":"49055530","country":"Brazil","geoPoint":{"lat":-10.91111,"lon":-37.07167}},{"facility":"Novartis Investigative Site","city":"Campinas","state":"SP","zip":"13060 080","country":"Brazil","geoPoint":{"lat":-22.90556,"lon":-47.06083}},{"facility":"Novartis Investigative Site","city":"Campinas","state":"SP","zip":"13092-133","country":"Brazil","geoPoint":{"lat":-22.90556,"lon":-47.06083}},{"facility":"Novartis Investigative Site","city":"Ribeirao Preto","state":"SP","zip":"14026 020","country":"Brazil","geoPoint":{"lat":-21.1775,"lon":-47.81028}},{"facility":"Novartis Investigative Site","city":"Santo Andre","state":"SP","zip":"09060-870","country":"Brazil","geoPoint":{"lat":-23.66389,"lon":-46.53833}},{"facility":"Novartis Investigative Site","city":"Santo Andre","state":"SP","zip":"09090-790","country":"Brazil","geoPoint":{"lat":-23.66389,"lon":-46.53833}},{"facility":"Novartis Investigative Site","city":"Sao Jose do Rio Preto","state":"SP","zip":"15015-750","country":"Brazil","geoPoint":{"lat":-20.81972,"lon":-49.37944}},{"facility":"Novartis Investigative Site","city":"Sao Jose do Rio Preto","state":"SP","zip":"15090 000","country":"Brazil","geoPoint":{"lat":-20.81972,"lon":-49.37944}},{"facility":"Novartis Investigative Site","city":"Sao Paulo","state":"SP","zip":"01141-020","country":"Brazil","geoPoint":{"lat":-23.5475,"lon":-46.63611}},{"facility":"Novartis Investigative Site","city":"Sao Paulo","state":"SP","zip":"01323 000","country":"Brazil","geoPoint":{"lat":-23.5475,"lon":-46.63611}},{"facility":"Novartis Investigative Site","city":"Sao Paulo","state":"SP","zip":"04005-003","country":"Brazil","geoPoint":{"lat":-23.5475,"lon":-46.63611}},{"facility":"Novartis Investigative Site","city":"Sao Paulo","state":"SP","zip":"04023-900","country":"Brazil","geoPoint":{"lat":-23.5475,"lon":-46.63611}},{"facility":"Novartis Investigative Site","city":"Sao Paulo","state":"SP","zip":"04266 010","country":"Brazil","geoPoint":{"lat":-23.5475,"lon":-46.63611}},{"facility":"Novartis Investigative Site","city":"Sao Paulo","state":"SP","zip":"05403 000","country":"Brazil","geoPoint":{"lat":-23.5475,"lon":-46.63611}},{"facility":"Novartis Investigative Site","city":"Rio de Janeiro","zip":"20241-180","country":"Brazil","geoPoint":{"lat":-22.90278,"lon":-43.2075}},{"facility":"Novartis Investigative Site","city":"Sao Paulo","zip":"05403-900","country":"Brazil","geoPoint":{"lat":-23.5475,"lon":-46.63611}},{"facility":"Novartis Investigative Site","city":"Blagoevgrad","zip":"2700","country":"Bulgaria","geoPoint":{"lat":42.01667,"lon":23.1}},{"facility":"Novartis Investigative Site","city":"Burgas","zip":"8000","country":"Bulgaria","geoPoint":{"lat":42.50606,"lon":27.46781}},{"facility":"Novartis Investigative Site","city":"Pernik","zip":"2300","country":"Bulgaria","geoPoint":{"lat":42.6,"lon":23.03333}},{"facility":"Novartis Investigative Site","city":"Pleven","zip":"5800","country":"Bulgaria","geoPoint":{"lat":43.41667,"lon":24.61667}},{"facility":"Novartis Investigative Site","city":"Plovdiv","zip":"4000","country":"Bulgaria","geoPoint":{"lat":42.15,"lon":24.75}},{"facility":"Novartis Investigative Site","city":"Ruse","zip":"7002","country":"Bulgaria","geoPoint":{"lat":43.85639,"lon":25.97083}},{"facility":"Novartis Investigative Site","city":"Sofia","zip":"1233","country":"Bulgaria","geoPoint":{"lat":42.69751,"lon":23.32415}},{"facility":"Novartis Investigative Site","city":"Sofia","zip":"1709","country":"Bulgaria","geoPoint":{"lat":42.69751,"lon":23.32415}},{"facility":"Novartis Investigative Site","city":"Vancouver","state":"British Columbia","zip":"V5Z 1M9","country":"Canada","geoPoint":{"lat":49.24966,"lon":-123.11934}},{"facility":"Novartis Investigative Site","city":"Vancouver","state":"British Columbia","zip":"V6Z 1Y6","country":"Canada","geoPoint":{"lat":49.24966,"lon":-123.11934}},{"facility":"Novartis Investigative Site","city":"Victoria","state":"British Columbia","zip":"V8R4R2","country":"Canada","geoPoint":{"lat":48.43294,"lon":-123.3693}},{"facility":"Novartis Investigative Site","city":"Victoria","state":"British Columbia","zip":"V8T 5G4","country":"Canada","geoPoint":{"lat":48.43294,"lon":-123.3693}},{"facility":"Novartis Investigative Site","city":"Oakville","state":"Ontario","zip":"L6K 3W7","country":"Canada","geoPoint":{"lat":43.45011,"lon":-79.68292}},{"facility":"Novartis Investigative Site","city":"Toronto","state":"Ontario","zip":"M9V 4B4","country":"Canada","geoPoint":{"lat":43.70011,"lon":-79.4163}},{"facility":"Novartis Investigative Site","city":"Levis","state":"Quebec","zip":"G6V 4Z5","country":"Canada","geoPoint":{"lat":46.80326,"lon":-71.17793}},{"facility":"Novartis Investigative Site","city":"Montreal","state":"Quebec","zip":"H1T 1C8","country":"Canada","geoPoint":{"lat":45.50884,"lon":-73.58781}},{"facility":"Novartis Investigative Site","city":"Montreal","state":"Quebec","zip":"H2X 0A9","country":"Canada","geoPoint":{"lat":45.50884,"lon":-73.58781}},{"facility":"Novartis Investigative Site","city":"Montreal","state":"Quebec","zip":"H3T 1E2","country":"Canada","geoPoint":{"lat":45.50884,"lon":-73.58781}},{"facility":"Novartis Investigative Site","city":"Montreal","state":"Quebec","zip":"H4A 3J1","country":"Canada","geoPoint":{"lat":45.50884,"lon":-73.58781}},{"facility":"Novartis Investigative Site","city":"Sainte Foy","state":"Quebec","zip":"G1V 4G5","country":"Canada","geoPoint":{"lat":46.75615,"lon":-71.29543}},{"facility":"Novartis Investigative Site","city":"Terrebonne","state":"Quebec","zip":"J6V 2H2","country":"Canada","geoPoint":{"lat":45.70004,"lon":-73.64732}},{"facility":"Novartis Investigative Site","city":"Quebec","zip":"G1R 2J6","country":"Canada","geoPoint":{"lat":46.81228,"lon":-71.21454}},{"facility":"Novartis Investigative Site","city":"Quebec","zip":"G1V 4G2","country":"Canada","geoPoint":{"lat":46.81228,"lon":-71.21454}},{"facility":"Novartis Investigative Site","city":"Quebec","zip":"G1V 4W2","country":"Canada","geoPoint":{"lat":46.81228,"lon":-71.21454}},{"facility":"Novartis Investigative Site","city":"Santiago","state":"Region Metropolitana","zip":"8331143","country":"Chile","geoPoint":{"lat":-33.45694,"lon":-70.64827}},{"facility":"Novartis Investigative Site","city":"Santiago","state":"RM","zip":"7500588","country":"Chile","geoPoint":{"lat":-33.45694,"lon":-70.64827}},{"facility":"Novartis Investigative Site","city":"Santiago","state":"RM","zip":"8380465","country":"Chile","geoPoint":{"lat":-33.45694,"lon":-70.64827}},{"facility":"Novartis Investigative Site","city":"Santiago","zip":"7500710","country":"Chile","geoPoint":{"lat":-33.45694,"lon":-70.64827}},{"facility":"Novartis Investigative Site","city":"Santiago","zip":"8320000","country":"Chile","geoPoint":{"lat":-33.45694,"lon":-70.64827}},{"facility":"Novartis Investigative Site","city":"Santiago","zip":"838 0456","country":"Chile","geoPoint":{"lat":-33.45694,"lon":-70.64827}},{"facility":"Novartis Investigative Site","city":"Lanzhou","state":"Gansu","zip":"730030","country":"China","geoPoint":{"lat":36.05701,"lon":103.83987}},{"facility":"Novartis Investigative Site","city":"Foshan","state":"Guangdong","zip":"528000","country":"China","geoPoint":{"lat":23.02677,"lon":113.13148}},{"facility":"Novartis Investigative Site","city":"Guangzhou","state":"Guangdong","zip":"51000","country":"China","geoPoint":{"lat":23.11667,"lon":113.25}},{"facility":"Novartis Investigative Site","city":"Guangzhou","state":"Guangdong","zip":"510080","country":"China","geoPoint":{"lat":23.11667,"lon":113.25}},{"facility":"Novartis Investigative Site","city":"Harbin","state":"Heilongjiang","zip":"150000","country":"China","geoPoint":{"lat":45.75,"lon":126.65}},{"facility":"Novartis Investigative Site","city":"Wuhan","state":"Hubei","zip":"430030","country":"China","geoPoint":{"lat":30.58333,"lon":114.26667}},{"facility":"Novartis Investigative Site","city":"Changsha","state":"Hunan","zip":"410003","country":"China","geoPoint":{"lat":28.19874,"lon":112.97087}},{"facility":"Novartis Investigative Site","city":"Changsha","state":"Hunan","zip":"410011","country":"China","geoPoint":{"lat":28.19874,"lon":112.97087}},{"facility":"Novartis Investigative Site","city":"Baotou","state":"Inner Mongolia","zip":"014040","country":"China","geoPoint":{"lat":40.65222,"lon":109.82222}},{"facility":"Novartis Investigative Site","city":"Nanjing","state":"Jiangsu","zip":"210009","country":"China","geoPoint":{"lat":32.06167,"lon":118.77778}},{"facility":"Novartis Investigative Site","city":"Nanjing","state":"Jiangsu","zip":"211166","country":"China","geoPoint":{"lat":32.06167,"lon":118.77778}},{"facility":"Novartis Investigative Site","city":"Suzhou","state":"Jiangsu","zip":"215006","country":"China","geoPoint":{"lat":31.30408,"lon":120.59538}},{"facility":"Novartis Investigative Site","city":"Xuzhou","state":"Jiangsu","zip":"221003","country":"China","geoPoint":{"lat":34.18045,"lon":117.15707}},{"facility":"Novartis Investigative Site","city":"Changchun","state":"Jilin","zip":"130022","country":"China","geoPoint":{"lat":43.88,"lon":125.32278}},{"facility":"Novartis Investigative Site","city":"Dalian","state":"Liaoning","zip":"116011","country":"China","geoPoint":{"lat":38.91222,"lon":121.60222}},{"facility":"Novartis Investigative Site","city":"Shenyang","state":"Liaoning","zip":"110003","country":"China","geoPoint":{"lat":41.79222,"lon":123.43278}},{"facility":"Novartis Investigative Site","city":"Shenyang","state":"Liaoning","zip":"110016","country":"China","geoPoint":{"lat":41.79222,"lon":123.43278}},{"facility":"Novartis Investigative Site","city":"Jinan","state":"Shandong","zip":"250013","country":"China","geoPoint":{"lat":36.66833,"lon":116.99722}},{"facility":"Novartis Investigative Site","city":"Xian","state":"Shanxi","zip":"710061","country":"China","geoPoint":{"lat":34.25833,"lon":108.92861}},{"facility":"Novartis Investigative Site","city":"Chengdu","state":"Sichuan","zip":"610041","country":"China","geoPoint":{"lat":30.66667,"lon":104.06667}},{"facility":"Novartis Investigative Site","city":"Tianjin","state":"Tianjin","zip":"300121","country":"China","geoPoint":{"lat":39.14222,"lon":117.17667}},{"facility":"Novartis Investigative Site","city":"Wulumuqi","state":"Xinjiang","zip":"830054","country":"China"},{"facility":"Novartis Investigative Site","city":"Hangzhou","state":"Zhejiang","zip":"310014","country":"China","geoPoint":{"lat":30.29365,"lon":120.16142}},{"facility":"Novartis Investigative Site","city":"Hangzhou","state":"Zhejiang","zip":"310016","country":"China","geoPoint":{"lat":30.29365,"lon":120.16142}},{"facility":"Novartis Investigative Site","city":"Wenzhou","state":"Zhejiang","zip":"325000","country":"China","geoPoint":{"lat":27.99942,"lon":120.66682}},{"facility":"Novartis Investigative Site","city":"Beijing","zip":"100029","country":"China","geoPoint":{"lat":39.9075,"lon":116.39723}},{"facility":"Novartis Investigative Site","city":"Beijing","zip":"100050","country":"China","geoPoint":{"lat":39.9075,"lon":116.39723}},{"facility":"Novartis Investigative Site","city":"Beijing","zip":"100191","country":"China","geoPoint":{"lat":39.9075,"lon":116.39723}},{"facility":"Novartis Investigative Site","city":"Beijing","zip":"100730","country":"China","geoPoint":{"lat":39.9075,"lon":116.39723}},{"facility":"Novartis Investigative Site","city":"Nanjing","zip":"210036","country":"China","geoPoint":{"lat":32.06167,"lon":118.77778}},{"facility":"Novartis Investigative Site","city":"Shanghai","zip":"200025","country":"China","geoPoint":{"lat":31.22222,"lon":121.45806}},{"facility":"Novartis Investigative Site","city":"Shanghai","zip":"200040","country":"China","geoPoint":{"lat":31.22222,"lon":121.45806}},{"facility":"Novartis Investigative Site","city":"Shanghai","zip":"200120","country":"China","geoPoint":{"lat":31.22222,"lon":121.45806}},{"facility":"Novartis Investigative Site","city":"Tianjin","zip":"300052","country":"China","geoPoint":{"lat":39.14222,"lon":117.17667}},{"facility":"Novartis Investigative Site","city":"Tianjin","zip":"30045","country":"China","geoPoint":{"lat":39.14222,"lon":117.17667}},{"facility":"Novartis Investigative Site","city":"Xiamen","zip":"361004","country":"China","geoPoint":{"lat":24.47979,"lon":118.08187}},{"facility":"Novartis Investigative Site","city":"Medellin","state":"Antioquia","zip":"050001","country":"Colombia","geoPoint":{"lat":6.25184,"lon":-75.56359}},{"facility":"Novartis Investigative Site","city":"Bogota","state":"Cundinamarca","zip":"110911","country":"Colombia","geoPoint":{"lat":4.60971,"lon":-74.08175}},{"facility":"Novartis Investigative Site","city":"Bucaramanga","state":"Santander","zip":"65265","country":"Colombia","geoPoint":{"lat":7.12539,"lon":-73.1198}},{"facility":"Novartis Investigative Site","city":"Cali","state":"Valle Del Cauca","zip":"760001","country":"Colombia","geoPoint":{"lat":3.43722,"lon":-76.5225}},{"facility":"Novartis Investigative Site","city":"Cali","state":"Valle Del Cauca","zip":"760012","country":"Colombia","geoPoint":{"lat":3.43722,"lon":-76.5225}},{"facility":"Novartis Investigative Site","city":"Barranquilla","zip":"080020","country":"Colombia","geoPoint":{"lat":10.96854,"lon":-74.78132}},{"facility":"Novartis Investigative Site","city":"Bogota","zip":"111611","country":"Colombia","geoPoint":{"lat":4.60971,"lon":-74.08175}},{"facility":"Novartis Investigative Site","city":"Medellin","zip":"050037","country":"Colombia","geoPoint":{"lat":6.25184,"lon":-75.56359}},{"facility":"Novartis Investigative Site","city":"San Gil","zip":"684031","country":"Colombia","geoPoint":{"lat":6.55952,"lon":-73.13637}},{"facility":"Novartis Investigative Site","city":"Brandys nad Labem","state":"Czech Republic","zip":"250 01","country":"Czechia","geoPoint":{"lat":50.18356,"lon":14.67244}},{"facility":"Novartis Investigative Site","city":"Brno","state":"Czech Republic","zip":"60200","country":"Czechia","geoPoint":{"lat":49.19522,"lon":16.60796}},{"facility":"Novartis Investigative Site","city":"Brno","state":"Czech Republic","zip":"656 91","country":"Czechia","geoPoint":{"lat":49.19522,"lon":16.60796}},{"facility":"Novartis Investigative Site","city":"Cesky Krumlov","state":"Czech Republic","zip":"381 01","country":"Czechia","geoPoint":{"lat":48.81091,"lon":14.31521}},{"facility":"Novartis Investigative Site","city":"Kromeriz","state":"Czech Republic","zip":"767 55","country":"Czechia","geoPoint":{"lat":49.29785,"lon":17.39312}},{"facility":"Novartis Investigative Site","city":"Liberec V Kristianova","state":"Czech Republic","zip":"460 05","country":"Czechia"},{"facility":"Novartis Investigative Site","city":"Louny","state":"Czech Republic","zip":"440 01","country":"Czechia","geoPoint":{"lat":50.35699,"lon":13.79667}},{"facility":"Novartis Investigative Site","city":"Ostrava","state":"Czech Republic","zip":"70200","country":"Czechia","geoPoint":{"lat":49.83465,"lon":18.28204}},{"facility":"Novartis Investigative Site","city":"Pardubice","state":"Czech Republic","zip":"532 03","country":"Czechia","geoPoint":{"lat":50.04075,"lon":15.77659}},{"facility":"Novartis Investigative Site","city":"Svitavy","state":"Czech Republic","zip":"568 25","country":"Czechia","geoPoint":{"lat":49.75594,"lon":16.46829}},{"facility":"Novartis Investigative Site","city":"Trebic","state":"Czech Republic","zip":"674 01","country":"Czechia","geoPoint":{"lat":49.21492,"lon":15.88166}},{"facility":"Novartis Investigative Site","city":"Usti nad Labem","state":"Czech Republic","zip":"400 01","country":"Czechia","geoPoint":{"lat":50.6607,"lon":14.03227}},{"facility":"Novartis Investigative Site","city":"Most","state":"CZE","zip":"434 01","country":"Czechia","geoPoint":{"lat":50.50301,"lon":13.63617}},{"facility":"Novartis Investigative Site","city":"Policska","state":"CZE","zip":"57201","country":"Czechia"},{"facility":"Novartis Investigative Site","city":"Trutnov","state":"CZE","zip":"46063","country":"Czechia","geoPoint":{"lat":50.56101,"lon":15.9127}},{"facility":"Novartis Investigative Site","city":"Brno Bohunice","zip":"625 00","country":"Czechia"},{"facility":"Novartis Investigative Site","city":"Brno","zip":"60200","country":"Czechia","geoPoint":{"lat":49.19522,"lon":16.60796}},{"facility":"Novartis Investigative Site","city":"Broumov","zip":"550 01","country":"Czechia","geoPoint":{"lat":50.58566,"lon":16.33181}},{"facility":"Novartis Investigative Site","city":"Chlumec nad Cidlinou","zip":"50351","country":"Czechia","geoPoint":{"lat":50.1544,"lon":15.46026}},{"facility":"Novartis Investigative Site","city":"CZE","zip":"11000","country":"Czechia"},{"facility":"Novartis Investigative Site","city":"Hlucin","zip":"748 01","country":"Czechia","geoPoint":{"lat":49.89795,"lon":18.19196}},{"facility":"Novartis Investigative Site","city":"Hodonin","zip":"69501","country":"Czechia","geoPoint":{"lat":48.84893,"lon":17.13244}},{"facility":"Novartis Investigative Site","city":"JIhlava","zip":"586 01","country":"Czechia","geoPoint":{"lat":49.3961,"lon":15.59124}},{"facility":"Novartis Investigative Site","city":"Kolin","zip":"280 20","country":"Czechia","geoPoint":{"lat":50.02806,"lon":15.1998}},{"facility":"Novartis Investigative Site","city":"Liberec","zip":"460 01","country":"Czechia","geoPoint":{"lat":50.76711,"lon":15.05619}},{"facility":"Novartis Investigative Site","city":"Marianske lazne","zip":"353 01","country":"Czechia","geoPoint":{"lat":49.96459,"lon":12.70118}},{"facility":"Novartis Investigative Site","city":"Melnik","zip":"27601","country":"Czechia","geoPoint":{"lat":50.3505,"lon":14.47411}},{"facility":"Novartis Investigative Site","city":"Olomouc","zip":"77900","country":"Czechia","geoPoint":{"lat":49.59552,"lon":17.25175}},{"facility":"Novartis Investigative Site","city":"Ostrava","zip":"700 30","country":"Czechia","geoPoint":{"lat":49.83465,"lon":18.28204}},{"facility":"Novartis Investigative Site","city":"Ostrava","zip":"70030","country":"Czechia","geoPoint":{"lat":49.83465,"lon":18.28204}},{"facility":"Novartis Investigative Site","city":"Ostrava","zip":"71000","country":"Czechia","geoPoint":{"lat":49.83465,"lon":18.28204}},{"facility":"Novartis Investigative Site","city":"Praha 5","zip":"158 00","country":"Czechia","geoPoint":{"lat":50.08804,"lon":14.42076}},{"facility":"Novartis Investigative Site","city":"Praha","zip":"101 00","country":"Czechia","geoPoint":{"lat":50.08804,"lon":14.42076}},{"facility":"Novartis Investigative Site","city":"Praha","zip":"110 00","country":"Czechia","geoPoint":{"lat":50.08804,"lon":14.42076}},{"facility":"Novartis Investigative Site","city":"Praha","zip":"12808","country":"Czechia","geoPoint":{"lat":50.08804,"lon":14.42076}},{"facility":"Novartis Investigative Site","city":"Prerov","zip":"751 52","country":"Czechia","geoPoint":{"lat":49.45511,"lon":17.4509}},{"facility":"Novartis Investigative Site","city":"Slany","zip":"27401","country":"Czechia","geoPoint":{"lat":50.23046,"lon":14.08693}},{"facility":"Novartis Investigative Site","city":"Uherske Hradiste","zip":"68601","country":"Czechia","geoPoint":{"lat":49.06975,"lon":17.45969}},{"facility":"Novartis Investigative Site","city":"Valasske Mezirici","zip":"75742","country":"Czechia","geoPoint":{"lat":49.47181,"lon":17.97113}},{"facility":"Novartis Investigative Site","city":"Zlin","zip":"76001","country":"Czechia","geoPoint":{"lat":49.22645,"lon":17.67065}},{"facility":"Novartis Investigative Site","city":"Aalborg","zip":"9000","country":"Denmark","geoPoint":{"lat":57.048,"lon":9.9187}},{"facility":"Novartis Investigative Site","city":"Arhus N","zip":"DK-8200","country":"Denmark","geoPoint":{"lat":56.15674,"lon":10.21076}},{"facility":"Novartis Investigative Site","city":"Esbjerg","zip":"DK-6700","country":"Denmark","geoPoint":{"lat":55.47028,"lon":8.45187}},{"facility":"Novartis Investigative Site","city":"Glostrup","zip":"2600","country":"Denmark","geoPoint":{"lat":55.6666,"lon":12.40377}},{"facility":"Novartis Investigative Site","city":"Herlev","zip":"DK 2730","country":"Denmark","geoPoint":{"lat":55.72366,"lon":12.43998}},{"facility":"Novartis Investigative Site","city":"Roskilde","zip":"4000","country":"Denmark","geoPoint":{"lat":55.64152,"lon":12.08035}},{"facility":"Novartis Investigative Site","city":"Viborg","zip":"DK-8800","country":"Denmark","geoPoint":{"lat":56.45319,"lon":9.40201}},{"facility":"Novartis Investigative Site","city":"Bron","zip":"69677","country":"France","geoPoint":{"lat":45.73333,"lon":4.91667}},{"facility":"Novartis Investigative Site","city":"Chambray les Tours","zip":"37170","country":"France","geoPoint":{"lat":47.33537,"lon":0.70286}},{"facility":"Novartis Investigative Site","city":"Compiègne","zip":"60321","country":"France","geoPoint":{"lat":49.41794,"lon":2.82606}},{"facility":"Novartis Investigative Site","city":"Grenoble Cedex 9","zip":"38043","country":"France","geoPoint":{"lat":45.16667,"lon":5.71667}},{"facility":"Novartis Investigative Site","city":"Le Coudray","zip":"28630","country":"France","geoPoint":{"lat":48.42115,"lon":1.50057}},{"facility":"Novartis Investigative Site","city":"Lille","zip":"59037","country":"France","geoPoint":{"lat":50.63297,"lon":3.05858}},{"facility":"Novartis Investigative Site","city":"Paris","zip":"75012","country":"France","geoPoint":{"lat":48.85341,"lon":2.3488}},{"facility":"Novartis Investigative Site","city":"Paris","zip":"75015","country":"France","geoPoint":{"lat":48.85341,"lon":2.3488}},{"facility":"Novartis Investigative Site","city":"Paris","zip":"75018","country":"France","geoPoint":{"lat":48.85341,"lon":2.3488}},{"facility":"Novartis Investigative Site","city":"St Herblain","zip":"44800","country":"France","geoPoint":{"lat":47.21765,"lon":-1.64841}},{"facility":"Novartis Investigative Site","city":"Toulouse 4","zip":"31054","country":"France","geoPoint":{"lat":43.60426,"lon":1.44367}},{"facility":"Novartis Investigative Site","city":"Tourcoing","zip":"59200","country":"France","geoPoint":{"lat":50.72391,"lon":3.16117}},{"facility":"Novartis Investigative Site","city":"Valenciennes","zip":"59300","country":"France","geoPoint":{"lat":50.35,"lon":3.53333}},{"facility":"Novartis Investigative Site","city":"Mannheim","state":"Baden Wuerttemberg","zip":"68305","country":"Germany","geoPoint":{"lat":49.4891,"lon":8.46694}},{"facility":"Novartis Investigative Site","city":"Hannover","state":"Niedersachsen","zip":"30159","country":"Germany","geoPoint":{"lat":52.37052,"lon":9.73322}},{"facility":"Novartis Investigative Site","city":"Bad Gottleuba","state":"Sachsen","zip":"01816","country":"Germany","geoPoint":{"lat":50.85288,"lon":13.94378}},{"facility":"Novartis Investigative Site","city":"Dresden","state":"Sachsen","zip":"01099","country":"Germany","geoPoint":{"lat":51.05089,"lon":13.73832}},{"facility":"Novartis Investigative Site","city":"Leipzig","state":"Sachsen","zip":"04315","country":"Germany","geoPoint":{"lat":51.33962,"lon":12.37129}},{"facility":"Novartis Investigative Site","city":"Chemnitz","state":"Saxony","zip":"09113","country":"Germany","geoPoint":{"lat":50.8357,"lon":12.92922}},{"facility":"Novartis Investigative Site","city":"Aachen","zip":"52074","country":"Germany","geoPoint":{"lat":50.77664,"lon":6.08342}},{"facility":"Novartis Investigative Site","city":"Bad Homburg","zip":"61348","country":"Germany","geoPoint":{"lat":50.22683,"lon":8.61816}},{"facility":"Novartis Investigative Site","city":"Bad Krozingen","zip":"79189","country":"Germany","geoPoint":{"lat":47.91933,"lon":7.69045}},{"facility":"Novartis Investigative Site","city":"Bad Oeynhausen","zip":"32545","country":"Germany","geoPoint":{"lat":52.20699,"lon":8.80365}},{"facility":"Novartis Investigative Site","city":"Bamberg","zip":"96049","country":"Germany","geoPoint":{"lat":49.89873,"lon":10.90067}},{"facility":"Novartis Investigative Site","city":"Berlin","zip":"10367","country":"Germany","geoPoint":{"lat":52.52437,"lon":13.41053}},{"facility":"Novartis Investigative Site","city":"Berlin","zip":"10787","country":"Germany","geoPoint":{"lat":52.52437,"lon":13.41053}},{"facility":"Novartis Investigative Site","city":"Berlin","zip":"10789","country":"Germany","geoPoint":{"lat":52.52437,"lon":13.41053}},{"facility":"Novartis Investigative Site","city":"Berlin","zip":"13347","country":"Germany","geoPoint":{"lat":52.52437,"lon":13.41053}},{"facility":"Novartis Investigative Site","city":"Berlin","zip":"13353","country":"Germany","geoPoint":{"lat":52.52437,"lon":13.41053}},{"facility":"Novartis Investigative Site","city":"Berlin","zip":"D 10559","country":"Germany","geoPoint":{"lat":52.52437,"lon":13.41053}},{"facility":"Novartis Investigative Site","city":"Bielefeld","zip":"33604","country":"Germany","geoPoint":{"lat":52.03333,"lon":8.53333}},{"facility":"Novartis Investigative Site","city":"Chemnitz","zip":"09122","country":"Germany","geoPoint":{"lat":50.8357,"lon":12.92922}},{"facility":"Novartis Investigative Site","city":"Dessau-Roßlau","zip":"06846","country":"Germany"},{"facility":"Novartis Investigative Site","city":"Dortmund","zip":"44137","country":"Germany","geoPoint":{"lat":51.51494,"lon":7.466}},{"facility":"Novartis Investigative Site","city":"Dresden","zip":"01069","country":"Germany","geoPoint":{"lat":51.05089,"lon":13.73832}},{"facility":"Novartis Investigative Site","city":"Dresden","zip":"01277","country":"Germany","geoPoint":{"lat":51.05089,"lon":13.73832}},{"facility":"Novartis Investigative Site","city":"Dresden","zip":"01307","country":"Germany","geoPoint":{"lat":51.05089,"lon":13.73832}},{"facility":"Novartis Investigative Site","city":"Essen","zip":"45277","country":"Germany","geoPoint":{"lat":51.45657,"lon":7.01228}},{"facility":"Novartis Investigative Site","city":"Essen","zip":"45355","country":"Germany","geoPoint":{"lat":51.45657,"lon":7.01228}},{"facility":"Novartis Investigative Site","city":"Essen","zip":"45359","country":"Germany","geoPoint":{"lat":51.45657,"lon":7.01228}},{"facility":"Novartis Investigative Site","city":"Frankfurt","zip":"60590","country":"Germany","geoPoint":{"lat":50.11552,"lon":8.68417}},{"facility":"Novartis Investigative Site","city":"Frankfurt","zip":"60594","country":"Germany","geoPoint":{"lat":50.11552,"lon":8.68417}},{"facility":"Novartis Investigative Site","city":"Gelnhausen","zip":"63571","country":"Germany","geoPoint":{"lat":50.20164,"lon":9.18742}},{"facility":"Novartis Investigative Site","city":"Hamburg","zip":"22041","country":"Germany","geoPoint":{"lat":53.57532,"lon":10.01534}},{"facility":"Novartis Investigative Site","city":"Hamburg","zip":"22607","country":"Germany","geoPoint":{"lat":53.57532,"lon":10.01534}},{"facility":"Novartis Investigative Site","city":"Jena","zip":"07740","country":"Germany","geoPoint":{"lat":50.92878,"lon":11.5899}},{"facility":"Novartis Investigative Site","city":"Kassel","zip":"34121","country":"Germany","geoPoint":{"lat":51.31667,"lon":9.5}},{"facility":"Novartis Investigative Site","city":"Koeln-Nippes","zip":"50733","country":"Germany","geoPoint":{"lat":50.93333,"lon":6.95}},{"facility":"Novartis Investigative Site","city":"Koeln","zip":"50937","country":"Germany","geoPoint":{"lat":50.93333,"lon":6.95}},{"facility":"Novartis Investigative Site","city":"Kuenzing","zip":"94550","country":"Germany"},{"facility":"Novartis Investigative Site","city":"Leipzig","zip":"04103","country":"Germany","geoPoint":{"lat":51.33962,"lon":12.37129}},{"facility":"Novartis Investigative Site","city":"Loehne","zip":"32584","country":"Germany"},{"facility":"Novartis Investigative Site","city":"Lutherstadt Wittenberg","zip":"06886","country":"Germany"},{"facility":"Novartis Investigative Site","city":"Lüneburg","zip":"21339","country":"Germany","geoPoint":{"lat":53.2509,"lon":10.41409}},{"facility":"Novartis Investigative Site","city":"Magdeburg","zip":"39120","country":"Germany","geoPoint":{"lat":52.12773,"lon":11.62916}},{"facility":"Novartis Investigative Site","city":"Mannheim","zip":"68165","country":"Germany","geoPoint":{"lat":49.4891,"lon":8.46694}},{"facility":"Novartis Investigative Site","city":"Meißen","zip":"01662","country":"Germany","geoPoint":{"lat":51.16158,"lon":13.4737}},{"facility":"Novartis Investigative Site","city":"Muehldorf","zip":"84453","country":"Germany"},{"facility":"Novartis Investigative Site","city":"Muenchen","zip":"80636","country":"Germany","geoPoint":{"lat":51.60698,"lon":13.31243}},{"facility":"Novartis Investigative Site","city":"Muenchen","zip":"81377","country":"Germany","geoPoint":{"lat":51.60698,"lon":13.31243}},{"facility":"Novartis Investigative Site","city":"Muenster","zip":"48149","country":"Germany","geoPoint":{"lat":51.96236,"lon":7.62571}},{"facility":"Novartis Investigative Site","city":"Potsdam","zip":"14471","country":"Germany","geoPoint":{"lat":52.39886,"lon":13.06566}},{"facility":"Novartis Investigative Site","city":"Rüdersdorf","zip":"15562","country":"Germany","geoPoint":{"lat":51.1,"lon":11.45}},{"facility":"Novartis Investigative Site","city":"Saint Ingbert - Oberwuerzbach","zip":"66386","country":"Germany"},{"facility":"Novartis Investigative Site","city":"Ulm","zip":"89077","country":"Germany","geoPoint":{"lat":48.39841,"lon":9.99155}},{"facility":"Novartis Investigative Site","city":"Warendorf","zip":"48231","country":"Germany","geoPoint":{"lat":51.95109,"lon":7.98756}},{"facility":"Novartis Investigative Site","city":"Weiden","zip":"92637","country":"Germany","geoPoint":{"lat":49.67682,"lon":12.15613}},{"facility":"Novartis Investigative Site","city":"Athens","state":"GR","zip":"14233","country":"Greece","geoPoint":{"lat":37.97945,"lon":23.71622}},{"facility":"Novartis Investigative Site","city":"Ioannina","state":"GR","zip":"455 00","country":"Greece","geoPoint":{"lat":39.66486,"lon":20.85189}},{"facility":"Novartis Investigative Site","city":"Larissa","state":"GR","zip":"411 10","country":"Greece","geoPoint":{"lat":39.63689,"lon":22.41761}},{"facility":"Novartis Investigative Site","city":"Athens","zip":"115 21","country":"Greece","geoPoint":{"lat":37.97945,"lon":23.71622}},{"facility":"Novartis Investigative Site","city":"Athens","zip":"115 27","country":"Greece","geoPoint":{"lat":37.97945,"lon":23.71622}},{"facility":"Novartis Investigative Site","city":"Chalkida","zip":"GR 341 00","country":"Greece","geoPoint":{"lat":38.46354,"lon":23.60284}},{"facility":"Novartis Investigative Site","city":"Thessaloniki","zip":"GR 54636","country":"Greece","geoPoint":{"lat":40.64361,"lon":22.93086}},{"facility":"Novartis Investigative Site","city":"Guatemala City","zip":"01001","country":"Guatemala","geoPoint":{"lat":14.64072,"lon":-90.51327}},{"facility":"Novartis Investigative Site","city":"Guatemala City","zip":"01010","country":"Guatemala","geoPoint":{"lat":14.64072,"lon":-90.51327}},{"facility":"Novartis Investigative Site","city":"Guatemala City","zip":"01011","country":"Guatemala","geoPoint":{"lat":14.64072,"lon":-90.51327}},{"facility":"Novartis Investigative Site","city":"Guatemala","zip":"01001","country":"Guatemala","geoPoint":{"lat":14.64072,"lon":-90.51327}},{"facility":"Novartis Investigative Site","city":"Guatemala","zip":"01010","country":"Guatemala","geoPoint":{"lat":14.64072,"lon":-90.51327}},{"facility":"Novartis Investigative Site","city":"Guatemala","zip":"01011","country":"Guatemala","geoPoint":{"lat":14.64072,"lon":-90.51327}},{"facility":"Novartis Investigative Site","city":"Hong Kong","zip":"HONG KONG","country":"Hong Kong","geoPoint":{"lat":22.27832,"lon":114.17469}},{"facility":"Novartis Investigative Site","city":"Hongkong","country":"Hong Kong","geoPoint":{"lat":22.27832,"lon":114.17469}},{"facility":"Novartis Investigative Site","city":"Pecs","state":"Baranya","zip":"7621","country":"Hungary","geoPoint":{"lat":46.08333,"lon":18.23333}},{"facility":"Novartis Investigative Site","city":"Pecs","state":"Baranya","zip":"7624","country":"Hungary","geoPoint":{"lat":46.08333,"lon":18.23333}},{"facility":"Novartis Investigative Site","city":"Szekesfehervar","state":"Fejer","zip":"H-8000","country":"Hungary","geoPoint":{"lat":47.18995,"lon":18.41034}},{"facility":"Novartis Investigative Site","city":"Budapest","state":"HUN","zip":"1204","country":"Hungary","geoPoint":{"lat":47.49801,"lon":19.03991}},{"facility":"Novartis Investigative Site","city":"Baja","zip":"6500","country":"Hungary","geoPoint":{"lat":46.17496,"lon":18.95639}},{"facility":"Novartis Investigative Site","city":"Budapest","zip":"1085","country":"Hungary","geoPoint":{"lat":47.49801,"lon":19.03991}},{"facility":"Novartis Investigative Site","city":"Budapest","zip":"1145","country":"Hungary","geoPoint":{"lat":47.49801,"lon":19.03991}},{"facility":"Novartis Investigative Site","city":"Budapest","zip":"H-1097","country":"Hungary","geoPoint":{"lat":47.49801,"lon":19.03991}},{"facility":"Novartis Investigative Site","city":"Debrecen","zip":"4032","country":"Hungary","geoPoint":{"lat":47.53333,"lon":21.63333}},{"facility":"Novartis Investigative Site","city":"Kistarcsa","zip":"2143","country":"Hungary","geoPoint":{"lat":47.54757,"lon":19.26247}},{"facility":"Novartis Investigative Site","city":"Mako","zip":"6900","country":"Hungary","geoPoint":{"lat":46.21667,"lon":20.48333}},{"facility":"Novartis Investigative Site","city":"Mateszalka","zip":"4700","country":"Hungary","geoPoint":{"lat":47.95528,"lon":22.32348}},{"facility":"Novartis Investigative Site","city":"Miskolc","zip":"3526","country":"Hungary","geoPoint":{"lat":48.1,"lon":20.78333}},{"facility":"Novartis Investigative Site","city":"Nyiregyhaza","zip":"4400","country":"Hungary","geoPoint":{"lat":47.95539,"lon":21.71671}},{"facility":"Novartis Investigative Site","city":"Szeged","zip":"6720","country":"Hungary","geoPoint":{"lat":46.253,"lon":20.14824}},{"facility":"Novartis Investigative Site","city":"Kopavogur","zip":"201","country":"Iceland","geoPoint":{"lat":64.11234,"lon":-21.91298}},{"facility":"Novartis Investigative Site","city":"Reykjavik","zip":"IS-101","country":"Iceland","geoPoint":{"lat":64.13548,"lon":-21.89541}},{"facility":"Novartis Investigative Site","city":"Hyderabad","state":"Andhra Pradesh","zip":"500033","country":"India","geoPoint":{"lat":17.38405,"lon":78.45636}},{"facility":"Novartis Investigative Site","city":"Guntur","state":"Andhrapradesh","zip":"522001","country":"India","geoPoint":{"lat":16.29974,"lon":80.45729}},{"facility":"Novartis Investigative Site","city":"New Delhi","state":"Delhi","zip":"110 060","country":"India","geoPoint":{"lat":28.63576,"lon":77.22445}},{"facility":"Novartis Investigative Site","city":"Ahmedabad","state":"Gujarat","zip":"380 060","country":"India","geoPoint":{"lat":23.02579,"lon":72.58727}},{"facility":"Novartis Investigative Site","city":"Vadodara","state":"Gujarat","zip":"390022","country":"India","geoPoint":{"lat":22.29941,"lon":73.20812}},{"facility":"Novartis Investigative Site","city":"Ahmedabad","state":"Gujrat","zip":"380060","country":"India","geoPoint":{"lat":23.02579,"lon":72.58727}},{"facility":"Novartis Investigative Site","city":"Bengaluru","state":"Karnataka","zip":"560024","country":"India","geoPoint":{"lat":12.97194,"lon":77.59369}},{"facility":"Novartis Investigative Site","city":"Mangalore","state":"Karnataka","zip":"575018","country":"India","geoPoint":{"lat":12.91723,"lon":74.85603}},{"facility":"Novartis Investigative Site","city":"Manipal","state":"Karnataka","zip":"576104","country":"India"},{"facility":"Novartis Investigative Site","city":"Kochi","state":"Kerala","zip":"682 018","country":"India","geoPoint":{"lat":9.93988,"lon":76.26022}},{"facility":"Novartis Investigative Site","city":"Kochi","state":"Kerala","zip":"682027","country":"India","geoPoint":{"lat":9.93988,"lon":76.26022}},{"facility":"Novartis Investigative Site","city":"Kochi","state":"Kerala","zip":"682041","country":"India","geoPoint":{"lat":9.93988,"lon":76.26022}},{"facility":"Novartis Investigative Site","city":"Kozhikode","state":"Kerala","zip":"673008","country":"India","geoPoint":{"lat":11.24802,"lon":75.7804}},{"facility":"Novartis Investigative Site","city":"Mumbai","state":"Maharashtra","zip":"401107","country":"India","geoPoint":{"lat":19.07283,"lon":72.88261}},{"facility":"Novartis Investigative Site","city":"Nagpur","state":"Maharashtra","zip":"440008","country":"India","geoPoint":{"lat":21.14631,"lon":79.08491}},{"facility":"Novartis Investigative Site","city":"Nagpur","state":"Maharashtra","zip":"440009","country":"India","geoPoint":{"lat":21.14631,"lon":79.08491}},{"facility":"Novartis Investigative Site","city":"Nagpur","state":"Maharashtra","zip":"440012","country":"India","geoPoint":{"lat":21.14631,"lon":79.08491}},{"facility":"Novartis Investigative Site","city":"Nagpur","state":"Maharashtra","zip":"440033","country":"India","geoPoint":{"lat":21.14631,"lon":79.08491}},{"facility":"Novartis Investigative Site","city":"Nashik","state":"Maharashtra","zip":"422 005","country":"India","geoPoint":{"lat":19.99727,"lon":73.79096}},{"facility":"Novartis Investigative Site","city":"Pune","state":"Maharashtra","zip":"411001","country":"India","geoPoint":{"lat":18.51957,"lon":73.85535}},{"facility":"Novartis Investigative Site","city":"Pune","state":"Maharashtra","zip":"411004","country":"India","geoPoint":{"lat":18.51957,"lon":73.85535}},{"facility":"Novartis Investigative Site","city":"Pune","state":"Maharashtra","zip":"411045","country":"India","geoPoint":{"lat":18.51957,"lon":73.85535}},{"facility":"Novartis Investigative Site","city":"Bikaner","state":"Rajasthan","zip":"334003","country":"India","geoPoint":{"lat":28.01762,"lon":73.31495}},{"facility":"Novartis Investigative Site","city":"Chennai","state":"Tamil Nadu","zip":"600081","country":"India","geoPoint":{"lat":13.08784,"lon":80.27847}},{"facility":"Novartis Investigative Site","city":"Coimbatore","state":"Tamil Nadu","zip":"641037","country":"India","geoPoint":{"lat":11.00555,"lon":76.96612}},{"facility":"Novartis Investigative Site","city":"Hyderabad","state":"Telangana","zip":"500034","country":"India","geoPoint":{"lat":17.38405,"lon":78.45636}},{"facility":"Novartis Investigative Site","city":"Hyderabad","state":"Telangana","zip":"500082","country":"India","geoPoint":{"lat":17.38405,"lon":78.45636}},{"facility":"Novartis Investigative Site","city":"Secunderabad","state":"Telangana","zip":"500003","country":"India","geoPoint":{"lat":17.50427,"lon":78.54263}},{"facility":"Novartis Investigative Site","city":"Ghaziabad","state":"Uttar Pradesh","zip":"110093","country":"India","geoPoint":{"lat":28.66535,"lon":77.43915}},{"facility":"Novartis Investigative Site","city":"Lucknow","state":"Uttar Pradesh","zip":"226003","country":"India","geoPoint":{"lat":26.83928,"lon":80.92313}},{"facility":"Novartis Investigative Site","city":"Varanasi","state":"Uttar Pradesh","zip":"221010","country":"India","geoPoint":{"lat":25.31668,"lon":83.01041}},{"facility":"Novartis Investigative Site","city":"DehraDun","state":"Uttarakhand","zip":"248001","country":"India","geoPoint":{"lat":30.32295,"lon":78.03168}},{"facility":"Novartis Investigative Site","city":"Belagavi","zip":"590010","country":"India"},{"facility":"Novartis Investigative Site","city":"Coimbatore","zip":"641 009","country":"India","geoPoint":{"lat":11.00555,"lon":76.96612}},{"facility":"Novartis Investigative Site","city":"New Delhi","zip":"110025","country":"India","geoPoint":{"lat":28.63576,"lon":77.22445}},{"facility":"Novartis Investigative Site","city":"New Delhi","zip":"110075","country":"India","geoPoint":{"lat":28.63576,"lon":77.22445}},{"facility":"Novartis Investigative Site","city":"Beer-Sheva","zip":"8457108","country":"Israel","geoPoint":{"lat":31.25181,"lon":34.7913}},{"facility":"Novartis Investigative Site","city":"Haifa","zip":"3339419","country":"Israel","geoPoint":{"lat":32.81841,"lon":34.9885}},{"facility":"Novartis Investigative Site","city":"Haifa","zip":"3436212","country":"Israel","geoPoint":{"lat":32.81841,"lon":34.9885}},{"facility":"Novartis Investigative Site","city":"Jerusalem","zip":"9112001","country":"Israel","geoPoint":{"lat":31.76904,"lon":35.21633}},{"facility":"Novartis Investigative Site","city":"Petach Tikva","zip":"4941492","country":"Israel","geoPoint":{"lat":32.08707,"lon":34.88747}},{"facility":"Novartis Investigative Site","city":"Ramat Gan","zip":"52621","country":"Israel","geoPoint":{"lat":32.08227,"lon":34.81065}},{"facility":"Novartis Investigative Site","city":"Tel Giborim, Holon","zip":"58100","country":"Israel"},{"facility":"Novartis Investigative Site","city":"Ancona","state":"AN","zip":"60128","country":"Italy","geoPoint":{"lat":43.5942,"lon":13.50337}},{"facility":"Novartis Investigative Site","city":"Bergamo","state":"BG","zip":"24127","country":"Italy","geoPoint":{"lat":45.69601,"lon":9.66721}},{"facility":"Novartis Investigative Site","city":"Bologna","state":"BO","zip":"40138","country":"Italy","geoPoint":{"lat":44.49381,"lon":11.33875}},{"facility":"Novartis Investigative Site","city":"Brescia","state":"BS","zip":"25123","country":"Italy","geoPoint":{"lat":45.53558,"lon":10.21472}},{"facility":"Novartis Investigative Site","city":"Cona","state":"FE","zip":"44100","country":"Italy","geoPoint":{"lat":44.80583,"lon":11.7069}},{"facility":"Novartis Investigative Site","city":"Firenze","state":"FI","zip":"50134","country":"Italy","geoPoint":{"lat":43.77925,"lon":11.24626}},{"facility":"Novartis Investigative Site","city":"Pozzilli","state":"IS","zip":"86077","country":"Italy","geoPoint":{"lat":41.51142,"lon":14.06252}},{"facility":"Novartis Investigative Site","city":"Milano","state":"MI","zip":"20132","country":"Italy","geoPoint":{"lat":45.46427,"lon":9.18951}},{"facility":"Novartis Investigative Site","city":"Milano","state":"MI","zip":"20138","country":"Italy","geoPoint":{"lat":45.46427,"lon":9.18951}},{"facility":"Novartis Investigative Site","city":"Milano","state":"MI","zip":"20149","country":"Italy","geoPoint":{"lat":45.46427,"lon":9.18951}},{"facility":"Novartis Investigative Site","city":"Milano","state":"MI","zip":"20162","country":"Italy","geoPoint":{"lat":45.46427,"lon":9.18951}},{"facility":"Novartis Investigative Site","city":"Rozzano","state":"MI","zip":"20089","country":"Italy","geoPoint":{"lat":45.38193,"lon":9.1559}},{"facility":"Novartis Investigative Site","city":"Palermo","state":"PA","zip":"90127","country":"Italy","geoPoint":{"lat":38.13205,"lon":13.33561}},{"facility":"Novartis Investigative Site","city":"Perugia","state":"PG","zip":"06129","country":"Italy","geoPoint":{"lat":43.1122,"lon":12.38878}},{"facility":"Novartis Investigative Site","city":"Pisa","state":"PI","zip":"56124","country":"Italy","geoPoint":{"lat":43.70853,"lon":10.4036}},{"facility":"Novartis Investigative Site","city":"Pisa","state":"PI","zip":"56126","country":"Italy","geoPoint":{"lat":43.70853,"lon":10.4036}},{"facility":"Novartis Investigative Site","city":"Roma","state":"RM","zip":"00100","country":"Italy","geoPoint":{"lat":41.89193,"lon":12.51133}},{"facility":"Novartis Investigative Site","city":"Roma","state":"RM","zip":"00189","country":"Italy","geoPoint":{"lat":41.89193,"lon":12.51133}},{"facility":"Novartis Investigative Site","city":"Salerno","state":"SA","zip":"84131","country":"Italy","geoPoint":{"lat":40.67545,"lon":14.79328}},{"facility":"Novartis Investigative Site","city":"Varese","state":"VA","zip":"21100","country":"Italy","geoPoint":{"lat":45.82058,"lon":8.82511}},{"facility":"Novartis Investigative Site","city":"Napoli","zip":"80131","country":"Italy","geoPoint":{"lat":40.85216,"lon":14.26811}},{"facility":"Novartis Investigative Site","city":"Nagoya","state":"Aichi","zip":"453-8511","country":"Japan","geoPoint":{"lat":35.18147,"lon":136.90641}},{"facility":"Novartis Investigative Site","city":"Seto-city","state":"Aichi","zip":"489-8642","country":"Japan","geoPoint":{"lat":35.23333,"lon":137.1}},{"facility":"Novartis Investigative Site","city":"Hirosaki","state":"Aomori","zip":"036 8563","country":"Japan","geoPoint":{"lat":40.59306,"lon":140.4725}},{"facility":"Novartis Investigative Site","city":"Asahi","state":"Chiba","zip":"289-2511","country":"Japan","geoPoint":{"lat":35.71667,"lon":140.65}},{"facility":"Novartis Investigative Site","city":"Funabashi","state":"Chiba","zip":"273-8588","country":"Japan","geoPoint":{"lat":35.70129,"lon":139.98648}},{"facility":"Novartis Investigative Site","city":"Matsudo-city","state":"Chiba","zip":"270-2251","country":"Japan","geoPoint":{"lat":35.77995,"lon":139.90144}},{"facility":"Novartis Investigative Site","city":"Fukuoka city","state":"Fukuoka","zip":"814 0180","country":"Japan","geoPoint":{"lat":33.6,"lon":130.41667}},{"facility":"Novartis Investigative Site","city":"Kitakyushu-city","state":"Fukuoka","zip":"802-8555","country":"Japan","geoPoint":{"lat":33.85181,"lon":130.85034}},{"facility":"Novartis Investigative Site","city":"Ogaki-city","state":"Gifu","zip":"503-8502","country":"Japan","geoPoint":{"lat":35.35,"lon":136.61667}},{"facility":"Novartis Investigative Site","city":"Kure-city","state":"Hiroshima","zip":"737-0023","country":"Japan","geoPoint":{"lat":34.23222,"lon":132.56658}},{"facility":"Novartis Investigative Site","city":"Tsuchiura","state":"Ibaraki","zip":"300-0028","country":"Japan","geoPoint":{"lat":36.09047,"lon":140.21047}},{"facility":"Novartis Investigative Site","city":"Kahoku-gun","state":"Ishikawa","zip":"920-0293","country":"Japan"},{"facility":"Novartis Investigative Site","city":"Kanazawa-city","state":"Ishikawa","zip":"920-8641","country":"Japan","geoPoint":{"lat":36.6,"lon":136.61667}},{"facility":"Novartis Investigative Site","city":"Komatsu","state":"Ishikawa","zip":"923-0961","country":"Japan","geoPoint":{"lat":36.40263,"lon":136.45088}},{"facility":"Novartis Investigative Site","city":"Takamatsu city","state":"Kagawa","zip":"760 8557","country":"Japan","geoPoint":{"lat":34.33333,"lon":134.05}},{"facility":"Novartis Investigative Site","city":"Kawasaki","state":"Kanagawa","zip":"212-0021","country":"Japan","geoPoint":{"lat":35.52056,"lon":139.71722}},{"facility":"Novartis Investigative Site","city":"Sagamihara","state":"Kanagawa","zip":"252-0375","country":"Japan","geoPoint":{"lat":35.54899,"lon":139.26064}},{"facility":"Novartis Investigative Site","city":"Yokohama city","state":"Kanagawa","zip":"232 0024","country":"Japan","geoPoint":{"lat":35.43333,"lon":139.65}},{"facility":"Novartis Investigative Site","city":"Yokohama-city","state":"Kanagawa","zip":"236 0037","country":"Japan","geoPoint":{"lat":35.43333,"lon":139.65}},{"facility":"Novartis Investigative Site","city":"Sendai city","state":"Miyagi","zip":"980 0873","country":"Japan","geoPoint":{"lat":38.26667,"lon":140.86667}},{"facility":"Novartis Investigative Site","city":"Miyhazaki-city","state":"Miyazaki","zip":"880-2102","country":"Japan"},{"facility":"Novartis Investigative Site","city":"Nagaoka-city","state":"Niigata","zip":"940-8621","country":"Japan","geoPoint":{"lat":37.45,"lon":138.85}},{"facility":"Novartis Investigative Site","city":"Osaka city","state":"Osaka","zip":"530 0001","country":"Japan","geoPoint":{"lat":34.69374,"lon":135.50218}},{"facility":"Novartis Investigative Site","city":"Osaka-city","state":"Osaka","zip":"543-0035","country":"Japan","geoPoint":{"lat":34.69374,"lon":135.50218}},{"facility":"Novartis Investigative Site","city":"Kawaguchi-city","state":"Saitama","zip":"333-0842","country":"Japan","geoPoint":{"lat":35.80521,"lon":139.71072}},{"facility":"Novartis Investigative Site","city":"Sayama-city","state":"Saitama","zip":"350-1305","country":"Japan","geoPoint":{"lat":35.85295,"lon":139.41212}},{"facility":"Novartis Investigative Site","city":"Omihachiman","state":"Shiga","zip":"523-0082","country":"Japan","geoPoint":{"lat":35.12861,"lon":136.0976}},{"facility":"Novartis Investigative Site","city":"Bunkyo ku","state":"Tokyo","zip":"113-8431","country":"Japan","geoPoint":{"lat":35.37517,"lon":139.92991}},{"facility":"Novartis Investigative Site","city":"Chuo ku","state":"Tokyo","zip":"104-8560","country":"Japan","geoPoint":{"lat":35.57779,"lon":139.71685}},{"facility":"Novartis Investigative Site","city":"Chuo-ku","state":"Tokyo","zip":"103-0027","country":"Japan","geoPoint":{"lat":35.57779,"lon":139.71685}},{"facility":"Novartis Investigative Site","city":"Hachioji-city","state":"Tokyo","zip":"192-0918","country":"Japan","geoPoint":{"lat":35.65583,"lon":139.32389}},{"facility":"Novartis Investigative Site","city":"Itabashi-ku","state":"Tokyo","zip":"173-8610","country":"Japan","geoPoint":{"lat":35.74893,"lon":139.71497}},{"facility":"Novartis Investigative Site","city":"Ota-ku","state":"Tokyo","zip":"143 8541","country":"Japan","geoPoint":{"lat":36.3,"lon":139.36667}},{"facility":"Novartis Investigative Site","city":"Shinagawa-ku","state":"Tokyo","zip":"142-8666","country":"Japan","geoPoint":{"lat":33.63627,"lon":133.00572}},{"facility":"Novartis Investigative Site","city":"Toshima-ku","state":"Tokyo","zip":"171-0014","country":"Japan"},{"facility":"Novartis Investigative Site","city":"Daegu","state":"Dalseo Gu","zip":"42602","country":"Korea, Republic of","geoPoint":{"lat":35.87028,"lon":128.59111}},{"facility":"Novartis Investigative Site","city":"Wonju","state":"Gangwon-Do","zip":"26426","country":"Korea, Republic of","geoPoint":{"lat":37.35139,"lon":127.94528}},{"facility":"Novartis Investigative Site","city":"Bundang Gu","state":"Gyeonggi Do","zip":"13620","country":"Korea, Republic of"},{"facility":"Novartis Investigative Site","city":"Suwon si","state":"Gyeonggi Do","zip":"16499","country":"Korea, Republic of","geoPoint":{"lat":37.29111,"lon":127.00889}},{"facility":"Novartis Investigative Site","city":"Seoul","state":"Korea","zip":"08308","country":"Korea, Republic of","geoPoint":{"lat":37.566,"lon":126.9784}},{"facility":"Novartis Investigative Site","city":"Seoul","state":"KOR","zip":"03181","country":"Korea, Republic of","geoPoint":{"lat":37.566,"lon":126.9784}},{"facility":"Novartis Investigative Site","city":"Seoul","state":"Seocho Gu","zip":"06591","country":"Korea, Republic of","geoPoint":{"lat":37.566,"lon":126.9784}},{"facility":"Novartis Investigative Site","city":"Busan","zip":"49201","country":"Korea, Republic of","geoPoint":{"lat":35.10278,"lon":129.04028}},{"facility":"Novartis Investigative Site","city":"Gwangju","zip":"61469","country":"Korea, Republic of","geoPoint":{"lat":35.15472,"lon":126.91556}},{"facility":"Novartis Investigative Site","city":"Incheon","zip":"405 760","country":"Korea, Republic of","geoPoint":{"lat":37.45646,"lon":126.70515}},{"facility":"Novartis Investigative Site","city":"Seoul","zip":"02841","country":"Korea, Republic of","geoPoint":{"lat":37.566,"lon":126.9784}},{"facility":"Novartis Investigative Site","city":"Seoul","zip":"03080","country":"Korea, Republic of","geoPoint":{"lat":37.566,"lon":126.9784}},{"facility":"Novartis Investigative Site","city":"Cuernavaca","state":"Morelos","zip":"62250","country":"Mexico","geoPoint":{"lat":18.9261,"lon":-99.23075}},{"facility":"Novartis Investigative Site","city":"Aguascalientes","zip":"20230","country":"Mexico","geoPoint":{"lat":21.88234,"lon":-102.28259}},{"facility":"Novartis Investigative Site","city":"Culiacan Sinaloa","zip":"80230","country":"Mexico"},{"facility":"Novartis Investigative Site","city":"Distrito Federal","zip":"14080","country":"Mexico","geoPoint":{"lat":16.59,"lon":-93.02694}},{"facility":"Novartis Investigative Site","city":"San Luis Potosi","zip":"78200","country":"Mexico","geoPoint":{"lat":22.14982,"lon":-100.97916}},{"facility":"Novartis Investigative Site","city":"Apeldoorn","state":"DZ","zip":"7334","country":"Netherlands","geoPoint":{"lat":52.21,"lon":5.96944}},{"facility":"Novartis Investigative Site","city":"Arnhem","state":"Gelderland","zip":"6815 AD","country":"Netherlands","geoPoint":{"lat":51.98,"lon":5.91111}},{"facility":"Novartis Investigative Site","city":"Sneek","state":"The Netherlands","zip":"8601 ZR","country":"Netherlands","geoPoint":{"lat":53.03297,"lon":5.6589}},{"facility":"Novartis Investigative Site","city":"Alkmaar","zip":"1815 JD","country":"Netherlands","geoPoint":{"lat":52.63167,"lon":4.74861}},{"facility":"Novartis Investigative Site","city":"Amersfoort","zip":"3813 TZ","country":"Netherlands","geoPoint":{"lat":52.155,"lon":5.3875}},{"facility":"Novartis Investigative Site","city":"Amsterdam","zip":"1090 HM","country":"Netherlands","geoPoint":{"lat":52.37403,"lon":4.88969}},{"facility":"Novartis Investigative Site","city":"Amsterdam","zip":"1105 AZ","country":"Netherlands","geoPoint":{"lat":52.37403,"lon":4.88969}},{"facility":"Novartis Investigative Site","city":"Delft","zip":"2625 AD","country":"Netherlands","geoPoint":{"lat":52.00667,"lon":4.35556}},{"facility":"Novartis Investigative Site","city":"Den Haag","zip":"2545 CH","country":"Netherlands","geoPoint":{"lat":52.07667,"lon":4.29861}},{"facility":"Novartis Investigative Site","city":"Deventer","zip":"7416 SE","country":"Netherlands","geoPoint":{"lat":52.255,"lon":6.16389}},{"facility":"Novartis Investigative Site","city":"Enschede","zip":"7512KZ","country":"Netherlands","geoPoint":{"lat":52.21833,"lon":6.89583}},{"facility":"Novartis Investigative Site","city":"Gouda","zip":"2803 HH","country":"Netherlands","geoPoint":{"lat":52.01667,"lon":4.70833}},{"facility":"Novartis Investigative Site","city":"Groningen","zip":"9728 NZ","country":"Netherlands","geoPoint":{"lat":53.21917,"lon":6.56667}},{"facility":"Novartis Investigative Site","city":"Hardenberg","zip":"7770 AA","country":"Netherlands","geoPoint":{"lat":52.57583,"lon":6.61944}},{"facility":"Novartis Investigative Site","city":"Heemstede","zip":"2102 CW","country":"Netherlands","geoPoint":{"lat":52.34992,"lon":4.62301}},{"facility":"Novartis Investigative Site","city":"Heerlen","zip":"6419","country":"Netherlands","geoPoint":{"lat":50.88365,"lon":5.98154}},{"facility":"Novartis Investigative Site","city":"Leiden","zip":"2300 RC","country":"Netherlands","geoPoint":{"lat":52.15833,"lon":4.49306}},{"facility":"Novartis Investigative Site","city":"Leiderdorp","zip":"2353 GA","country":"Netherlands","geoPoint":{"lat":52.15833,"lon":4.52917}},{"facility":"Novartis Investigative Site","city":"Nijmegen","zip":"6500 HB","country":"Netherlands","geoPoint":{"lat":51.8425,"lon":5.85278}},{"facility":"Novartis Investigative Site","city":"Nijmegen","zip":"6532 SZ","country":"Netherlands","geoPoint":{"lat":51.8425,"lon":5.85278}},{"facility":"Novartis Investigative Site","city":"Tiel","zip":"4002 WP","country":"Netherlands","geoPoint":{"lat":51.88667,"lon":5.42917}},{"facility":"Novartis Investigative Site","city":"Tilburg","zip":"5042 AD","country":"Netherlands","geoPoint":{"lat":51.55551,"lon":5.0913}},{"facility":"Novartis Investigative Site","city":"Utrecht","zip":"3584 CX","country":"Netherlands","geoPoint":{"lat":52.09083,"lon":5.12222}},{"facility":"Novartis Investigative Site","city":"Venlo","zip":"5912 BL","country":"Netherlands","geoPoint":{"lat":51.37,"lon":6.16806}},{"facility":"Novartis Investigative Site","city":"Zwolle","zip":"8025 AB","country":"Netherlands","geoPoint":{"lat":52.5125,"lon":6.09444}},{"facility":"Novartis Investigative Site","city":"Oslo","zip":"0514","country":"Norway","geoPoint":{"lat":59.91273,"lon":10.74609}},{"facility":"Novartis Investigative Site","city":"Skedsmokorset","zip":"2020","country":"Norway","geoPoint":{"lat":60.00459,"lon":11.03278}},{"facility":"Novartis Investigative Site","city":"San Miguel","state":"Lima","zip":"32","country":"Peru","geoPoint":{"lat":-13.0125,"lon":-73.98083}},{"facility":"Novartis Investigative Site","city":"Tarnow","state":"Malopolskie","zip":"33-100","country":"Poland","geoPoint":{"lat":50.01381,"lon":20.98698}},{"facility":"Novartis Investigative Site","city":"Warszawa","state":"Mazowieckie","zip":"00-892","country":"Poland","geoPoint":{"lat":52.22977,"lon":21.01178}},{"facility":"Novartis Investigative Site","city":"Bielsko-Biala","zip":"43-300","country":"Poland","geoPoint":{"lat":49.82245,"lon":19.04686}},{"facility":"Novartis Investigative Site","city":"Chrzanow","zip":"32-500","country":"Poland","geoPoint":{"lat":50.13546,"lon":19.40203}},{"facility":"Novartis Investigative Site","city":"Gdansk","zip":"80 952","country":"Poland","geoPoint":{"lat":54.35205,"lon":18.64637}},{"facility":"Novartis Investigative Site","city":"Gdynia","zip":"81-157","country":"Poland","geoPoint":{"lat":54.51889,"lon":18.53188}},{"facility":"Novartis Investigative Site","city":"Kedzierzyn Kozle","zip":"47 220","country":"Poland","geoPoint":{"lat":50.34984,"lon":18.22606}},{"facility":"Novartis Investigative Site","city":"Krakow","zip":"30-082","country":"Poland","geoPoint":{"lat":50.06143,"lon":19.93658}},{"facility":"Novartis Investigative Site","city":"Krakow","zip":"31 216","country":"Poland","geoPoint":{"lat":50.06143,"lon":19.93658}},{"facility":"Novartis Investigative Site","city":"Lodz","zip":"91-347","country":"Poland","geoPoint":{"lat":51.75,"lon":19.46667}},{"facility":"Novartis Investigative Site","city":"Lodz","zip":"93-338","country":"Poland","geoPoint":{"lat":51.75,"lon":19.46667}},{"facility":"Novartis Investigative Site","city":"Poznan","zip":"60-589","country":"Poland","geoPoint":{"lat":52.40692,"lon":16.92993}},{"facility":"Novartis Investigative Site","city":"Coimbra","zip":"3000 075","country":"Portugal","geoPoint":{"lat":40.20564,"lon":-8.41955}},{"facility":"Novartis Investigative Site","city":"Guimaraes","zip":"4835-044","country":"Portugal","geoPoint":{"lat":41.44443,"lon":-8.29619}},{"facility":"Novartis Investigative Site","city":"Setubal","zip":"2910-446","country":"Portugal","geoPoint":{"lat":38.5244,"lon":-8.8882}},{"facility":"Novartis Investigative Site","city":"Ponce","zip":"00717-1322","country":"Puerto Rico","geoPoint":{"lat":18.01108,"lon":-66.61406}},{"facility":"Novartis Investigative Site","city":"Craiova","state":"Jud Dolj","zip":"200513","country":"Romania","geoPoint":{"lat":44.31667,"lon":23.8}},{"facility":"Novartis Investigative Site","city":"Iasi","state":"Jud Iasi","zip":"700732","country":"Romania","geoPoint":{"lat":47.16667,"lon":27.6}},{"facility":"Novartis Investigative Site","city":"Timisoara","state":"Timis","zip":"300362","country":"Romania","geoPoint":{"lat":45.75372,"lon":21.22571}},{"facility":"Novartis Investigative Site","city":"Baia Mare","zip":"430123","country":"Romania","geoPoint":{"lat":47.65529,"lon":23.57381}},{"facility":"Novartis Investigative Site","city":"Baia Mare","zip":"430222","country":"Romania","geoPoint":{"lat":47.65529,"lon":23.57381}},{"facility":"Novartis Investigative Site","city":"Brasov","zip":"500283","country":"Romania","geoPoint":{"lat":45.64861,"lon":25.60613}},{"facility":"Novartis Investigative Site","city":"Bucharest","zip":"050098","country":"Romania","geoPoint":{"lat":44.43225,"lon":26.10626}},{"facility":"Novartis Investigative Site","city":"Bucuresti","zip":"062272","country":"Romania","geoPoint":{"lat":44.42802,"lon":26.09665}},{"facility":"Novartis Investigative Site","city":"Buzau","zip":"120133","country":"Romania","geoPoint":{"lat":45.15,"lon":26.83333}},{"facility":"Novartis Investigative Site","city":"Iasi","zip":"700503","country":"Romania","geoPoint":{"lat":47.16667,"lon":27.6}},{"facility":"Novartis Investigative Site","city":"Chelyabinsk","zip":"454047","country":"Russian Federation","geoPoint":{"lat":55.15402,"lon":61.42915}},{"facility":"Novartis Investigative Site","city":"Ekaterinburg","zip":"620028","country":"Russian Federation","geoPoint":{"lat":56.8519,"lon":60.6122}},{"facility":"Novartis Investigative Site","city":"Ekaterinburg","zip":"620137","country":"Russian Federation","geoPoint":{"lat":56.8519,"lon":60.6122}},{"facility":"Novartis Investigative Site","city":"Ivanovo","zip":"153012","country":"Russian Federation","geoPoint":{"lat":56.99719,"lon":40.97139}},{"facility":"Novartis Investigative Site","city":"Izhevsk","zip":"426061","country":"Russian Federation","geoPoint":{"lat":56.84976,"lon":53.20448}},{"facility":"Novartis Investigative Site","city":"Kemerovo","zip":"650002","country":"Russian Federation","geoPoint":{"lat":55.33333,"lon":86.08333}},{"facility":"Novartis Investigative Site","city":"Kirov","zip":"610035","country":"Russian Federation","geoPoint":{"lat":58.59665,"lon":49.66007}},{"facility":"Novartis Investigative Site","city":"Korolev Moscow Region","zip":"141060","country":"Russian Federation"},{"facility":"Novartis Investigative Site","city":"Krasnodar","zip":"350086","country":"Russian Federation","geoPoint":{"lat":45.04484,"lon":38.97603}},{"facility":"Novartis Investigative Site","city":"Moscow","zip":"101990","country":"Russian Federation","geoPoint":{"lat":55.75222,"lon":37.61556}},{"facility":"Novartis Investigative Site","city":"Moscow","zip":"117198","country":"Russian Federation","geoPoint":{"lat":55.75222,"lon":37.61556}},{"facility":"Novartis Investigative Site","city":"Moscow","zip":"117997","country":"Russian Federation","geoPoint":{"lat":55.75222,"lon":37.61556}},{"facility":"Novartis Investigative Site","city":"Moscow","zip":"121552","country":"Russian Federation","geoPoint":{"lat":55.75222,"lon":37.61556}},{"facility":"Novartis Investigative Site","city":"Moscow","zip":"127473","country":"Russian Federation","geoPoint":{"lat":55.75222,"lon":37.61556}},{"facility":"Novartis Investigative Site","city":"Moscow","zip":"143420","country":"Russian Federation","geoPoint":{"lat":55.75222,"lon":37.61556}},{"facility":"Novartis Investigative Site","city":"Novosibirsk","zip":"630090","country":"Russian Federation","geoPoint":{"lat":55.0415,"lon":82.9346}},{"facility":"Novartis Investigative Site","city":"Perm","zip":"614097","country":"Russian Federation","geoPoint":{"lat":58.01046,"lon":56.25017}},{"facility":"Novartis Investigative Site","city":"Petrozavodsk","zip":"185019","country":"Russian Federation","geoPoint":{"lat":61.78491,"lon":34.34691}},{"facility":"Novartis Investigative Site","city":"Rostov On Don","zip":"344022","country":"Russian Federation","geoPoint":{"lat":47.23135,"lon":39.72328}},{"facility":"Novartis Investigative Site","city":"Ryazan","zip":"390039","country":"Russian Federation","geoPoint":{"lat":54.6269,"lon":39.6916}},{"facility":"Novartis Investigative Site","city":"Saint Petersburg","zip":"194354","country":"Russian Federation","geoPoint":{"lat":59.93863,"lon":30.31413}},{"facility":"Novartis Investigative Site","city":"Saint Petersburg","zip":"195067","country":"Russian Federation","geoPoint":{"lat":59.93863,"lon":30.31413}},{"facility":"Novartis Investigative Site","city":"Saint Petersburg","zip":"195197","country":"Russian Federation","geoPoint":{"lat":59.93863,"lon":30.31413}},{"facility":"Novartis Investigative Site","city":"Saint Petersburg","zip":"197341","country":"Russian Federation","geoPoint":{"lat":59.93863,"lon":30.31413}},{"facility":"Novartis Investigative Site","city":"Saint Petersburg","zip":"198328","country":"Russian Federation","geoPoint":{"lat":59.93863,"lon":30.31413}},{"facility":"Novartis Investigative Site","city":"Saint-Petersburg","zip":"196143","country":"Russian Federation","geoPoint":{"lat":59.93863,"lon":30.31413}},{"facility":"Novartis Investigative Site","city":"Samara","zip":"443070","country":"Russian Federation","geoPoint":{"lat":53.20007,"lon":50.15}},{"facility":"Novartis Investigative Site","city":"Saratov","zip":"410012","country":"Russian Federation","geoPoint":{"lat":51.54056,"lon":46.00861}},{"facility":"Novartis Investigative Site","city":"Saratov","zip":"410028","country":"Russian Federation","geoPoint":{"lat":51.54056,"lon":46.00861}},{"facility":"Novartis Investigative Site","city":"Sochy","zip":"354002","country":"Russian Federation"},{"facility":"Novartis Investigative Site","city":"St Petersburg","zip":"192007","country":"Russian Federation","geoPoint":{"lat":59.93863,"lon":30.31413}},{"facility":"Novartis Investigative Site","city":"St Petersburg","zip":"195197","country":"Russian Federation","geoPoint":{"lat":59.93863,"lon":30.31413}},{"facility":"Novartis Investigative Site","city":"St Petersburg","zip":"196084","country":"Russian Federation","geoPoint":{"lat":59.93863,"lon":30.31413}},{"facility":"Novartis Investigative Site","city":"St Petersburg","zip":"197136","country":"Russian Federation","geoPoint":{"lat":59.93863,"lon":30.31413}},{"facility":"Novartis Investigative Site","city":"St.- Petersburg","zip":"197110","country":"Russian Federation","geoPoint":{"lat":59.93863,"lon":30.31413}},{"facility":"Novartis Investigative Site","city":"Tomsk","zip":"634009","country":"Russian Federation","geoPoint":{"lat":56.49771,"lon":84.97437}},{"facility":"Novartis Investigative Site","city":"Ulyanovsk","zip":"432063","country":"Russian Federation","geoPoint":{"lat":54.32824,"lon":48.38657}},{"facility":"Novartis Investigative Site","city":"Vsevolozhsk","zip":"188640","country":"Russian Federation","geoPoint":{"lat":60.01512,"lon":30.67314}},{"facility":"Novartis Investigative Site","city":"Yaroslavl","zip":"150062","country":"Russian Federation","geoPoint":{"lat":57.62987,"lon":39.87368}},{"facility":"Novartis Investigative Site","city":"Yekaterinburg","zip":"620109","country":"Russian Federation","geoPoint":{"lat":56.8519,"lon":60.6122}},{"facility":"Novartis Investigative Site","city":"Bardejovske Kupele","state":"Bardejov","zip":"085 01","country":"Slovakia","geoPoint":{"lat":49.32951,"lon":21.26972}},{"facility":"Novartis Investigative Site","city":"Turcianske Teplice","state":"Okr Turcianske Teplice","zip":"03901","country":"Slovakia","geoPoint":{"lat":48.86225,"lon":18.86048}},{"facility":"Novartis Investigative Site","city":"Banska Bystrica","state":"Slovak Republic","zip":"974 01","country":"Slovakia","geoPoint":{"lat":48.73946,"lon":19.15349}},{"facility":"Novartis Investigative Site","city":"Komarno","state":"Slovak Republic","zip":"94501","country":"Slovakia","geoPoint":{"lat":47.76356,"lon":18.12263}},{"facility":"Novartis Investigative Site","city":"Kosice","state":"Slovak Republic","zip":"040 22","country":"Slovakia","geoPoint":{"lat":48.71395,"lon":21.25808}},{"facility":"Novartis Investigative Site","city":"Nitra","state":"Slovak Republic","zip":"949 01","country":"Slovakia","geoPoint":{"lat":48.30763,"lon":18.08453}},{"facility":"Novartis Investigative Site","city":"Rimavska Sobota","state":"Slovak Republic","zip":"97901","country":"Slovakia","geoPoint":{"lat":48.38284,"lon":20.02239}},{"facility":"Novartis Investigative Site","city":"Roznava","state":"Slovak Republic","zip":"04801","country":"Slovakia","geoPoint":{"lat":48.66009,"lon":20.53758}},{"facility":"Novartis Investigative Site","city":"Handlova","state":"SVK","zip":"97251","country":"Slovakia","geoPoint":{"lat":48.7276,"lon":18.76012}},{"facility":"Novartis Investigative Site","city":"Zilina","state":"Zilinsky Kraj","zip":"010 01","country":"Slovakia","geoPoint":{"lat":49.22315,"lon":18.73941}},{"facility":"Novartis Investigative Site","city":"Bardejov","zip":"085 01","country":"Slovakia","geoPoint":{"lat":49.29175,"lon":21.27271}},{"facility":"Novartis Investigative Site","city":"Bardejov","zip":"08501","country":"Slovakia","geoPoint":{"lat":49.29175,"lon":21.27271}},{"facility":"Novartis Investigative Site","city":"Bratislava","zip":"821 07","country":"Slovakia","geoPoint":{"lat":48.14816,"lon":17.10674}},{"facility":"Novartis Investigative Site","city":"Bratislava","zip":"833 05","country":"Slovakia","geoPoint":{"lat":48.14816,"lon":17.10674}},{"facility":"Novartis Investigative Site","city":"Bratislava","zip":"833 48","country":"Slovakia","geoPoint":{"lat":48.14816,"lon":17.10674}},{"facility":"Novartis Investigative Site","city":"Bratislava","zip":"841 07","country":"Slovakia","geoPoint":{"lat":48.14816,"lon":17.10674}},{"facility":"Novartis Investigative Site","city":"Bratislava","zip":"85101","country":"Slovakia","geoPoint":{"lat":48.14816,"lon":17.10674}},{"facility":"Novartis Investigative Site","city":"Bratislava","zip":"85107","country":"Slovakia","geoPoint":{"lat":48.14816,"lon":17.10674}},{"facility":"Novartis Investigative Site","city":"Brezno","zip":"97701","country":"Slovakia","geoPoint":{"lat":48.80431,"lon":19.63631}},{"facility":"Novartis Investigative Site","city":"Dolny Kubin","zip":"026 01","country":"Slovakia","geoPoint":{"lat":49.20983,"lon":19.30341}},{"facility":"Novartis Investigative Site","city":"Komarno","zip":"94501","country":"Slovakia","geoPoint":{"lat":47.76356,"lon":18.12263}},{"facility":"Novartis Investigative Site","city":"Kosice","zip":"040 01","country":"Slovakia","geoPoint":{"lat":48.71395,"lon":21.25808}},{"facility":"Novartis Investigative Site","city":"Lucenec","zip":"98439","country":"Slovakia","geoPoint":{"lat":48.33249,"lon":19.66708}},{"facility":"Novartis Investigative Site","city":"Nitra","zip":"949 01","country":"Slovakia","geoPoint":{"lat":48.30763,"lon":18.08453}},{"facility":"Novartis Investigative Site","city":"Nitra","zip":"94901","country":"Slovakia","geoPoint":{"lat":48.30763,"lon":18.08453}},{"facility":"Novartis Investigative Site","city":"Nitra","zip":"950 01","country":"Slovakia","geoPoint":{"lat":48.30763,"lon":18.08453}},{"facility":"Novartis Investigative Site","city":"Nove Zamky","zip":"940 01","country":"Slovakia","geoPoint":{"lat":47.98544,"lon":18.16195}},{"facility":"Novartis Investigative Site","city":"Nove Zamky","zip":"94002","country":"Slovakia","geoPoint":{"lat":47.98544,"lon":18.16195}},{"facility":"Novartis Investigative Site","city":"Piestany","zip":"921 01","country":"Slovakia","geoPoint":{"lat":48.59479,"lon":17.82591}},{"facility":"Novartis Investigative Site","city":"Povazska Bystrica","zip":"01701","country":"Slovakia","geoPoint":{"lat":49.12153,"lon":18.42169}},{"facility":"Novartis Investigative Site","city":"Presov","zip":"080 01","country":"Slovakia","geoPoint":{"lat":48.99839,"lon":21.23393}},{"facility":"Novartis Investigative Site","city":"Presov","zip":"08001","country":"Slovakia","geoPoint":{"lat":48.99839,"lon":21.23393}},{"facility":"Novartis Investigative Site","city":"Rimavska Sobota","zip":"97901","country":"Slovakia","geoPoint":{"lat":48.38284,"lon":20.02239}},{"facility":"Novartis Investigative Site","city":"Svidnik","zip":"089 01","country":"Slovakia","geoPoint":{"lat":49.30819,"lon":21.5703}},{"facility":"Novartis Investigative Site","city":"Trnava","zip":"917 75","country":"Slovakia","geoPoint":{"lat":48.37741,"lon":17.58723}},{"facility":"Novartis Investigative Site","city":"Ljubljana","zip":"1000","country":"Slovenia","geoPoint":{"lat":46.05108,"lon":14.50513}},{"facility":"Novartis Investigative Site","city":"Soweto","state":"Gauteng","zip":"2013","country":"South Africa","geoPoint":{"lat":-26.26781,"lon":27.85849}},{"facility":"Novartis Investigative Site","city":"Cape Town","state":"Western Cape","zip":"7500","country":"South Africa","geoPoint":{"lat":-33.92584,"lon":18.42322}},{"facility":"Novartis Investigative Site","city":"George","state":"Western Cape","zip":"6529","country":"South Africa","geoPoint":{"lat":-33.963,"lon":22.46173}},{"facility":"Novartis Investigative Site","city":"Cape Town","zip":"6665","country":"South Africa","geoPoint":{"lat":-33.92584,"lon":18.42322}},{"facility":"Novartis Investigative Site","city":"Cape Town","zip":"7405","country":"South Africa","geoPoint":{"lat":-33.92584,"lon":18.42322}},{"facility":"Novartis Investigative Site","city":"Cape Town","zip":"7925","country":"South Africa","geoPoint":{"lat":-33.92584,"lon":18.42322}},{"facility":"Novartis Investigative Site","city":"Cordoba","state":"Andalucia","zip":"14004","country":"Spain","geoPoint":{"lat":37.89155,"lon":-4.77275}},{"facility":"Novartis Investigative Site","city":"Malaga","state":"Andalucia","zip":"29010","country":"Spain","geoPoint":{"lat":36.72016,"lon":-4.42034}},{"facility":"Novartis Investigative Site","city":"Sevilla","state":"Andalucia","zip":"41009","country":"Spain","geoPoint":{"lat":37.38283,"lon":-5.97317}},{"facility":"Novartis Investigative Site","city":"Sevilla","state":"Andalucia","zip":"41013","country":"Spain","geoPoint":{"lat":37.38283,"lon":-5.97317}},{"facility":"Novartis Investigative Site","city":"Sevilla","state":"Andalucia","zip":"41014","country":"Spain","geoPoint":{"lat":37.38283,"lon":-5.97317}},{"facility":"Novartis Investigative Site","city":"Hospitalet de Llobregat","state":"Barcelona","zip":"08907","country":"Spain","geoPoint":{"lat":41.35967,"lon":2.10028}},{"facility":"Novartis Investigative Site","city":"Santander","state":"Cantabria","zip":"39008","country":"Spain","geoPoint":{"lat":43.46472,"lon":-3.80444}},{"facility":"Novartis Investigative Site","city":"Reus","state":"Cataluna","zip":"43201","country":"Spain","geoPoint":{"lat":41.15612,"lon":1.10687}},{"facility":"Novartis Investigative Site","city":"Badalona","state":"Catalunya","zip":"08916","country":"Spain","geoPoint":{"lat":41.45004,"lon":2.24741}},{"facility":"Novartis Investigative Site","city":"Barcelona","state":"Catalunya","zip":"08036","country":"Spain","geoPoint":{"lat":41.38879,"lon":2.15899}},{"facility":"Novartis Investigative Site","city":"Valencia","state":"Comunidad Valenciana","zip":"46010","country":"Spain","geoPoint":{"lat":39.46975,"lon":-0.37739}},{"facility":"Novartis Investigative Site","city":"Caceres","state":"Extremadura","zip":"10003","country":"Spain","geoPoint":{"lat":39.47649,"lon":-6.37224}},{"facility":"Novartis Investigative Site","city":"Santiago de Compostela","state":"Galicia","zip":"15706","country":"Spain","geoPoint":{"lat":42.88052,"lon":-8.54569}},{"facility":"Novartis Investigative Site","city":"A Coruna","zip":"15001","country":"Spain","geoPoint":{"lat":43.37135,"lon":-8.396}},{"facility":"Novartis Investigative Site","city":"Barcelona","zip":"08025","country":"Spain","geoPoint":{"lat":41.38879,"lon":2.15899}},{"facility":"Novartis Investigative Site","city":"Huelva","zip":"21007","country":"Spain","geoPoint":{"lat":37.26638,"lon":-6.94004}},{"facility":"Novartis Investigative Site","city":"Madrid","zip":"28040","country":"Spain","geoPoint":{"lat":40.4165,"lon":-3.70256}},{"facility":"Novartis Investigative Site","city":"Madrid","zip":"28041","country":"Spain","geoPoint":{"lat":40.4165,"lon":-3.70256}},{"facility":"Novartis Investigative Site","city":"Zaragoza","zip":"50009","country":"Spain","geoPoint":{"lat":41.65606,"lon":-0.87734}},{"facility":"Novartis Investigative Site","city":"Goethenburg","zip":"413 45","country":"Sweden"},{"facility":"Novartis Investigative Site","city":"Lund","zip":"22221","country":"Sweden","geoPoint":{"lat":55.70584,"lon":13.19321}},{"facility":"Novartis Investigative Site","city":"Stockholm","zip":"14186","country":"Sweden","geoPoint":{"lat":59.33258,"lon":18.0649}},{"facility":"Novartis Investigative Site","city":"Basel","zip":"4031","country":"Switzerland","geoPoint":{"lat":47.55839,"lon":7.57327}},{"facility":"Novartis Investigative Site","city":"Bern","zip":"3010","country":"Switzerland","geoPoint":{"lat":46.94809,"lon":7.44744}},{"facility":"Novartis Investigative Site","city":"Geneve 14","zip":"1211","country":"Switzerland","geoPoint":{"lat":46.20222,"lon":6.14569}},{"facility":"Novartis Investigative Site","city":"Lausanne","zip":"1011","country":"Switzerland","geoPoint":{"lat":46.516,"lon":6.63282}},{"facility":"Novartis Investigative Site","city":"Liestal","zip":"4410","country":"Switzerland","geoPoint":{"lat":47.48455,"lon":7.73446}},{"facility":"Novartis Investigative Site","city":"Zuerich","zip":"8091","country":"Switzerland","geoPoint":{"lat":47.36667,"lon":8.54999}},{"facility":"Novartis Investigative Site","city":"Taichung","state":"Taiwan ROC","zip":"40201","country":"Taiwan","geoPoint":{"lat":24.1469,"lon":120.6839}},{"facility":"Novartis Investigative Site","city":"Hsinchu","zip":"30069","country":"Taiwan","geoPoint":{"lat":24.80361,"lon":120.96861}},{"facility":"Novartis Investigative Site","city":"Kaohsiung","zip":"80756","country":"Taiwan","geoPoint":{"lat":22.61626,"lon":120.31333}},{"facility":"Novartis Investigative Site","city":"Kaohsiung","zip":"83301","country":"Taiwan","geoPoint":{"lat":22.61626,"lon":120.31333}},{"facility":"Novartis Investigative Site","city":"Keelung City","zip":"20401","country":"Taiwan"},{"facility":"Novartis Investigative Site","city":"Tainan","zip":"71004","country":"Taiwan","geoPoint":{"lat":22.99083,"lon":120.21333}},{"facility":"Novartis Investigative Site","city":"Taipei","zip":"11217","country":"Taiwan","geoPoint":{"lat":25.04776,"lon":121.53185}},{"facility":"Novartis Investigative Site","city":"Taoyuan","zip":"33305","country":"Taiwan","geoPoint":{"lat":24.95233,"lon":121.20193}},{"facility":"Novartis Investigative Site","city":"Yilan","zip":"26058","country":"Taiwan","geoPoint":{"lat":24.757,"lon":121.753}},{"facility":"Novartis Investigative Site","city":"Ankara","state":"Cankaya","zip":"06100","country":"Turkey","geoPoint":{"lat":39.91987,"lon":32.85427}},{"facility":"Novartis Investigative Site","city":"Meselik","state":"Eskisehir","zip":"26480","country":"Turkey"},{"facility":"Novartis Investigative Site","city":"Haydarpasa Istanbul","zip":"34668","country":"Turkey"},{"facility":"Novartis Investigative Site","city":"Istanbul","zip":"34304","country":"Turkey","geoPoint":{"lat":41.01384,"lon":28.94966}},{"facility":"Novartis Investigative Site","city":"Izmir","zip":"35000","country":"Turkey","geoPoint":{"lat":38.41273,"lon":27.13838}},{"facility":"Novartis Investigative Site","city":"Izmir","zip":"35340","country":"Turkey","geoPoint":{"lat":38.41273,"lon":27.13838}},{"facility":"Novartis Investigative Site","city":"Mersin","zip":"33079","country":"Turkey","geoPoint":{"lat":36.79526,"lon":34.61792}},{"facility":"Novartis Investigative Site","city":"Samsun","zip":"55090","country":"Turkey","geoPoint":{"lat":41.27976,"lon":36.3361}},{"facility":"Novartis Investigative Site","city":"Stockton on Tees","state":"Cleveland","zip":"TS19 8PE","country":"United Kingdom","geoPoint":{"lat":54.56848,"lon":-1.3187}},{"facility":"Novartis Investigative Site","city":"Dorchester","state":"Dorset","zip":"DT1 2JY","country":"United Kingdom","geoPoint":{"lat":50.71667,"lon":-2.43333}},{"facility":"Novartis Investigative Site","city":"London","state":"GBR","zip":"EC1M 6BQ","country":"United Kingdom","geoPoint":{"lat":51.50853,"lon":-0.12574}},{"facility":"Novartis Investigative Site","city":"London","state":"Greater London","zip":"EN3 4GS","country":"United Kingdom","geoPoint":{"lat":51.50853,"lon":-0.12574}},{"facility":"Novartis Investigative Site","city":"Preston","state":"Lancashire","zip":"PR2 9QB","country":"United Kingdom","geoPoint":{"lat":53.76282,"lon":-2.70452}},{"facility":"Novartis Investigative Site","city":"Rochdale","state":"North Manchester","zip":"OL11 4AU","country":"United Kingdom","geoPoint":{"lat":53.61766,"lon":-2.1552}},{"facility":"Novartis Investigative Site","city":"Portadown","state":"Nothern Ireland","zip":"BT63 5QQ","country":"United Kingdom","geoPoint":{"lat":54.42302,"lon":-6.44434}},{"facility":"Novartis Investigative Site","city":"Dundee","state":"Perthshire","zip":"DD1 9SY","country":"United Kingdom","geoPoint":{"lat":56.46913,"lon":-2.97489}},{"facility":"Novartis Investigative Site","city":"Taunton","state":"Somerset","zip":"TA1 5DA","country":"United Kingdom","geoPoint":{"lat":51.01494,"lon":-3.10293}},{"facility":"Novartis Investigative Site","city":"Chertsey","state":"Surrey","zip":"KT160PZ","country":"United Kingdom","geoPoint":{"lat":51.38812,"lon":-0.50782}},{"facility":"Novartis Investigative Site","city":"Sketty","state":"Swansea","zip":"SA2 8PP","country":"United Kingdom"},{"facility":"Novartis Investigative Site","city":"Sunderland","state":"Tyne And Wear","zip":"SR4 7TP","country":"United Kingdom","geoPoint":{"lat":54.90465,"lon":-1.38222}},{"facility":"Novartis Investigative Site","city":"Cardiff","state":"Wales","zip":"CF5 4AD","country":"United Kingdom","geoPoint":{"lat":51.48,"lon":-3.18}},{"facility":"Novartis Investigative Site","city":"Rhyl","state":"Wales","zip":"LL18 5UJ","country":"United Kingdom","geoPoint":{"lat":53.31929,"lon":-3.49228}},{"facility":"Novartis Investigative Site","city":"Chichester","state":"West Sussex","zip":"PO19 6SE","country":"United Kingdom","geoPoint":{"lat":50.83673,"lon":-0.78003}},{"facility":"Novartis Investigative Site","city":"Birmingham","zip":"B9 5SS","country":"United Kingdom","geoPoint":{"lat":52.48142,"lon":-1.89983}},{"facility":"Novartis Investigative Site","city":"Bournemouth","zip":"BH7 7DW","country":"United Kingdom","geoPoint":{"lat":50.72048,"lon":-1.8795}},{"facility":"Novartis Investigative Site","city":"Bristol","zip":"BS2 8HN","country":"United Kingdom","geoPoint":{"lat":51.45523,"lon":-2.59665}},{"facility":"Novartis Investigative Site","city":"Cardiff","zip":"CF64 2XX","country":"United Kingdom","geoPoint":{"lat":51.48,"lon":-3.18}},{"facility":"Novartis Investigative Site","city":"Chesterfield","zip":"S40 4AA","country":"United Kingdom","geoPoint":{"lat":53.25,"lon":-1.41667}},{"facility":"Novartis Investigative Site","city":"Edinburgh","zip":"ED16 4SA","country":"United Kingdom","geoPoint":{"lat":55.95206,"lon":-3.19648}},{"facility":"Novartis Investigative Site","city":"Glasgow","zip":"G20 7BE","country":"United Kingdom","geoPoint":{"lat":55.86515,"lon":-4.25763}},{"facility":"Novartis Investigative Site","city":"Harrow","zip":"HA1 3UJ","country":"United Kingdom","geoPoint":{"lat":51.57142,"lon":-0.33371}},{"facility":"Novartis Investigative Site","city":"Leicester","zip":"LE3 9QP","country":"United Kingdom","geoPoint":{"lat":52.6386,"lon":-1.13169}},{"facility":"Novartis Investigative Site","city":"Liverpool","zip":"L7 8XP","country":"United Kingdom","geoPoint":{"lat":53.41058,"lon":-2.97794}},{"facility":"Novartis Investigative Site","city":"Londonderry","zip":"BT47 1SB","country":"United Kingdom","geoPoint":{"lat":54.9981,"lon":-7.30934}},{"facility":"Novartis Investigative Site","city":"London","zip":"W12 0HS","country":"United Kingdom","geoPoint":{"lat":51.50853,"lon":-0.12574}},{"facility":"Novartis Investigative Site","city":"Manchester","zip":"M13 9NT","country":"United Kingdom","geoPoint":{"lat":53.48095,"lon":-2.23743}},{"facility":"Novartis Investigative Site","city":"Middlesbrough","zip":"TS4 3BW","country":"United Kingdom","geoPoint":{"lat":54.57623,"lon":-1.23483}},{"facility":"Novartis Investigative Site","city":"Middlesex","zip":"UB9 6JH","country":"United Kingdom","geoPoint":{"lat":51.53174,"lon":-0.26856}},{"facility":"Novartis Investigative Site","city":"Newcastle upon Tyne","zip":"NE7 7DN","country":"United Kingdom","geoPoint":{"lat":54.97328,"lon":-1.61396}},{"facility":"Novartis Investigative Site","city":"Newport","zip":"NP20 2UB","country":"United Kingdom","geoPoint":{"lat":51.58774,"lon":-2.99835}},{"facility":"Novartis Investigative Site","city":"Norwich","zip":"NR4 7UY","country":"United Kingdom","geoPoint":{"lat":52.62783,"lon":1.29834}},{"facility":"Novartis Investigative Site","city":"Plymouth","zip":"PL6 8DH","country":"United Kingdom","geoPoint":{"lat":50.37153,"lon":-4.14305}},{"facility":"Novartis Investigative Site","city":"Sheffield","zip":"S5 7AU","country":"United Kingdom","geoPoint":{"lat":53.38297,"lon":-1.4659}},{"facility":"Novartis Investigative Site","city":"Tyne And Wear","zip":"NE29 8NH","country":"United Kingdom"},{"facility":"Novartis Investigative Site","city":"West Midlands","zip":"B71 4HJ","country":"United Kingdom"},{"facility":"Novartis Investigative Site","city":"Wiltshire","zip":"SN15 2SB","country":"United Kingdom"},{"facility":"Novartis Investigative Site","city":"Wrexham","zip":"LL13 7TD","country":"United Kingdom","geoPoint":{"lat":53.04664,"lon":-2.99132}}]},"referencesModule":{"references":[{"pmid":"34556281","type":"DERIVED","citation":"Tsimikas S, Reeves RR, Patel MP. Always Present, But Now Rediscovered: Lp(a) as a Predictor of Long-Term Outcomes in PCI. JACC Cardiovasc Interv. 2021 Sep 27;14(18):2069-2072. doi: 10.1016/j.jcin.2021.08.032. No abstract available."},{"pmid":"34232223","type":"DERIVED","citation":"Plakogiannis R, Sorbera M, Fischetti B, Chen M. The Role of Antisense Therapies Targeting Lipoprotein(a). J Cardiovasc Pharmacol. 2021 Jul 1;78(1):e5-e11. doi: 10.1097/FJC.0000000000001045."}]},"ipdSharingStatementModule":{"ipdSharing":"YES","description":"Novartis is committed to sharing with qualified external researchers, access to patient -level data and supporting clinical documents from eligible studies. These requests are reviewed and approved by an independent review panel on the basis of scientific merit. All data provided is anonymized to respect the privacy of patients who have participated in the trial in line with the applicable laws and regulations.\n\nThis trial data availability is according to the criteria and process described on www.clinicalstudydatarequest.com."}},"derivedSection":{"miscInfoModule":{"versionHolder":"2024-02-14","removedCountries":["Philippines"]},"conditionBrowseModule":{"meshes":[{"id":"D000002318","term":"Cardiovascular Diseases"}],"browseLeaves":[{"id":"M21996","name":"Stroke","relevance":"LOW"},{"id":"M11845","name":"Myocardial Infarction","relevance":"LOW"},{"id":"M9972","name":"Infarction","relevance":"LOW"}],"browseBranches":[{"abbrev":"BC10","name":"Nervous System Diseases"},{"abbrev":"BC14","name":"Heart and Blood Diseases"},{"abbrev":"All","name":"All Conditions"},{"abbrev":"BC23","name":"Symptoms and General Pathology"}]}},"hasResults":false}