{"protocolSection":{"identificationModule":{"nctId":"NCT03541668","orgStudyIdInfo":{"id":"TASLY-B1440-CTP-Ⅲa"},"organization":{"fullName":"Tasly Biopharmaceuticals Co., Ltd.","class":"INDUSTRY"},"briefTitle":"Study of rhPro-UK in Patients With Acute Ischaemic Stroke in 4.5 Hours After Stroke Onset(PROST)","officialTitle":"A Phase III Trial to Assess the Efficacy and Safety of Recombinant Human Prourokinase in the Treatment of Acute Acute Ischaemic Stroke in 4.5 Hours After Stroke Onset"},"statusModule":{"statusVerifiedDate":"2019-12","overallStatus":"COMPLETED","expandedAccessInfo":{"hasExpandedAccess":false},"startDateStruct":{"date":"2018-05-18","type":"ACTUAL"},"primaryCompletionDateStruct":{"date":"2020-04-14","type":"ACTUAL"},"completionDateStruct":{"date":"2020-05-24","type":"ACTUAL"},"studyFirstSubmitDate":"2018-03-13","studyFirstSubmitQcDate":"2018-05-17","studyFirstPostDateStruct":{"date":"2018-05-30","type":"ACTUAL"},"lastUpdateSubmitDate":"2020-06-18","lastUpdatePostDateStruct":{"date":"2020-06-22","type":"ACTUAL"}},"sponsorCollaboratorsModule":{"responsibleParty":{"type":"SPONSOR"},"leadSponsor":{"name":"Tasly Biopharmaceuticals Co., Ltd.","class":"INDUSTRY"}},"oversightModule":{"isFdaRegulatedDrug":false,"isFdaRegulatedDevice":false,"isUsExport":false},"descriptionModule":{"briefSummary":"This is a randomized, rt-PA controlled, open-label phase 3 clinical study to evaluate the efficacy and safety of recombinant human urokinase(rhPro-UK) versus rt-PA thrombolysis for patients with acute ischaemic stroke in 4.5 hours after stroke onset."},"conditionsModule":{"conditions":["Acute Ischaemic Stroke"]},"designModule":{"studyType":"INTERVENTIONAL","phases":["PHASE3"],"designInfo":{"allocation":"RANDOMIZED","interventionModel":"PARALLEL","primaryPurpose":"TREATMENT","maskingInfo":{"masking":"NONE"}},"enrollmentInfo":{"count":674,"type":"ACTUAL"}},"armsInterventionsModule":{"armGroups":[{"label":"Group A","type":"EXPERIMENTAL","description":"Recombinant human urokinase (rhPro-UK)","interventionNames":["Drug: Recombinant human urokinase"]},{"label":"Group B","type":"ACTIVE_COMPARATOR","description":"Alteplase(rt-PA)","interventionNames":["Drug: Alteplase"]}],"interventions":[{"type":"DRUG","name":"Recombinant human urokinase","description":"Patients receive rhPro-UK 35mg,15mg of which is given as a bolus within 3 minutes followed by dlivery of the remaining 20 mg as a constant infusion over a period of 30 minutes.","armGroupLabels":["Group A"],"otherNames":["rhPro-UK"]},{"type":"DRUG","name":"Alteplase","description":"Patients receive rt-PA in a dose of 0.9mg per kilogram of body weight(maximum,90 mg),10 percent of which was given as a blous followed by delivery of the remaining 90 percent as a constant infusion over a period of 60 minutes.","armGroupLabels":["Group B"],"otherNames":["rt-PA"]}]},"outcomesModule":{"primaryOutcomes":[{"measure":"Functional handicap","description":"Proportion of patients achieving a Modified Rankin Scale(mRS,which has a range of 0 to 6, with 0 indicating no symptoms at all and 6 indicating death) of 0 to 1 at 90 days after treatment.","timeFrame":"90days"}],"secondaryOutcomes":[{"measure":"Proportion of Neurological Improvement","description":"Proportion of patients achieving a NIHSS(national institutes of health stroke scale) ≦1 or reduction of ≥4 NIHSS points at 24 hours after treatment.","timeFrame":"90 days"},{"measure":"Scores of Neurological Improvement","description":"NIHSS changes from baseline at 24 hours after treatment","timeFrame":"24 hours"},{"measure":"Long-term Change from Baseline","description":"NIHSS, mRS and Barthel Index(which assesses the ability to perform activities of daily living, on a scale that ranges from 0 to 100) changes from baseline on 90 days after treatment.","timeFrame":"90 days"},{"measure":"Proportion of Long-term Improvement","description":"Proportion of patients achieving a mRS of 0 to 2 and a Barthel Index of 75 to 100 at 90 days after treatment.","timeFrame":"90 days"},{"measure":"Systemic hemorrhage","description":"Severe systemic hemorrhage","timeFrame":"90days"},{"measure":"Symptomatic intracerebral hemorrhage","description":"Symptomatic intracerebral hemorrhage (sICH)","timeFrame":"90days"},{"measure":"Death","description":"Death","timeFrame":"7 days and 90 days"},{"measure":"Recurrence","description":"Recurrence of stroke","timeFrame":"7 days"},{"measure":"Liver function","description":"The incidence of ALT≥3ULN in liver biochemical examination","timeFrame":"7 days"},{"measure":"Renal function","description":"The incidence of Scr rising to 3 times or ≥ 4mg/dl more than the base value","timeFrame":"7 days"}]},"eligibilityModule":{"eligibilityCriteria":"Inclusion Criteria:\n\n1. Ischemic stroke with symptoms of neurological deficits.\n2. Aged 18 to 80 years（including the critical value）.\n3. NIH Stroke Scale（NIHSS）scores of 4 to 25（including the critical value）.\n4. Treatment within 4.5 hours after stroke onset.\n5. The symptoms of stroke last at least 30 minutes without significant improvement before treatment.\n6. CT showed negative or signs of early infarction.\n7. Informed Consent Form signed by the patients or family (legal representatives) must be provided.\n\nExclusion Criteria:\n\n1. Patients with premorbid modified Rankin Scale (mRS) score ≥2\n2. CT showed multiple infarctions（low density\\> 1/3 cerebral hemisphere）.\n3. Transient ischemic attack.\n4. Epileptic seizure after stroke.\n5. Intracranial tumor, arteriovenous malformation and aneurysm.\n6. Iatrogenic Stroke.\n7. Planned for thrombectomy.\n8. Cardioembolism and atrial fibrillation.\n9. Myocardial infarction history within 3 months.\n10. Severe cerebral trauma or stroke history within 3 months.\n11. Patients with systolic blood pressure ≥ 180mmHg or diastolic blood pressure ≥ 100mmHg after anti-hypertension treatment.\n12. Intracranial hemorrhage or subarachnoid hemorrhage on baseline.\n13. Active visceral hemorrhage.\n14. Patients with intracerebral hemorrhage history.\n15. Patients with diabetic retinopathy history.\n16. Puncture in 1 week which can not be oppressed.\n17. Major surgery or severe trauma within 2 weeks.\n18. Intracranial surgery, intraspinal surgery or solid organ biopsy within 30 days.\n19. Heparin treatment within 48h and increased APTT is above ULN.\n20. Using of oral anticoagulant drugs and PT \\>15s or INR \\>1.7.\n21. High risk of acute hemorrhage include platelet count\\<10\\^9/L.\n22. Using of thrombin inhibitors or factor Xa inhibitor with abnormal results of sensitive laboratory examination.\n23. Blood glucose \\< 2.7 mmol/L or \\> 22.2 mmol/L.\n24. Pregnancy, lactating or menstrual women.\n25. The investigator believes that the patient is not suitable for the study.","healthyVolunteers":false,"sex":"ALL","minimumAge":"18 Years","maximumAge":"80 Years","stdAges":["ADULT","OLDER_ADULT"]},"contactsLocationsModule":{"locations":[{"facility":"Beijing Luhe Hospital,Capital Medical University","city":"Beijing","state":"Beijing","country":"China","geoPoint":{"lat":39.9075,"lon":116.39723}},{"facility":"XuanWu Hospital, Capital Medical University","city":"Beijing","state":"Beijing","country":"China","geoPoint":{"lat":39.9075,"lon":116.39723}},{"facility":"Liuzhou Worker's Hospital","city":"Liuzhou","state":"Guangxi","country":"China"},{"facility":"Cangzhou Central Hospital","city":"Cangzhou","state":"Hebei","country":"China","geoPoint":{"lat":38.31667,"lon":116.86667}},{"facility":"The First Hospital of Handan","city":"Handan","state":"Hebei","country":"China","geoPoint":{"lat":36.60056,"lon":114.46778}},{"facility":"Harrison International Peace Hospital","city":"Hengshui","state":"Hebei","country":"China","geoPoint":{"lat":37.73222,"lon":115.70111}},{"facility":"The First Hospital of Hebei Medical University","city":"Shijiazhuang","state":"Hebei","country":"China","geoPoint":{"lat":38.04139,"lon":114.47861}},{"facility":"The Second Hospital of Hebei Medical University","city":"Shijiazhuang","state":"Hebei","country":"China","geoPoint":{"lat":38.04139,"lon":114.47861}},{"facility":"Tangshan Gongren Hospital","city":"Tangshan","state":"Hebei","country":"China","geoPoint":{"lat":39.63333,"lon":118.18333}},{"facility":"Daqing Oilfield General Hospital","city":"Daqing","state":"Heilongjiang","country":"China","geoPoint":{"lat":46.58333,"lon":125.0}},{"facility":"The First Affiliated Hospital of Harbin Medical University","city":"Harbin","state":"Heilongjiang","country":"China","geoPoint":{"lat":45.75,"lon":126.65}},{"facility":"The Fourth Affiliated Hospital of Harbin Medical University","city":"Harbin","state":"Heilongjiang","country":"China","geoPoint":{"lat":45.75,"lon":126.65}},{"facility":"The First Hospital of Changsha","city":"Changsha","state":"Hunan","country":"China","geoPoint":{"lat":28.19874,"lon":112.97087}},{"facility":"First Affiliated Hospital of Baotou Medical College","city":"Baotou","state":"Inner Mongolia","zip":"100053","country":"China","geoPoint":{"lat":40.65222,"lon":109.82222}},{"facility":"Baotou Central Hospital","city":"Baotou","state":"Inner Mongolia","country":"China","geoPoint":{"lat":40.65222,"lon":109.82222}},{"facility":"Affiliated Hospital of Inner Mongolia Medical University","city":"Hohhot","state":"Inner Mongolia","country":"China","geoPoint":{"lat":40.81056,"lon":111.65222}},{"facility":"Inner Mongolia People's Hospital","city":"Hohhot","state":"Inner Mongolia","country":"China","geoPoint":{"lat":40.81056,"lon":111.65222}},{"facility":"Huai'an First People's Hospital","city":"Huai'an","state":"Jiangsu","country":"China","geoPoint":{"lat":33.50389,"lon":119.14417}},{"facility":"The Second People'Hospital of Huai'an","city":"Huai'an","state":"Jiangsu","country":"China","geoPoint":{"lat":33.50389,"lon":119.14417}},{"facility":"Nanjing Drum Tower Hospital","city":"Nanjing","state":"Jiangsu","country":"China","geoPoint":{"lat":32.06167,"lon":118.77778}},{"facility":"The Affiliated Hospital of Xuzhou Medical University","city":"Xuzhou","state":"Jiangsu","country":"China","geoPoint":{"lat":34.18045,"lon":117.15707}},{"facility":"Xuzhou Central Hospital","city":"Xuzhou","state":"Jiangsu","country":"China","geoPoint":{"lat":34.18045,"lon":117.15707}},{"facility":"Jiangxi Pingxiang People's Hospital","city":"Pingxiang","state":"Jiangxi","country":"China","geoPoint":{"lat":27.61672,"lon":113.85353}},{"facility":"First Hospital of Jilin University","city":"Changchun","state":"Jilin","country":"China","geoPoint":{"lat":43.88,"lon":125.32278}},{"facility":"The Neuropsychiatric Hospital of Jilin Province","city":"Siping","state":"Jilin","country":"China","geoPoint":{"lat":43.16143,"lon":124.37785}},{"facility":"Dalian Municipal Central Hospital","city":"Dalian","state":"Liaoning","country":"China","geoPoint":{"lat":38.91222,"lon":121.60222}},{"facility":"Shenyang Military Region General Hospital","city":"Shenyang","state":"Liaoning","country":"China","geoPoint":{"lat":41.79222,"lon":123.43278}},{"facility":"The 163th Hospital of the Chinese People's Liberation Army","city":"Shenyang","state":"Liaoning","country":"China","geoPoint":{"lat":41.79222,"lon":123.43278}},{"facility":"Liaocheng People's Hospital","city":"Liaocheng","state":"Shandong","country":"China","geoPoint":{"lat":36.45596,"lon":115.97766}},{"facility":"The First Affiliated Hospital of Xi'an Jiaotong University","city":"Xi'an","state":"Shanxi","country":"China","geoPoint":{"lat":34.25833,"lon":108.92861}},{"facility":"The People's Hospital of Sichuan Province","city":"Chengdu","state":"Sichuan","country":"China","geoPoint":{"lat":30.66667,"lon":104.06667}},{"facility":"Deyang people's hospital","city":"Deyang","state":"Sichuan","country":"China","geoPoint":{"lat":31.13019,"lon":104.38198}},{"facility":"Tianjin Huanhu Hospital","city":"Tianjin","state":"Tianjin","country":"China","geoPoint":{"lat":39.14222,"lon":117.17667}},{"facility":"Taizhou Hospital of Zhejiang Province","city":"Taizhou","state":"Zhejiang","country":"China","geoPoint":{"lat":32.49069,"lon":119.90812}},{"facility":"Luoyang Central Hospital","city":"Luoyang","state":"Zhengzhou","country":"China","geoPoint":{"lat":34.68361,"lon":112.45361}}]},"ipdSharingStatementModule":{"ipdSharing":"NO"}},"derivedSection":{"miscInfoModule":{"versionHolder":"2024-02-14"},"conditionBrowseModule":{"meshes":[{"id":"D000020521","term":"Stroke"},{"id":"D000083242","term":"Ischemic Stroke"},{"id":"D000002544","term":"Cerebral Infarction"},{"id":"D000007511","term":"Ischemia"}],"ancestors":[{"id":"D000002561","term":"Cerebrovascular Disorders"},{"id":"D000001927","term":"Brain Diseases"},{"id":"D000002493","term":"Central Nervous System Diseases"},{"id":"D000009422","term":"Nervous System Diseases"},{"id":"D000014652","term":"Vascular Diseases"},{"id":"D000002318","term":"Cardiovascular Diseases"},{"id":"D000010335","term":"Pathologic Processes"},{"id":"D000020520","term":"Brain Infarction"},{"id":"D000002545","term":"Brain Ischemia"},{"id":"D000007238","term":"Infarction"},{"id":"D000009336","term":"Necrosis"}],"browseLeaves":[{"id":"M21996","name":"Stroke","asFound":"Stroke","relevance":"HIGH"},{"id":"M10233","name":"Ischemia","asFound":"Ischemic","relevance":"HIGH"},{"id":"M2401","name":"Ischemic Stroke","asFound":"Ischemic Stroke","relevance":"HIGH"},{"id":"M9972","name":"Infarction","relevance":"LOW"},{"id":"M5483","name":"Cerebral Infarction","asFound":"Ischemic Stroke","relevance":"HIGH"},{"id":"M5500","name":"Cerebrovascular Disorders","relevance":"LOW"},{"id":"M4894","name":"Brain Diseases","relevance":"LOW"},{"id":"M5432","name":"Central Nervous System Diseases","relevance":"LOW"},{"id":"M17090","name":"Vascular Diseases","relevance":"LOW"},{"id":"M21995","name":"Brain Infarction","relevance":"LOW"},{"id":"M5484","name":"Brain Ischemia","relevance":"LOW"},{"id":"M11974","name":"Necrosis","relevance":"LOW"},{"id":"T170","name":"Acute Graft Versus Host Disease","relevance":"LOW"}],"browseBranches":[{"abbrev":"BC10","name":"Nervous System Diseases"},{"abbrev":"BC14","name":"Heart and Blood Diseases"},{"abbrev":"All","name":"All Conditions"},{"abbrev":"BC23","name":"Symptoms and General Pathology"},{"abbrev":"Rare","name":"Rare Diseases"}]},"interventionBrowseModule":{"meshes":[{"id":"D000010959","term":"Tissue Plasminogen Activator"}],"ancestors":[{"id":"D000005343","term":"Fibrinolytic Agents"},{"id":"D000050299","term":"Fibrin Modulating Agents"},{"id":"D000045504","term":"Molecular Mechanisms of Pharmacological Action"}],"browseLeaves":[{"id":"M13539","name":"Tissue Plasminogen Activator","asFound":"Patient Reported Outcomes","relevance":"HIGH"},{"id":"M250237","name":"Saruplase","relevance":"LOW"},{"id":"M13538","name":"Plasminogen","relevance":"LOW"},{"id":"M8163","name":"Fibrinolytic Agents","relevance":"LOW"}],"browseBranches":[{"abbrev":"FiAg","name":"Fibrinolytic Agents"},{"abbrev":"All","name":"All Drugs and Chemicals"}]}},"hasResults":false}