{"protocolSection":{"identificationModule":{"nctId":"NCT05686642","orgStudyIdInfo":{"id":"SPH-LT3001-202"},"organization":{"fullName":"Shanghai Pharmaceuticals Holding Co., Ltd","class":"INDUSTRY"},"briefTitle":"Efficacy and Safety of LT3001 on Treating the Acute Ischemic Stroke","officialTitle":"A Phase II Multicenter, Randomized, Double-blind, Placebo-controlled, Parallel-group Clinical Study to Evaluate the Safety and Efficacy of LT3001 in Subjects With Acute Ischemic Stroke (AIS)"},"statusModule":{"statusVerifiedDate":"2023-01","overallStatus":"RECRUITING","expandedAccessInfo":{"hasExpandedAccess":false},"startDateStruct":{"date":"2023-04-06","type":"ACTUAL"},"primaryCompletionDateStruct":{"date":"2025-04-10","type":"ESTIMATED"},"completionDateStruct":{"date":"2025-07-12","type":"ESTIMATED"},"studyFirstSubmitDate":"2023-01-09","studyFirstSubmitQcDate":"2023-01-09","studyFirstPostDateStruct":{"date":"2023-01-17","type":"ACTUAL"},"lastUpdateSubmitDate":"2023-12-14","lastUpdatePostDateStruct":{"date":"2023-12-15","type":"ACTUAL"}},"sponsorCollaboratorsModule":{"responsibleParty":{"type":"SPONSOR"},"leadSponsor":{"name":"Shanghai Pharmaceuticals Holding Co., Ltd","class":"INDUSTRY"}},"oversightModule":{"isFdaRegulatedDrug":false,"isFdaRegulatedDevice":false},"descriptionModule":{"briefSummary":"This phase II clinical study is designed to evaluate the safety and efficacy of LT3001 in the treatment of acute ischemic stroke"},"conditionsModule":{"conditions":["Acute Ischemic Stroke"]},"designModule":{"studyType":"INTERVENTIONAL","phases":["PHASE2"],"designInfo":{"allocation":"RANDOMIZED","interventionModel":"PARALLEL","primaryPurpose":"TREATMENT","maskingInfo":{"masking":"DOUBLE","whoMasked":["PARTICIPANT","INVESTIGATOR"]}},"enrollmentInfo":{"count":300,"type":"ESTIMATED"}},"armsInterventionsModule":{"armGroups":[{"label":"LT3001 Drug:high dose","type":"EXPERIMENTAL","interventionNames":["Drug: LT3001 Drug:high dose"]},{"label":"Placebo","type":"PLACEBO_COMPARATOR","interventionNames":["Drug: Placebo"]},{"label":"LT3001 Drug:low dose","type":"EXPERIMENTAL","interventionNames":["Drug: LT3001 Drug:low dose"]}],"interventions":[{"type":"DRUG","name":"LT3001 Drug:high dose","description":"Administered by intravenous infusion.","armGroupLabels":["LT3001 Drug:high dose"]},{"type":"DRUG","name":"Placebo","description":"Administered by intravenous infusion.","armGroupLabels":["Placebo"]},{"type":"DRUG","name":"LT3001 Drug:low dose","description":"Administered by intravenous infusion.","armGroupLabels":["LT3001 Drug:low dose"]}]},"outcomesModule":{"primaryOutcomes":[{"measure":"Incidence Adverse Events","description":"Adverse event type, incidence, duration, correlation with study drug","timeFrame":"Approximately 2 years"}],"secondaryOutcomes":[{"measure":"Proportion of subjects by mRS（Modified Rankin Scale） score (0 - 2)","description":"Proportion of subjects by mRS score (0 - 2)","timeFrame":"Day 30 and Day 90 after the first dose"},{"measure":"Proportion of subjects with an NIHSS（National Institute of Health stroke scale ） score of ≤ 1 point and/or with a decrease of ≥ 4 points from baseline in NIHSS score","description":"Proportion of subjects with an NIHSS score of ≤ 1 point and/or with a decrease of ≥ 4 points from baseline in NIHSS score","timeFrame":"Day 14 after the first dose"},{"measure":"Absolute change from baseline in NIHSS score","description":"Absolute change from baseline in NIHSS score","timeFrame":"Day 3、Day 7、Day 14 and Day 30 after the first dose"},{"measure":"Proportion of subjects with a BI（Barthel index） score of ≥ 95 points and ≥ 75 points","description":"Proportion of subjects with a BI score of ≥ 95 points and ≥ 75 points","timeFrame":"Day 30 and Day 90 after the first dose"}]},"eligibilityModule":{"eligibilityCriteria":"Inclusion Criteria:\n\n1. Subjects aged between 18 and 80 years at screening;\n2. Clinical diagnosis of acute ischemic stroke that causes evaluable neurological impairment; 3.4 points ≤ NIHSS score ≤ 25 points at randomization;\n\n4.Subjects who are able to receive the investigational drug within 24 hours after the onset of stroke; 5.Female subjects of childbearing potential or male subjects whose sexual partner are women of childbearing potential have no pregnancy plan and voluntarily take effective contraceptive measures during the study period and for 3 months after the last dose; 6.All subjects sign the informed consent form by themselves or their guardians after receiving complete study information.\n\nExclusion Criteria:\n\n1. Subjects have received or plan to receive endovascular treatment and/or intravenous thrombolytic therapy recommended by Chinese Guidelines for Diagnosis and Treatment of Acute Ischemic Stroke 2018 during this onset period;\n2. Presence of disturbances of consciousness at screening and NIHSS 1a ≥ 2 points;\n3. Neurological signs have improved rapidly and spontaneously at screening;\n4. Subjects who have used or are using protocol-prohibited medications after the onset;\n5. Subjects with pre-stroke disability;\n6. Subjects with intracranial hemorrhagic diseases, tumor in brain parenchyma, arteriovenous malformation, aortic arch dissection, other central nervous system lesions that may increase the risk of hemorrhage, or imaging evidence for arterial aneurysm requiring treatment;\n7. Massive infarction on imaging;\n8. Patients who are unable to cooperate due to epileptic seizure at the onset of stroke or other concomitant mental disorders or are unwilling to cooperate;\n9. Systolic blood pressure \\> 180 mmHg and/or diastolic blood pressure \\> 100 mmHg after active antihypertensive therapy;\n10. Acute hemorrhage tendency;\n11. Blood glucose level \\< 50 mg/dL or \\> 400 mg/dL;\n12. Active visceral hemorrhage;\n13. Lactating or pregnant subjects, or women of childbearing potential with positive pregnancy test results;\n14. International normalized ratio \\> 1.7 or prothrombin time \\> 15 s;\n15. Subjects with a history of serious hypersensitivity;\n16. Subjects who experienced AIS, ICH, acute myocardial infarction or serious head trauma before screening;\n17. Subjects who underwent any major surgery before screening;\n18. Subjects with a history of active digestive ulcer before screening;\n19. Subjects who experienced hemorrhagic disease before screening;\n20. Subjects who underwent arterial puncture at the site not easy for hemostasis by compression before screening;\n21. Serious hepatic impairment or serious renal insufficiency;\n22. Subjects who have participated in another investigational study and used investigational product before screening;\n23. Other conditions unsuitable for participation in this study determined by the Investigator.","healthyVolunteers":false,"sex":"ALL","minimumAge":"18 Years","maximumAge":"80 Years","stdAges":["ADULT","OLDER_ADULT"]},"contactsLocationsModule":{"centralContacts":[{"name":"Yongjun Wang","role":"CONTACT","phone":"0086-010-59978538","email":"Yongjunwang111@aliyun.com"}],"locations":[{"facility":"The first affiliated hospital of bengbu medical college","status":"RECRUITING","city":"Bengbu","state":"Anhui","zip":"233099","country":"China","contacts":[{"name":"Jing Xie","role":"CONTACT","phone":"0086-0552-3086046","email":"byyfyll@163.com"}],"geoPoint":{"lat":32.94083,"lon":117.36083}},{"facility":"Beijing Luhe Hospital Capital Medical University","status":"RECRUITING","city":"Beijing","state":"Beijing","zip":"101199","country":"China","contacts":[{"name":"Yanling Wang","role":"CONTACT","phone":"0086-010-69543901","email":"luhehospital@126.com"}],"geoPoint":{"lat":39.9075,"lon":116.39723}},{"facility":"The First Affiliated Hospital of Jinan University","status":"RECRUITING","city":"Guangzhou","state":"Guangdong","zip":"510630","country":"China","contacts":[{"name":"An'ding Xu","role":"CONTACT","phone":"0086-020-38688366","email":"2788562962@qq.com"}],"geoPoint":{"lat":23.11667,"lon":113.25}},{"facility":"Harrison International Peace Hospital","status":"RECRUITING","city":"Hengshui","state":"Hebei","zip":"053099","country":"China","contacts":[{"name":"Yan Wei","role":"CONTACT","phone":"0086-0318-2181234","email":"hylq9956@163.com"}],"geoPoint":{"lat":37.73222,"lon":115.70111}},{"facility":"The Third Hospital of Hebei Medical University","status":"RECRUITING","city":"Shijiazhuang","state":"Hebei","zip":"050051","country":"China","contacts":[{"name":"Junyan Liu","role":"CONTACT","phone":"0086-0311-88603000","email":"thhmu@cthhmu.com"}],"geoPoint":{"lat":38.04139,"lon":114.47861}},{"facility":"Daqing Oilfield General Hospital","status":"RECRUITING","city":"Daqing","state":"Heilongjiang","zip":"163001","country":"China","contacts":[{"name":"Jianghua Liu","role":"CONTACT","phone":"0086-0459-5804127","email":"ytzyyrenliziyuan@163.com"}],"geoPoint":{"lat":46.58333,"lon":125.0}},{"facility":"Luoyang Third People's Hospital","status":"RECRUITING","city":"Luoyang","state":"Henan","zip":"471002","country":"China","contacts":[{"name":"Bing Sun","role":"CONTACT","phone":"0086-0379-63508088","email":"lysyyzxx@163.com"}],"geoPoint":{"lat":34.68361,"lon":112.45361}},{"facility":"Zhongnan Hospital of Wuhan University","status":"RECRUITING","city":"Wuhan","state":"Hubei","zip":"430071","country":"China","contacts":[{"name":"Yumin Liu","role":"CONTACT","phone":"0086-027-67812787","email":"chenweihua@sphchina.com"}],"geoPoint":{"lat":30.58333,"lon":114.26667}},{"facility":"The First Affiliated Hospital of Baotou Medical College","status":"RECRUITING","city":"Baotou","state":"Inner Mongolia","zip":"014017","country":"China","contacts":[{"name":"Bo Liu","role":"CONTACT"}],"geoPoint":{"lat":40.65222,"lon":109.82222}},{"facility":"Inner Mongolia Baogang Hospital","status":"RECRUITING","city":"Baotou","state":"Inner Mongolia","zip":"750306","country":"China","contacts":[{"name":"Dong Wang","role":"CONTACT"}],"geoPoint":{"lat":40.65222,"lon":109.82222}},{"facility":"Huai'an Second People's Hospital","status":"RECRUITING","city":"Huai'an","state":"Jiangsu","zip":"223022","country":"China","contacts":[{"name":"Liandong Zhao","role":"CONTACT","phone":"0086-0517-80871603","email":"haeyxchk@163.com"}],"geoPoint":{"lat":33.50389,"lon":119.14417}},{"facility":"The Second Affiliated Hospital of Soochow University","status":"RECRUITING","city":"Suzhou","state":"Jiangsu","zip":"215004","country":"China","contacts":[{"name":"Chunfeng Liu","role":"CONTACT","phone":"0086-0512-67783686","email":"sdfeyjg@163.com"}],"geoPoint":{"lat":31.30408,"lon":120.59538}},{"facility":"The Affiliated Hospital of Xuzhou Medical University","status":"RECRUITING","city":"Xuzhou","state":"Jiangsu","zip":"221000","country":"China","contacts":[{"name":"Deqin Geng","role":"CONTACT","phone":"0086-0516-85802291","email":"xyfyec@163.com"}],"geoPoint":{"lat":34.18045,"lon":117.15707}},{"facility":"Pingxiang People's Hospital","status":"RECRUITING","city":"Pingxiang","state":"Jiangxi","zip":"337000","country":"China","contacts":[{"name":"Fei Yi","role":"CONTACT","phone":"0086-0799-6882099","email":"pxsrmyyxxk@126.com"}],"geoPoint":{"lat":27.61672,"lon":113.85353}},{"facility":"Guowen Medical Corporation Jilin Guowen Hospital","status":"RECRUITING","city":"Chang chun","state":"Jilin","zip":"136199","country":"China","contacts":[{"name":"Jinming Ding","role":"CONTACT","phone":"0086-0434-6952614","email":"info@hq.gwmc.cn"}],"geoPoint":{"lat":42.74694,"lon":126.24667}},{"facility":"The First Bethune Hospital of Jilin University","status":"RECRUITING","city":"Changchun","state":"Jilin","zip":"130061","country":"China","contacts":[{"name":"Yi Yang","role":"CONTACT","phone":"0086-0431-88782013","email":"lunzhijun66@126.com"}],"geoPoint":{"lat":43.88,"lon":125.32278}},{"facility":"Beipiao Central Hospital","status":"RECRUITING","city":"Chaoyang","state":"Liaoning","zip":"122199","country":"China","contacts":[{"name":"Yutong Ma","role":"CONTACT","phone":"0086-0421-5080074","email":"chenweihua@sphchina.com"}],"geoPoint":{"lat":41.57028,"lon":120.45861}},{"facility":"Liaocheng People's Hospital","status":"RECRUITING","city":"Liaocheng","state":"Shandong","zip":"252004","country":"China","contacts":[{"name":"Cunju Guo","role":"CONTACT","phone":"0086-0635-5099120","email":"lcsrmyywz@163.com"}],"geoPoint":{"lat":36.45596,"lon":115.97766}},{"facility":"Taian City Central Hospital","status":"RECRUITING","city":"Tai'an","state":"Shandong","zip":"271099","country":"China","contacts":[{"name":"Yunlin Liu","role":"CONTACT","phone":"0086-0538-2199516","email":"xck8765@163.com"}],"geoPoint":{"lat":36.18528,"lon":117.12}},{"facility":"Xi'an Gaoxin Hospital","status":"RECRUITING","city":"Xi'an","state":"Shanxi","zip":"710077","country":"China","contacts":[{"name":"Yi Jia","role":"CONTACT","phone":"0086-02988332063","email":"gxyyec@163.com"}],"geoPoint":{"lat":34.25833,"lon":108.92861}},{"facility":"Yan'an University Xianyang Hospital","status":"RECRUITING","city":"Xianyang","state":"Shanxi","zip":"716099","country":"China","contacts":[{"name":"Lei Lei","role":"CONTACT","phone":"0086-029-33779387","email":"ydxygcp@163.com"}],"geoPoint":{"lat":34.33778,"lon":108.70261}},{"facility":"The Third Hospital of Mianyang","status":"RECRUITING","city":"Mianyang","state":"Sichuan","country":"China","contacts":[{"name":"Diwen Zhang","role":"CONTACT"}],"geoPoint":{"lat":31.46784,"lon":104.68168}},{"facility":"Zhejiang Hospital","status":"RECRUITING","city":"Hangzhou","state":"Zhejiang","zip":"310013","country":"China","contacts":[{"name":"Yaguo Li","role":"CONTACT","phone":"0086-0571-81595231","email":"zjyykjkli@163.com"}],"geoPoint":{"lat":30.29365,"lon":120.16142}},{"facility":"Zhejiang Provincial People's Hospital","status":"RECRUITING","city":"Hangzhou","state":"Zhejiang","zip":"314408","country":"China","contacts":[{"name":"Shunyuan Guo","role":"CONTACT"}],"geoPoint":{"lat":30.29365,"lon":120.16142}},{"facility":"Taizhou Municipal Hospital","status":"RECRUITING","city":"Taizhou","state":"Zhejiang","zip":"318000","country":"China","contacts":[{"name":"Hao Xu","role":"CONTACT","phone":"0086-0576-88805197","email":"tzmhgcp@163.com"}],"geoPoint":{"lat":32.49069,"lon":119.90812}},{"facility":"Taizhou First People's Hospital","status":"RECRUITING","city":"Taizhou","state":"Zhejiang","zip":"318020","country":"China","contacts":[{"name":"Zhimin Wang","role":"CONTACT","phone":"0086-0576-84016757","email":"rsk8787@163.com"}],"geoPoint":{"lat":32.49069,"lon":119.90812}},{"facility":"Beijing Tiantan Hospital, Capital Medical University","status":"RECRUITING","city":"Beijing","zip":"100070","country":"China","contacts":[{"name":"Yongjun Wang","role":"CONTACT","phone":"0086-010-59978538","email":"Yongjunwang111@aliyun.com"}],"geoPoint":{"lat":39.9075,"lon":116.39723}},{"facility":"Beijing Tsinghua Changgung Hospital","status":"RECRUITING","city":"Beijing","zip":"102218","country":"China","contacts":[{"name":"Jian Wu","role":"CONTACT","phone":"0086-010-56118567","email":"IRB@btch.edu.cn"}],"geoPoint":{"lat":39.9075,"lon":116.39723}},{"facility":"Linfen Central Hospital","status":"RECRUITING","city":"Linfen","country":"China","contacts":[{"name":"Hongguo Dai","role":"CONTACT"}],"geoPoint":{"lat":36.08889,"lon":111.51889}},{"facility":"Linfen People's Hospital","status":"RECRUITING","city":"Linfen","country":"China","contacts":[{"name":"Junfang Hao","role":"CONTACT"}],"geoPoint":{"lat":36.08889,"lon":111.51889}},{"facility":"Nanshi Hospital of Nanyang","status":"RECRUITING","city":"Nanyang","country":"China","contacts":[{"name":"Bin Liu","role":"CONTACT"}],"geoPoint":{"lat":32.99472,"lon":112.53278}},{"facility":"Shanghai Pudong Hospital","status":"RECRUITING","city":"Shanghai","zip":"201399","country":"China","contacts":[{"name":"Shuangxing Hou","role":"CONTACT","phone":"0086-021-68036068","email":"pdyyrlb@163.com"}],"geoPoint":{"lat":31.22222,"lon":121.45806}},{"facility":"Shanghai Fifth People's Hospital","status":"RECRUITING","city":"Shanghai","country":"China","contacts":[{"name":"Danhong Wu","role":"CONTACT"}],"geoPoint":{"lat":31.22222,"lon":121.45806}},{"facility":"Central People's Hospital of Zhanjiang","status":"RECRUITING","city":"Zhanjiang","country":"China","contacts":[{"name":"Hui Mai","role":"CONTACT"}],"geoPoint":{"lat":21.28145,"lon":110.34271}}]}},"derivedSection":{"miscInfoModule":{"versionHolder":"2024-02-14"},"conditionBrowseModule":{"meshes":[{"id":"D000020521","term":"Stroke"},{"id":"D000083242","term":"Ischemic Stroke"},{"id":"D000002544","term":"Cerebral Infarction"},{"id":"D000007511","term":"Ischemia"}],"ancestors":[{"id":"D000002561","term":"Cerebrovascular Disorders"},{"id":"D000001927","term":"Brain Diseases"},{"id":"D000002493","term":"Central Nervous System Diseases"},{"id":"D000009422","term":"Nervous System Diseases"},{"id":"D000014652","term":"Vascular Diseases"},{"id":"D000002318","term":"Cardiovascular Diseases"},{"id":"D000010335","term":"Pathologic Processes"},{"id":"D000020520","term":"Brain Infarction"},{"id":"D000002545","term":"Brain Ischemia"},{"id":"D000007238","term":"Infarction"},{"id":"D000009336","term":"Necrosis"}],"browseLeaves":[{"id":"M21996","name":"Stroke","asFound":"Stroke","relevance":"HIGH"},{"id":"M10233","name":"Ischemia","asFound":"Ischemic","relevance":"HIGH"},{"id":"M2401","name":"Ischemic Stroke","asFound":"Ischemic Stroke","relevance":"HIGH"},{"id":"M9972","name":"Infarction","relevance":"LOW"},{"id":"M5483","name":"Cerebral Infarction","asFound":"Ischemic Stroke","relevance":"HIGH"},{"id":"M5500","name":"Cerebrovascular Disorders","relevance":"LOW"},{"id":"M4894","name":"Brain Diseases","relevance":"LOW"},{"id":"M5432","name":"Central Nervous System Diseases","relevance":"LOW"},{"id":"M17090","name":"Vascular Diseases","relevance":"LOW"},{"id":"M21995","name":"Brain Infarction","relevance":"LOW"},{"id":"M5484","name":"Brain Ischemia","relevance":"LOW"},{"id":"M11974","name":"Necrosis","relevance":"LOW"},{"id":"T170","name":"Acute Graft Versus Host Disease","relevance":"LOW"}],"browseBranches":[{"abbrev":"BC10","name":"Nervous System Diseases"},{"abbrev":"BC14","name":"Heart and Blood Diseases"},{"abbrev":"All","name":"All Conditions"},{"abbrev":"BC23","name":"Symptoms and General Pathology"},{"abbrev":"Rare","name":"Rare Diseases"}]}},"hasResults":false}