{"protocolSection":{"identificationModule":{"nctId":"NCT03464565","orgStudyIdInfo":{"id":"12965"},"organization":{"fullName":"Penumbra Inc.","class":"INDUSTRY"},"briefTitle":"COMPLETE: International Acute Ischemic Stroke Registry With the Penumbra System Aspiration Including the 3D Revascularization Device","officialTitle":"COMPLETE: International Acute Ischemic Stroke Registry With the Penumbra System Aspiration Including the 3D Revascularization Device"},"statusModule":{"statusVerifiedDate":"2020-12","overallStatus":"COMPLETED","expandedAccessInfo":{"hasExpandedAccess":false},"startDateStruct":{"date":"2018-07-02","type":"ACTUAL"},"primaryCompletionDateStruct":{"date":"2020-01-17","type":"ACTUAL"},"completionDateStruct":{"date":"2020-01-17","type":"ACTUAL"},"studyFirstSubmitDate":"2018-03-07","studyFirstSubmitQcDate":"2018-03-07","studyFirstPostDateStruct":{"date":"2018-03-14","type":"ACTUAL"},"lastUpdateSubmitDate":"2020-12-18","lastUpdatePostDateStruct":{"date":"2020-12-22","type":"ACTUAL"}},"sponsorCollaboratorsModule":{"responsibleParty":{"type":"SPONSOR"},"leadSponsor":{"name":"Penumbra Inc.","class":"INDUSTRY"}},"oversightModule":{"oversightHasDmc":false,"isFdaRegulatedDrug":false,"isFdaRegulatedDevice":true,"isUsExport":true},"descriptionModule":{"briefSummary":"The purpose of this registry is to collect performance and safety data on the Penumbra System including the 3D Revascularization Device in a real world patient population with acute ischemic stroke (AIS) secondary to intracranial large vessel occlusion (LVO).","detailedDescription":"Registry Objective: The primary objective of this registry is to collect real-world performance and safety data on Penumbra System including the 3D Revascularization Device in a patient population with acute ischemic stroke (AIS) secondary to intracranial large vessel occlusion (LVO).\n\nRegistry Design: This will be a prospective, single-arm, multi-center observational registry and will include patients that present with either anterior or posterior LVO who are eligible for mechanical thrombectomy using the Penumbra System.\n\nRegistry Duration: Subjects will be in the registry for approximately 90 days from enrollment to last follow-up."},"conditionsModule":{"conditions":["Stroke, Ischemic"],"keywords":["Large Vessel Occlusion","Acute Ischemic Stroke","Mechanical Thrombectomy","Penumbra System","3D Revascularization"]},"designModule":{"studyType":"OBSERVATIONAL","patientRegistry":false,"designInfo":{"observationalModel":"COHORT","timePerspective":"PROSPECTIVE"},"enrollmentInfo":{"count":650,"type":"ACTUAL"}},"armsInterventionsModule":{"armGroups":[{"label":"Patients with acute ischemic stroke secondary to LVO","interventionNames":["Device: Penumbra System"]}],"interventions":[{"type":"DEVICE","name":"Penumbra System","description":"Penumbra System","armGroupLabels":["Patients with acute ischemic stroke secondary to LVO"]}]},"outcomesModule":{"primaryOutcomes":[{"measure":"mTICI Score","description":"Angiographic revascularization of the occluded target vessel at immediate post-procedure as defined by a modified treatment in cerebral infarction (mTICI) score 2b or higher.\n\nmTICI scale ranges 0 to 3 higher values represent better outcomes.","timeFrame":"Post Procedure"},{"measure":"Functional Subject Outcome","description":"Functional subject outcome at 90 days post-procedure as defined by a modified Rankin Scale (mRS) 0-2.\n\nmRS scale ranges 0 to 6 higher values represent a worse outcome.","timeFrame":"90 days post"},{"measure":"All-cause mortality at 90 days","description":"All-cause mortality at 90 days","timeFrame":"90 days"}],"secondaryOutcomes":[{"measure":"Incidence of device and procedure related Serious Adverse Events (SAEs)","timeFrame":"Within 24 hours of procedure"},{"measure":"Occurrence of embolization in previously uninvolved (or new) territories (ENT)","description":"Occurrence of embolization in previously uninvolved (or new) territories (ENT) as seen on the final control angiogram at the end of procedure","timeFrame":"During Procedure"},{"measure":"Occurrence of symptomatic intracranial hemorrhages (sICH)","timeFrame":"24 Hours Post Procedure"},{"measure":"Time to Revascularization","timeFrame":"During Procedure"},{"measure":"Length of hospital stay","timeFrame":"Through discharge, up to study completion at approximately 90 days"},{"measure":"Discharge Facility","timeFrame":"Through discharge, up to study completion at approximately 90 days"}]},"eligibilityModule":{"eligibilityCriteria":"Inclusion Criteria:\n\n* Patient age ≥ 18\n* Pre-stroke mRS 0-1\n* Patient experiencing acute ischemic stroke secondary to intracranial large vessel occlusion who are eligible for mechanical thrombectomy using the Penumbra System\n* Planned frontline treatment with Penumbra System\n* Signed informed consent per Institution Review Board/Ethics Committee\n\nExclusion Criteria:\n\n* Any comorbid disease or condition expected to compromise survival or ability to complete follow-up assessments through 90 days.\n* Currently participating in an investigational (drug, device, etc) clinical trial that will confound study endpoints. Patients in observational, natural history, and/or epidemiological studies not involving intervention are eligible.","healthyVolunteers":false,"sex":"ALL","minimumAge":"18 Years","stdAges":["ADULT","OLDER_ADULT"],"studyPopulation":"Patients experiencing acute ischemic stroke secondary to intracranial large vessel occlusion who are eligible for mechanical thrombectomy using the Penumbra System","samplingMethod":"NON_PROBABILITY_SAMPLE"},"contactsLocationsModule":{"overallOfficials":[{"name":"Osama O Zaidat, MD","affiliation":"Mercy St. Vincent Medical Center","role":"PRINCIPAL_INVESTIGATOR"},{"name":"Johanna Fifi, MD","affiliation":"Mount Sinai Health System","role":"PRINCIPAL_INVESTIGATOR"},{"name":"Ameer E. Hassan, MD","affiliation":"McAllen Medical Center","role":"PRINCIPAL_INVESTIGATOR"}],"locations":[{"facility":"Banner Desert Medical Center","city":"Mesa","state":"Arizona","zip":"85202","country":"United States","geoPoint":{"lat":33.42227,"lon":-111.82264}},{"facility":"Eden Medical Center","city":"Castro Valley","state":"California","zip":"94546","country":"United States","geoPoint":{"lat":37.6941,"lon":-122.08635}},{"facility":"St. Jude Medical Center","city":"Fullerton","state":"California","zip":"92835","country":"United States","geoPoint":{"lat":33.87029,"lon":-117.92534}},{"facility":"Cedar Sinai Medical Center","city":"Los Angeles","state":"California","zip":"90048","country":"United States","geoPoint":{"lat":34.05223,"lon":-118.24368}},{"facility":"Mercy San Juan Medical Center","city":"Sacramento","state":"California","zip":"95608","country":"United States","geoPoint":{"lat":38.58157,"lon":-121.4944}},{"facility":"Los Robles Hospital","city":"Thousand Oaks","state":"California","zip":"91360","country":"United States","geoPoint":{"lat":34.17056,"lon":-118.83759}},{"facility":"RIA","city":"Englewood","state":"Colorado","zip":"80112","country":"United States","geoPoint":{"lat":39.64777,"lon":-104.98776}},{"facility":"Yale New Haven Hospital","city":"New Haven","state":"Connecticut","zip":"06519","country":"United States","geoPoint":{"lat":41.30815,"lon":-72.92816}},{"facility":"Jackson Memorial Hospital","city":"Miami","state":"Florida","zip":"33136","country":"United States","geoPoint":{"lat":25.77427,"lon":-80.19366}},{"facility":"Naples Community Hospital","city":"Naples","state":"Florida","zip":"34102","country":"United States","geoPoint":{"lat":26.14234,"lon":-81.79596}},{"facility":"AdventHealth Orlando","city":"Orlando","state":"Florida","zip":"32803","country":"United States","geoPoint":{"lat":28.53834,"lon":-81.37924}},{"facility":"University of Kansas Medical Center","city":"Kansas City","state":"Kansas","zip":"66106","country":"United States","geoPoint":{"lat":39.11417,"lon":-94.62746}},{"facility":"Oschner Medical Center","city":"New Orleans","state":"Louisiana","zip":"70121","country":"United States","geoPoint":{"lat":29.95465,"lon":-90.07507}},{"facility":"Brigham & Women's Hospital","city":"Boston","state":"Massachusetts","zip":"02115","country":"United States","geoPoint":{"lat":42.35843,"lon":-71.05977}},{"facility":"SSM St. Clare Healthcare","city":"Saint Louis","state":"Missouri","zip":"63026","country":"United States","geoPoint":{"lat":38.62727,"lon":-90.19789}},{"facility":"The Valley Hospital","city":"Ridgewood","state":"New Jersey","zip":"07450","country":"United States","geoPoint":{"lat":40.97926,"lon":-74.11653}},{"facility":"Northwell Health","city":"Manhasset","state":"New York","zip":"11042","country":"United States","geoPoint":{"lat":40.79788,"lon":-73.69957}},{"facility":"Mount Sinai New York","city":"New York","state":"New York","zip":"10029","country":"United States","geoPoint":{"lat":40.71427,"lon":-74.00597}},{"facility":"NYU Langone Hospital-Brooklyn","city":"New York","state":"New York","zip":"11220","country":"United States","geoPoint":{"lat":40.71427,"lon":-74.00597}},{"facility":"Mercy St. Vincent Medical Center","city":"Toledo","state":"Ohio","zip":"43608","country":"United States","geoPoint":{"lat":41.66394,"lon":-83.55521}},{"facility":"Thomas Jefferson University Hospital","city":"Philadelphia","state":"Pennsylvania","zip":"19107","country":"United States","geoPoint":{"lat":39.95233,"lon":-75.16379}},{"facility":"Palmetto Health Richland Hospital","city":"Columbia","state":"South Carolina","zip":"29203","country":"United States","geoPoint":{"lat":34.00071,"lon":-81.03481}},{"facility":"Erlanger Health System","city":"Chattanooga","state":"Tennessee","zip":"37403","country":"United States","geoPoint":{"lat":35.04563,"lon":-85.30968}},{"facility":"Fort Sanders Regional Medical Center","city":"Knoxville","state":"Tennessee","zip":"37916","country":"United States","geoPoint":{"lat":35.96064,"lon":-83.92074}},{"facility":"Methodist University Hospital","city":"Memphis","state":"Tennessee","zip":"38104","country":"United States","geoPoint":{"lat":35.14953,"lon":-90.04898}},{"facility":"Valley Baptist Medical Center","city":"Harlingen","state":"Texas","zip":"78550","country":"United States","geoPoint":{"lat":26.19063,"lon":-97.6961}},{"facility":"Houston Methodist Hospital","city":"Houston","state":"Texas","zip":"77030","country":"United States","geoPoint":{"lat":29.76328,"lon":-95.36327}},{"facility":"McAllen Medical Center","city":"McAllen","state":"Texas","zip":"78503","country":"United States","geoPoint":{"lat":26.20341,"lon":-98.23001}},{"facility":"Swedish Medical Center-Cherry Hill","city":"Seattle","state":"Washington","zip":"98122","country":"United States","geoPoint":{"lat":47.60621,"lon":-122.33207}},{"facility":"CHU de Bordeaux - Hôpital Pellegrin","city":"Bordeaux","zip":"33000","country":"France","geoPoint":{"lat":44.84044,"lon":-0.5805}},{"facility":"Foundation Ophthalmic Adolphe De Rothschild","city":"Paris","zip":"75019","country":"France","geoPoint":{"lat":48.85341,"lon":2.3488}},{"facility":"Charité - Universitätsmedizin Berlin","city":"Berlin","zip":"10117","country":"Germany","geoPoint":{"lat":52.52437,"lon":13.41053}},{"facility":"Klinikum Chemnitz gGmbH","city":"Chemnitz","zip":"09116","country":"Germany","geoPoint":{"lat":50.8357,"lon":12.92922}},{"facility":"Universitätsklinikum Erlangen","city":"Erlangen","zip":"91054","country":"Germany","geoPoint":{"lat":49.59099,"lon":11.00783}},{"facility":"Universitätsklinikum Schleswig-Holstein Campus Lübeck","city":"Lübeck","zip":"23538","country":"Germany","geoPoint":{"lat":53.86893,"lon":10.68729}},{"facility":"Universitätsklinikum Magdeburg A. ö. R.","city":"Magdeburg","zip":"39120","country":"Germany","geoPoint":{"lat":52.12773,"lon":11.62916}},{"facility":"Samodzielny Publiczny Szpital Kliniczny","city":"Lublin","zip":"20 - 954","country":"Poland","geoPoint":{"lat":51.25,"lon":22.56667}},{"facility":"Davidovsky Moscow City Hospital №23","city":"Moscow","zip":"109240","country":"Russian Federation","geoPoint":{"lat":55.75222,"lon":37.61556}},{"facility":"City Clinical Hospital No. 1","city":"Moscow","zip":"119049","country":"Russian Federation","geoPoint":{"lat":55.75222,"lon":37.61556}},{"facility":"Multidisciplinary City Hospital №2","city":"Saint Petersburg","zip":"194354","country":"Russian Federation","geoPoint":{"lat":59.93863,"lon":30.31413}},{"facility":"Hospital Universitari Vall d'Hebron","city":"Barcelona","zip":"08035","country":"Spain","geoPoint":{"lat":41.38879,"lon":2.15899}},{"facility":"Hospital Clínico Universitario Virgen de la Arrixaca","city":"Murcia","zip":"30120","country":"Spain","geoPoint":{"lat":37.98704,"lon":-1.13004}}]},"referencesModule":{"references":[{"pmid":"36016541","type":"DERIVED","citation":"Hassan AE, Zaidat OO, Nanda A, Atchie B, Woodward K, Doerfler A, Tomasello A, Fifi JT. Impact of interhospital transfer vs. direct admission on acute ischemic stroke patients: A subset analysis of the COMPLETE registry. Front Neurol. 2022 Aug 9;13:896165. doi: 10.3389/fneur.2022.896165. eCollection 2022."},{"pmid":"34547927","type":"DERIVED","citation":"Zaidat OO, Fifi JT, Nanda A, Atchie B, Woodward K, Doerfler A, Tomasello A, Tekle W, Singh IP, Matouk C, Thalwitzer J, Jargiello T, Skrypnik D, Beuing O, Berge J, Katz JM, Biondi A, Bonovich D, Sheth SA, Yoo AJ, Hassan AE; COMPLETE Registry Investigators. Endovascular Treatment of Acute Ischemic Stroke With the Penumbra System in Routine Practice: COMPLETE Registry Results. Stroke. 2022 Mar;53(3):769-778. doi: 10.1161/STROKEAHA.121.034268. Epub 2021 Sep 22."}]}},"derivedSection":{"miscInfoModule":{"versionHolder":"2024-02-14"},"conditionBrowseModule":{"meshes":[{"id":"D000020521","term":"Stroke"},{"id":"D000083242","term":"Ischemic Stroke"},{"id":"D000007511","term":"Ischemia"}],"ancestors":[{"id":"D000002561","term":"Cerebrovascular Disorders"},{"id":"D000001927","term":"Brain Diseases"},{"id":"D000002493","term":"Central Nervous System Diseases"},{"id":"D000009422","term":"Nervous System Diseases"},{"id":"D000014652","term":"Vascular Diseases"},{"id":"D000002318","term":"Cardiovascular Diseases"},{"id":"D000010335","term":"Pathologic Processes"}],"browseLeaves":[{"id":"M21996","name":"Stroke","asFound":"Stroke","relevance":"HIGH"},{"id":"M10233","name":"Ischemia","asFound":"Ischemic","relevance":"HIGH"},{"id":"M2401","name":"Ischemic Stroke","asFound":"Ischemic Stroke","relevance":"HIGH"},{"id":"M5500","name":"Cerebrovascular Disorders","relevance":"LOW"},{"id":"M4894","name":"Brain Diseases","relevance":"LOW"},{"id":"M5432","name":"Central Nervous System Diseases","relevance":"LOW"},{"id":"M17090","name":"Vascular Diseases","relevance":"LOW"},{"id":"T170","name":"Acute Graft Versus Host Disease","relevance":"LOW"}],"browseBranches":[{"abbrev":"BC10","name":"Nervous System Diseases"},{"abbrev":"BC14","name":"Heart and Blood Diseases"},{"abbrev":"All","name":"All Conditions"},{"abbrev":"BC23","name":"Symptoms and General Pathology"},{"abbrev":"Rare","name":"Rare Diseases"}]}},"hasResults":false}