{"protocolSection":{"identificationModule":{"nctId":"NCT02988128","orgStudyIdInfo":{"id":"MDT16056/MDT17077"},"organization":{"fullName":"Medtronic Neurovascular Clinical Affairs","class":"INDUSTRY"},"briefTitle":"Neurovascular Product Surveillance Registry","officialTitle":"NeuroVascular Product Surveillance Registry (PSR) Platform","acronym":"INSPIRE"},"statusModule":{"statusVerifiedDate":"2024-02","overallStatus":"RECRUITING","expandedAccessInfo":{"hasExpandedAccess":false},"startDateStruct":{"date":"2016-12"},"primaryCompletionDateStruct":{"date":"2026-11","type":"ESTIMATED"},"completionDateStruct":{"date":"2026-11","type":"ESTIMATED"},"studyFirstSubmitDate":"2016-12-07","studyFirstSubmitQcDate":"2016-12-07","studyFirstPostDateStruct":{"date":"2016-12-09","type":"ESTIMATED"},"lastUpdateSubmitDate":"2024-02-12","lastUpdatePostDateStruct":{"date":"2024-02-13","type":"ACTUAL"}},"sponsorCollaboratorsModule":{"responsibleParty":{"type":"SPONSOR"},"leadSponsor":{"name":"Medtronic Neurovascular Clinical Affairs","class":"INDUSTRY"},"collaborators":[{"name":"Medtronic Bakken Research Center","class":"INDUSTRY"}]},"oversightModule":{"oversightHasDmc":false},"descriptionModule":{"briefSummary":"Post market surveillance registry","detailedDescription":"An observational, prospective, multi-center, single-arm registry to provide continuing evaluation and periodic reporting of safety and effectiveness of Medtronic Neurovascular market-released products used in the treatment of Intracranial aneurysms and Acute Ischemic Stroke.\n\nThis study is conducted under the Product Surveillance Registry (NCT01524276)."},"conditionsModule":{"conditions":["Intracranial Aneurysm","Stroke, Ischemic"],"keywords":["Embolization Device","Flow Diverter","Intra saccular device","Vascular Reconstruction Device","Ruptured Intracranial Aneurysm","Unruptured Intracranial Aneurysm","Large Vessel Occlusion","Stent Retriever","Aspiration Catheter","Revascularization Device"]},"designModule":{"studyType":"OBSERVATIONAL","patientRegistry":true,"targetDuration":"2 Years","designInfo":{"observationalModel":"COHORT","timePerspective":"PROSPECTIVE"},"enrollmentInfo":{"count":3000,"type":"ESTIMATED"}},"armsInterventionsModule":{"interventions":[{"type":"DEVICE","name":"Treatment for intracranial aneurysms","description":"Embolization of aneurysms"},{"type":"DEVICE","name":"Treatment for Acute Ischemic Stroke","description":"Revascularization of an intracranial blood vessel"}]},"outcomesModule":{"primaryOutcomes":[{"measure":"The clinical success rate defined as complete occlusion of target aneurysm without retreatment or significant artery stenosis (≤ 50%).","description":"For Intracranial Aneurysm the primary outcome is the clinical success rate defined as complete occlusion of target aneurysm without retreatment or significant artery stenosis (≤ 50%).","timeFrame":"1 year"},{"measure":"Functional Independence: mRS score ≤ 2","description":"For Acute ischemic stroke the primary outcome is functional Independence: modified Rankin Scale (mRS) score ≤ 2","timeFrame":"90 days"}]},"eligibilityModule":{"eligibilityCriteria":"Inclusion Criteria:\n\n* Patient or legally authorized representative (LAR) provides authorization and/or consent per institution and geographical requirements\n* Patient has, or is intended to receive or be treated with, an eligible Medtronic product\n* Patient is consented within the enrollment window of the therapy received, as applicable\n* Patient is at least 18 years of age at time of enrollment.\n\nExclusion Criteria:\n\n* Patient who is, or is expected to be inaccessible for follow-up\n* Patient with exclusion criteria required by local law\n* Patient is currently enrolled in or plans to enroll in any concurrent drug and/or device study that may confound results\n* Female patient who is known to be pregnant or is breastfeeding or wishes to become pregnant during participation in the study.","healthyVolunteers":false,"sex":"ALL","minimumAge":"18 Years","stdAges":["ADULT","OLDER_ADULT"],"studyPopulation":"Intracranial aneurysms: Patients requiring treatment for intracranial aneurysms with market approved Medtronic flow diverters, intrasaccular devices or vascular reconstruction devices are eligible for the registry.\n\nAcute Ischemic Stroke: Patients requiring treatment for Acute Ischemic Stroke due to intracranial vessel occlusion with Medtronic market approved aspiration and/or revascularization devices are eligible for the study.","samplingMethod":"NON_PROBABILITY_SAMPLE"},"contactsLocationsModule":{"centralContacts":[{"name":"Wouter Fabry","role":"CONTACT","phone":"+32496165078","email":"wouter.fabry@medtronic.com"},{"name":"Beatrice Carlotta Sicurella","role":"CONTACT","phone":"+390224137264","email":"beatrice.carlotta.sicurella@medtronic.com"}],"overallOfficials":[{"name":"Markus Holtmannspotter, MD","affiliation":"Klinikum Nürnberg Süd","role":"STUDY_CHAIR"},{"name":"Laurent Spelle, MD","affiliation":"Hôpital Bicêtre, Service de Neuroradiologie Interventionnelle Adulte et Pédiatrique","role":"STUDY_CHAIR"},{"name":"Jens Fiehler, MD","affiliation":"Universitätsklinikum Hamburg-Eppendorf","role":"STUDY_CHAIR"},{"name":"István Szikora, MD","affiliation":"National Institute of Clinical Neurosciences","role":"STUDY_CHAIR"},{"name":"Mario Galdamez, MD","affiliation":"Hospital Clínico Universitario de Valladolid","role":"STUDY_CHAIR"},{"name":"Saleh Lamin, MD","affiliation":"Queen Elisabeth Hospital, Neuroradiology","role":"STUDY_CHAIR"},{"name":"Francis Turjman, MD","affiliation":"Hôpital Pierre Wertheimer","role":"STUDY_CHAIR"},{"name":"Christophe Cognard, MD","affiliation":"CHU Toulouse - Hôpital Purpan","role":"STUDY_CHAIR"},{"name":"Markus Möhlenbruch, MD","affiliation":"University Hospital Heidelberg","role":"STUDY_CHAIR"},{"name":"Marc Ribó, MD","affiliation":"Hospital Vall d'Hebron","role":"STUDY_CHAIR"},{"name":"Pasquale Mordasini, MD","affiliation":"Inselspital - Universitätsspital Bern","role":"STUDY_CHAIR"},{"name":"Sanjeev Nayak, MD","affiliation":"University Hospitals of North Midlands NHS Trust - Royal Stoke University Hospital","role":"STUDY_CHAIR"}],"locations":[{"facility":"ENERI","status":"ACTIVE_NOT_RECRUITING","city":"Buenos Aires","country":"Argentina","geoPoint":{"lat":-34.61315,"lon":-58.37723}},{"facility":"Gold Coast University Hospital","status":"ACTIVE_NOT_RECRUITING","city":"Southport","country":"Australia","geoPoint":{"lat":-27.96724,"lon":153.39796}},{"facility":"Universitätsklinikum Christian Doppler Klinik Salzburg","status":"RECRUITING","city":"Salzburg","zip":"5020","country":"Austria","geoPoint":{"lat":47.79941,"lon":13.04399}},{"facility":"Ziekenhuis Oost Limburg - Campus Sint-Jan","status":"ACTIVE_NOT_RECRUITING","city":"Genk","country":"Belgium","geoPoint":{"lat":50.965,"lon":5.50082}},{"facility":"Universitair Ziekenhuis Gent","status":"ACTIVE_NOT_RECRUITING","city":"Gent","country":"Belgium","geoPoint":{"lat":51.05,"lon":3.71667}},{"facility":"Xuanwu Hospital Capital Medical University","status":"RECRUITING","city":"Beijing","zip":"100053","country":"China","geoPoint":{"lat":39.9075,"lon":116.39723}},{"facility":"Chongqing University Three Gorges Hospital","status":"RECRUITING","city":"Chongqing","zip":"404000","country":"China","geoPoint":{"lat":29.56278,"lon":106.55278}},{"facility":"The Affiliated Hospital of Jinggangshan University","status":"RECRUITING","city":"Ji'an","zip":"343600","country":"China","geoPoint":{"lat":27.11716,"lon":114.97927}},{"facility":"First Affiliated Hospital of Jiamusi University","status":"RECRUITING","city":"Jiamusi","zip":"154000","country":"China","geoPoint":{"lat":46.79927,"lon":130.31633}},{"facility":"Kaifeng Central Hospital","status":"RECRUITING","city":"Kaifeng","zip":"475000","country":"China","geoPoint":{"lat":34.7986,"lon":114.30742}},{"facility":"Liaocheng People's Hospital","status":"RECRUITING","city":"Liaocheng","zip":"252001","country":"China","geoPoint":{"lat":36.45596,"lon":115.97766}},{"facility":"Lishui Municipal Central Hospital","status":"RECRUITING","city":"Lishui","zip":"323020","country":"China","geoPoint":{"lat":28.46042,"lon":119.91029}},{"facility":"The Second Affiliated Hospital of Nanchang University","status":"RECRUITING","city":"Nanchang","zip":"330006","country":"China","geoPoint":{"lat":28.68396,"lon":115.85306}},{"facility":"The Second Nanning Peoples Hospital","status":"RECRUITING","city":"Nanning","zip":"530031","country":"China","geoPoint":{"lat":22.81667,"lon":108.31667}},{"facility":"Panzhihua Central Hospital","status":"TERMINATED","city":"Panzhihua","zip":"617067","country":"China"},{"facility":"Qujing First Peoples Hospital","status":"TERMINATED","city":"Qujing","zip":"655000","country":"China","geoPoint":{"lat":25.48333,"lon":103.78333}},{"facility":"Yangpu District Central Hospital Shanghai Yangpu Hospital Tongji University","status":"RECRUITING","city":"Shanghai","zip":"200082","country":"China","geoPoint":{"lat":31.22222,"lon":121.45806}},{"facility":"Shanxi Cardiovascular Hospital","status":"RECRUITING","city":"Taiyuan","zip":"30024","country":"China","geoPoint":{"lat":37.86944,"lon":112.56028}},{"facility":"The First Affiliated Hospital Of Xi'an Jiaotong University","status":"RECRUITING","city":"Xi'an","zip":"710061","country":"China","geoPoint":{"lat":34.25833,"lon":108.92861}},{"facility":"The First Peoples Hospital of Xianyang","status":"RECRUITING","city":"Xianyang","zip":"712000","country":"China","geoPoint":{"lat":34.33778,"lon":108.70261}},{"facility":"Zhangzhou Municipal Hospital of Fujian Province","status":"RECRUITING","city":"Zhangzhou","zip":"363000","country":"China","geoPoint":{"lat":24.51333,"lon":117.65556}},{"facility":"Zhuhai Peoples Hospital","status":"SUSPENDED","city":"Zhuhai","zip":"519070","country":"China","geoPoint":{"lat":22.27694,"lon":113.56778}},{"facility":"Zhumadian Central Hospital","status":"RECRUITING","city":"Zhumadian","zip":"463000","country":"China","geoPoint":{"lat":32.97944,"lon":114.02944}},{"facility":"Rigshospitalet","status":"ACTIVE_NOT_RECRUITING","city":"Copenhagen","country":"Denmark","geoPoint":{"lat":55.67594,"lon":12.56553}},{"facility":"Turun Yliopistollinen keskussairaala","status":"RECRUITING","city":"Turku","country":"Finland","geoPoint":{"lat":60.45148,"lon":22.26869}},{"facility":"CHU Besancon - Hôpital Jean Minjoz","status":"RECRUITING","city":"Besançon","country":"France","geoPoint":{"lat":47.24878,"lon":6.01815}},{"facility":"CHU de Bordeaux - Centre Universitaire Pellegrin","status":"RECRUITING","city":"Bordeaux","zip":"33000","country":"France","geoPoint":{"lat":44.84044,"lon":-0.5805}},{"facility":"CHU Brest, Hôpital de la Cavale Blanche","status":"RECRUITING","city":"Brest","country":"France","geoPoint":{"lat":48.3903,"lon":-4.48628}},{"facility":"Hôpital Pierre Wertheimer","status":"RECRUITING","city":"Bron","country":"France","geoPoint":{"lat":45.73333,"lon":4.91667}},{"facility":"CHU de Caen","status":"ACTIVE_NOT_RECRUITING","city":"Caen","country":"France","geoPoint":{"lat":49.18585,"lon":-0.35912}},{"facility":"Centre Hospitalier Universitaire de Clermont-Ferrand - Gabriel-Montpied","status":"RECRUITING","city":"Clermont-Ferrand","zip":"63003","country":"France","geoPoint":{"lat":45.77966,"lon":3.08628}},{"facility":"CHU Dijon Bourgogne","status":"RECRUITING","city":"Dijon","zip":"21079","country":"France","geoPoint":{"lat":47.31667,"lon":5.01667}},{"facility":"AP-HP Hôpital Bicêtre","status":"RECRUITING","city":"Le Kremlin-Bicêtre","country":"France","geoPoint":{"lat":48.81471,"lon":2.36073}},{"facility":"CHU Limoges - Hôpital Dupuytren","status":"RECRUITING","city":"Limoges","country":"France","geoPoint":{"lat":45.83153,"lon":1.25781}},{"facility":"Hôpital de la Timone-CHU de Marseille","status":"RECRUITING","city":"Marseille","country":"France","geoPoint":{"lat":43.29551,"lon":5.38958}},{"facility":"CHU de Montpellier - Hôpital Gui de Chauliac","status":"RECRUITING","city":"Montpellier","country":"France","geoPoint":{"lat":43.61092,"lon":3.87723}},{"facility":"CHU de Nancy - Hôpital Central","status":"WITHDRAWN","city":"Nancy","zip":"54035","country":"France","geoPoint":{"lat":48.68439,"lon":6.18496}},{"facility":"CHU de Nantes Hôpital Laennec","status":"ACTIVE_NOT_RECRUITING","city":"Nantes","country":"France","geoPoint":{"lat":47.21725,"lon":-1.55336}},{"facility":"GHU Paris Psychiatrie & Neurosciences","status":"RECRUITING","city":"Paris","zip":"75014","country":"France","geoPoint":{"lat":48.85341,"lon":2.3488}},{"facility":"Fondation Ophtalmologique Adolphe de Rothschild","status":"ACTIVE_NOT_RECRUITING","city":"Paris","country":"France","geoPoint":{"lat":48.85341,"lon":2.3488}},{"facility":"Hôpital de la Pitié Salpétrière","status":"RECRUITING","city":"Paris","country":"France","geoPoint":{"lat":48.85341,"lon":2.3488}},{"facility":"CHU Reims Hôpital Maison Blanche","status":"WITHDRAWN","city":"Reims","country":"France","geoPoint":{"lat":49.25,"lon":4.03333}},{"facility":"CHU Hôpitaux de Rouen - Hôpital Charles Nicolle","status":"ACTIVE_NOT_RECRUITING","city":"Rouen","country":"France","geoPoint":{"lat":49.44313,"lon":1.09932}},{"facility":"CHU Toulouse - Hôpital Pierre-Paul Riquet","status":"RECRUITING","city":"Toulouse","country":"France","geoPoint":{"lat":43.60426,"lon":1.44367}},{"facility":"CHRU de Tours - Hôpital Brettoneau","status":"RECRUITING","city":"Tours","zip":"37000","country":"France","geoPoint":{"lat":47.38333,"lon":0.68333}},{"facility":"Centre Hospitalier Bretagne Atlantique Vannes - Auray","status":"RECRUITING","city":"Vannes","zip":"56000","country":"France","geoPoint":{"lat":47.66667,"lon":-2.75}},{"facility":"Klinikum Augsburg","status":"WITHDRAWN","city":"Augsburg","country":"Germany","geoPoint":{"lat":48.37154,"lon":10.89851}},{"facility":"Charité Universitätsmedizin Berlin -Campus Charite","status":"ACTIVE_NOT_RECRUITING","city":"Berlin","country":"Germany","geoPoint":{"lat":52.52437,"lon":13.41053}},{"facility":"HELIOS Klinikum Erfurt","status":"WITHDRAWN","city":"Erfurt","country":"Germany","geoPoint":{"lat":50.9787,"lon":11.03283}},{"facility":"Universitätsklinikum Erlangen","status":"ACTIVE_NOT_RECRUITING","city":"Erlangen","country":"Germany","geoPoint":{"lat":49.59099,"lon":11.00783}},{"facility":"Alfried Krupp Krankenhaus","status":"ACTIVE_NOT_RECRUITING","city":"Essen","country":"Germany","geoPoint":{"lat":51.45657,"lon":7.01228}},{"facility":"Universitätsklinikum Freiburg","status":"ACTIVE_NOT_RECRUITING","city":"Freiburg","zip":"79065","country":"Germany","geoPoint":{"lat":47.9959,"lon":7.85222}},{"facility":"Universitätsklinikum Hamburg-Eppendorf","status":"WITHDRAWN","city":"Hamburg","country":"Germany","geoPoint":{"lat":53.57532,"lon":10.01534}},{"facility":"Universitätsklinikum Heidelberg","status":"RECRUITING","city":"Heidelberg","country":"Germany","geoPoint":{"lat":49.40768,"lon":8.69079}},{"facility":"LMU Klinikum der Universität München","status":"RECRUITING","city":"Munich","zip":"80336","country":"Germany","geoPoint":{"lat":48.13743,"lon":11.57549}},{"facility":"Klinikum Nürnberg - Klinikum Nürnberg Süd","status":"RECRUITING","city":"Nürnberg","zip":"90471","country":"Germany","geoPoint":{"lat":49.45421,"lon":11.07752}},{"facility":"Hellenic Airforce 251 General Hospital","status":"ACTIVE_NOT_RECRUITING","city":"Athen","country":"Greece","geoPoint":{"lat":37.97945,"lon":23.71622}},{"facility":"Prince of Wales Hospital","status":"ACTIVE_NOT_RECRUITING","city":"Hong Kong","country":"Hong Kong","geoPoint":{"lat":22.27832,"lon":114.17469}},{"facility":"The University of Hong Kong","status":"ACTIVE_NOT_RECRUITING","city":"Hong Kong","country":"Hong Kong","geoPoint":{"lat":22.27832,"lon":114.17469}},{"facility":"Országos Klinikai Idegtudományi Intézet","status":"RECRUITING","city":"Budapest","country":"Hungary","geoPoint":{"lat":47.49801,"lon":19.03991}},{"facility":"Hadassah Medical Organization","status":"ACTIVE_NOT_RECRUITING","city":"Jerusalem","country":"Israel","geoPoint":{"lat":31.76904,"lon":35.21633}},{"facility":"Sheba Medical Center","status":"ACTIVE_NOT_RECRUITING","city":"Ramat Gan","country":"Israel","geoPoint":{"lat":32.08227,"lon":34.81065}},{"facility":"Azienda Ospedaliero-Universitaria Careggi","status":"ACTIVE_NOT_RECRUITING","city":"Firenze","country":"Italy","geoPoint":{"lat":43.77925,"lon":11.24626}},{"facility":"Azienda Ospedaliera Ospedale Niguarda Cà Granda","status":"RECRUITING","city":"Milano","country":"Italy","geoPoint":{"lat":45.46427,"lon":9.18951}},{"facility":"Fondazione I.R.C.C.S. Istituto Neurologico Carlo Besta","status":"ACTIVE_NOT_RECRUITING","city":"Milan","zip":"20133","country":"Italy","geoPoint":{"lat":45.46427,"lon":9.18951}},{"facility":"Chonnam National University Hospital","status":"RECRUITING","city":"Gwangju","zip":"102-602","country":"Korea, Republic of","geoPoint":{"lat":35.15472,"lon":126.91556}},{"facility":"Chosun University Hospital","status":"RECRUITING","city":"Gwangju","zip":"61453","country":"Korea, Republic of","geoPoint":{"lat":35.15472,"lon":126.91556}},{"facility":"Jeonbuk National University Hospital","status":"RECRUITING","city":"Jeonju","zip":"54907","country":"Korea, Republic of","geoPoint":{"lat":35.82194,"lon":127.14889}},{"facility":"Severance Hospital","status":"RECRUITING","city":"Seoul","zip":"03722","country":"Korea, Republic of","geoPoint":{"lat":37.566,"lon":126.9784}},{"facility":"Samsung Medical Center","status":"RECRUITING","city":"Seoul","zip":"06351","country":"Korea, Republic of","geoPoint":{"lat":37.566,"lon":126.9784}},{"facility":"Ajou University Medical Center","status":"RECRUITING","city":"Suwon","zip":"16499","country":"Korea, Republic of","geoPoint":{"lat":37.29111,"lon":127.00889}},{"facility":"Ulsan University Hospital","status":"RECRUITING","city":"Ulsan","zip":"44033","country":"Korea, Republic of","geoPoint":{"lat":35.53722,"lon":129.31667}},{"facility":"Military Medical Institute-Wojskowy Instytut Medyczny","status":"ACTIVE_NOT_RECRUITING","city":"Warszawa","zip":"04-141","country":"Poland","geoPoint":{"lat":52.22977,"lon":21.01178}},{"facility":"Centro Hospitalar de Vila Nova de Gaia/Espinho - Unidade I","status":"ACTIVE_NOT_RECRUITING","city":"Vila Nova de Gaia","zip":"4434-502","country":"Portugal","geoPoint":{"lat":41.13363,"lon":-8.61742}},{"facility":"Siberian Federal Biomedical Research Center","status":"ACTIVE_NOT_RECRUITING","city":"Novosibirsk","country":"Russian Federation","geoPoint":{"lat":55.0415,"lon":82.9346}},{"facility":"Almazov National Medical Research Centre","status":"ACTIVE_NOT_RECRUITING","city":"St. Petersburg","country":"Russian Federation","geoPoint":{"lat":59.93863,"lon":30.31413}},{"facility":"CINRE s.r.o.","status":"ACTIVE_NOT_RECRUITING","city":"Bratislava","country":"Slovakia","geoPoint":{"lat":48.14816,"lon":17.10674}},{"facility":"Chris Hani Baragwaneth Hospital","status":"WITHDRAWN","city":"Johannesburg","country":"South Africa","geoPoint":{"lat":-26.20227,"lon":28.04363}},{"facility":"Hospital De Cruces","status":"ACTIVE_NOT_RECRUITING","city":"Barakaldo","country":"Spain","geoPoint":{"lat":43.29639,"lon":-2.98813}},{"facility":"Hospital Vall D'Hebron","status":"RECRUITING","city":"Barcelona","country":"Spain","geoPoint":{"lat":41.38879,"lon":2.15899}},{"facility":"Hospital Fundación Jiménez Díaz","status":"WITHDRAWN","city":"Madrid","country":"Spain","geoPoint":{"lat":40.4165,"lon":-3.70256}},{"facility":"Hospital Universitario de La Paz","status":"ACTIVE_NOT_RECRUITING","city":"Madrid","country":"Spain","geoPoint":{"lat":40.4165,"lon":-3.70256}},{"facility":"Hospital Universitario Central de Asturias","status":"ACTIVE_NOT_RECRUITING","city":"Oviedo","country":"Spain","geoPoint":{"lat":43.36029,"lon":-5.84476}},{"facility":"Hospital Universitario Donostia","status":"RECRUITING","city":"San Sebastián","country":"Spain","geoPoint":{"lat":43.31283,"lon":-1.97499}},{"facility":"Hospital Universitario Virgen del Rocío","status":"ACTIVE_NOT_RECRUITING","city":"Sevilla","zip":"41013","country":"Spain","geoPoint":{"lat":37.38283,"lon":-5.97317}},{"facility":"Hospital Clínico Universitario de Valladolid","status":"ACTIVE_NOT_RECRUITING","city":"Valladolid","country":"Spain","geoPoint":{"lat":41.65518,"lon":-4.72372}},{"facility":"Hospital Álvaro Cunqueiro","status":"RECRUITING","city":"Vigo","zip":"36312","country":"Spain","geoPoint":{"lat":42.23282,"lon":-8.72264}},{"facility":"Universitätsspital Basel","status":"RECRUITING","city":"Basel","zip":"4031","country":"Switzerland","geoPoint":{"lat":47.55839,"lon":7.57327}},{"facility":"Inselspital - Universitätsspital Bern","status":"ACTIVE_NOT_RECRUITING","city":"Bern","country":"Switzerland","geoPoint":{"lat":46.94809,"lon":7.44744}},{"facility":"Hôpitaux Universitaires de Genève","status":"ACTIVE_NOT_RECRUITING","city":"Geneve","country":"Switzerland","geoPoint":{"lat":46.20222,"lon":6.14569}},{"facility":"Cleveland Clinic - Abu Dhabi","status":"ACTIVE_NOT_RECRUITING","city":"Abu Dhabi","country":"United Arab Emirates","geoPoint":{"lat":24.46667,"lon":54.36667}},{"facility":"University Hospitals of Birmingham NHS Foundation Trust - Queen Elizabeth Hospital","status":"RECRUITING","city":"Birmingham","country":"United Kingdom","geoPoint":{"lat":52.48142,"lon":-1.89983}},{"facility":"Imperial College Healthcare NHS Trust - Charing Cross Hospital","status":"RECRUITING","city":"London","zip":"W6 8RF","country":"United Kingdom","geoPoint":{"lat":51.50853,"lon":-0.12574}},{"facility":"Barking, Havering and Redbridge University Hospitals - Queen's Hospital","status":"ACTIVE_NOT_RECRUITING","city":"Romford","country":"United Kingdom","geoPoint":{"lat":51.57515,"lon":0.18582}},{"facility":"University Hospitals of North Midlands NHS Trust - Royal Stoke University Hospital","status":"ACTIVE_NOT_RECRUITING","city":"Stoke on Trent","zip":"ST4 6QG","country":"United Kingdom","geoPoint":{"lat":53.00415,"lon":-2.18538}}]},"ipdSharingStatementModule":{"ipdSharing":"NO","description":"Only multi center data will be available"}},"derivedSection":{"miscInfoModule":{"versionHolder":"2024-02-14"},"conditionBrowseModule":{"meshes":[{"id":"D000002532","term":"Intracranial Aneurysm"},{"id":"D000083242","term":"Ischemic Stroke"},{"id":"D000000783","term":"Aneurysm"}],"ancestors":[{"id":"D000014652","term":"Vascular Diseases"},{"id":"D000002318","term":"Cardiovascular Diseases"},{"id":"D000020765","term":"Intracranial Arterial Diseases"},{"id":"D000002561","term":"Cerebrovascular Disorders"},{"id":"D000001927","term":"Brain Diseases"},{"id":"D000002493","term":"Central Nervous System Diseases"},{"id":"D000009422","term":"Nervous System Diseases"},{"id":"D000020521","term":"Stroke"}],"browseLeaves":[{"id":"M21996","name":"Stroke","relevance":"LOW"},{"id":"M10233","name":"Ischemia","relevance":"LOW"},{"id":"M3803","name":"Aneurysm","asFound":"Aneurysm","relevance":"HIGH"},{"id":"M5471","name":"Intracranial Aneurysm","asFound":"Intracranial Aneurysm","relevance":"HIGH"},{"id":"M2401","name":"Ischemic Stroke","asFound":"Stroke, Ischemic","relevance":"HIGH"},{"id":"M17090","name":"Vascular Diseases","relevance":"LOW"},{"id":"M22211","name":"Intracranial Arterial Diseases","relevance":"LOW"},{"id":"M5500","name":"Cerebrovascular Disorders","relevance":"LOW"},{"id":"M4894","name":"Brain Diseases","relevance":"LOW"},{"id":"M5432","name":"Central Nervous System Diseases","relevance":"LOW"}],"browseBranches":[{"abbrev":"BC10","name":"Nervous System Diseases"},{"abbrev":"BC14","name":"Heart and Blood Diseases"},{"abbrev":"All","name":"All Conditions"},{"abbrev":"BC23","name":"Symptoms and General Pathology"}]}},"hasResults":false}