{"protocolSection":{"identificationModule":{"nctId":"NCT04416659","orgStudyIdInfo":{"id":"3002"},"organization":{"fullName":"Medtronic Neurovascular Clinical Affairs","class":"INDUSTRY"},"briefTitle":"Flow Arrest Safety and Technical Success With Balloon Guide Catheters","officialTitle":"Flow Arrest Safety and Technical Success With Balloon Guide Catheters","acronym":"FAST-BGC"},"statusModule":{"statusVerifiedDate":"2022-04","overallStatus":"COMPLETED","expandedAccessInfo":{"hasExpandedAccess":false},"startDateStruct":{"date":"2021-01-12","type":"ACTUAL"},"primaryCompletionDateStruct":{"date":"2021-10-27","type":"ACTUAL"},"completionDateStruct":{"date":"2021-10-27","type":"ACTUAL"},"studyFirstSubmitDate":"2020-05-21","studyFirstSubmitQcDate":"2020-06-03","studyFirstPostDateStruct":{"date":"2020-06-04","type":"ACTUAL"},"lastUpdateSubmitDate":"2022-04-21","lastUpdatePostDateStruct":{"date":"2022-04-28","type":"ACTUAL"}},"sponsorCollaboratorsModule":{"responsibleParty":{"type":"SPONSOR"},"leadSponsor":{"name":"Medtronic Neurovascular Clinical Affairs","class":"INDUSTRY"}},"oversightModule":{"oversightHasDmc":false,"isFdaRegulatedDrug":false,"isFdaRegulatedDevice":false},"descriptionModule":{"briefSummary":"The objective of this post-market registry is to assess technical efficacy and safety associated with the use of the BOSS Balloon Guide Catheter during neuro-vascular procedures while providing temporary arrest of blood flow.","detailedDescription":"This is a prospective, multi-center, non-randomized observational registry evaluating use of BOSS balloon guide catheters in patients diagnosed with an acute ischemic stroke due to large intracranial vessel occlusion."},"conditionsModule":{"conditions":["Acute Ischemic Stroke"]},"designModule":{"studyType":"OBSERVATIONAL","patientRegistry":true,"targetDuration":"1 Week","designInfo":{"observationalModel":"COHORT","timePerspective":"PROSPECTIVE"},"enrollmentInfo":{"count":52,"type":"ACTUAL"}},"armsInterventionsModule":{"interventions":[{"type":"DEVICE","name":"Neuro-vascular access","description":"Adjunctive device providing a conduit for retrieval device during thrombectomy"}]},"outcomesModule":{"primaryOutcomes":[{"measure":"Safety Evaluation","description":"Incidence of device-related adverse events","timeFrame":"Hospital discharge or 7 days"},{"measure":"Performance Evaluation","description":"Technical success of the BGC during procedure which includes inflation, deflation, retraction, flow arrest and reestablishment","timeFrame":"Completion of procedure"}]},"eligibilityModule":{"eligibilityCriteria":"Inclusion Criteria:\n\n* Acute ischemic stroke vessel occlusion (ICA, M1 or M2) of the anterior circulation with associated symptoms\n* Adult patient willing to provide Informed Consent\n* Pre-treatment National Institutes of Health Stroke Scale (NIHSS) â‰¥ 6\n\nExclusion Criteria:\n\n* Posterior circulation stroke\n* Tandem occlusions\n* Cervical carotid stenosis\n* Participating in another clinical trial","healthyVolunteers":false,"sex":"ALL","minimumAge":"18 Years","stdAges":["ADULT","OLDER_ADULT"],"studyPopulation":"Patients with acute ischemic stroke","samplingMethod":"NON_PROBABILITY_SAMPLE"},"contactsLocationsModule":{"overallOfficials":[{"name":"Biraj Patel, MD","affiliation":"Carilion Clinic","role":"PRINCIPAL_INVESTIGATOR"}],"locations":[{"facility":"BNI (St. Joseph's Hospital-Dignity Health)","city":"Phoenix","state":"Arizona","zip":"85013","country":"United States","geoPoint":{"lat":33.44838,"lon":-112.07404}},{"facility":"Swedish-RIACO","city":"Englewood","state":"Colorado","zip":"80112","country":"United States","geoPoint":{"lat":39.64777,"lon":-104.98776}},{"facility":"Baptist Health Jacksonville","city":"Jacksonville","state":"Florida","zip":"32207","country":"United States","geoPoint":{"lat":30.33218,"lon":-81.65565}},{"facility":"Northwestern University","city":"Chicago","state":"Illinois","zip":"60611","country":"United States","geoPoint":{"lat":41.85003,"lon":-87.65005}},{"facility":"KUMC","city":"Kansas City","state":"Kansas","zip":"66160","country":"United States","geoPoint":{"lat":39.11417,"lon":-94.62746}},{"facility":"UMass Medical School","city":"Worcester","state":"Massachusetts","zip":"01655","country":"United States","geoPoint":{"lat":42.26259,"lon":-71.80229}},{"facility":"University of Missouri","city":"Columbia","state":"Missouri","zip":"65212","country":"United States","geoPoint":{"lat":38.95171,"lon":-92.33407}},{"facility":"Ft Sanders Regional Medical Center","city":"Knoxville","state":"Tennessee","zip":"37902","country":"United States","geoPoint":{"lat":35.96064,"lon":-83.92074}},{"facility":"Carilion Clinic","city":"Roanoke","state":"Virginia","zip":"24014","country":"United States","geoPoint":{"lat":37.27097,"lon":-79.94143}}]},"ipdSharingStatementModule":{"ipdSharing":"NO","description":"No IPD will be available."}},"derivedSection":{"miscInfoModule":{"versionHolder":"2024-02-14"},"conditionBrowseModule":{"meshes":[{"id":"D000083242","term":"Ischemic Stroke"}],"ancestors":[{"id":"D000020521","term":"Stroke"},{"id":"D000002561","term":"Cerebrovascular Disorders"},{"id":"D000001927","term":"Brain Diseases"},{"id":"D000002493","term":"Central Nervous System Diseases"},{"id":"D000009422","term":"Nervous System Diseases"},{"id":"D000014652","term":"Vascular Diseases"},{"id":"D000002318","term":"Cardiovascular Diseases"}],"browseLeaves":[{"id":"M21996","name":"Stroke","relevance":"LOW"},{"id":"M10233","name":"Ischemia","relevance":"LOW"},{"id":"M2401","name":"Ischemic Stroke","asFound":"Acute Ischemic Stroke","relevance":"HIGH"},{"id":"M9101","name":"Heart Arrest","relevance":"LOW"},{"id":"M5500","name":"Cerebrovascular Disorders","relevance":"LOW"},{"id":"M4894","name":"Brain Diseases","relevance":"LOW"},{"id":"M5432","name":"Central Nervous System Diseases","relevance":"LOW"},{"id":"M17090","name":"Vascular Diseases","relevance":"LOW"},{"id":"T170","name":"Acute Graft Versus Host Disease","relevance":"LOW"}],"browseBranches":[{"abbrev":"BC10","name":"Nervous System Diseases"},{"abbrev":"BC14","name":"Heart and Blood Diseases"},{"abbrev":"All","name":"All Conditions"},{"abbrev":"BC23","name":"Symptoms and General Pathology"},{"abbrev":"Rare","name":"Rare Diseases"}]}},"hasResults":false}