{"protocolSection":{"identificationModule":{"nctId":"NCT00442845","orgStudyIdInfo":{"id":"A2581087"},"organization":{"fullName":"Pfizer","class":"INDUSTRY"},"briefTitle":"Establish The Benefits Of Using Various Starting Doses Of Atorvastatin On Achievement Of Cholesterol Targets (ACTFAST)","officialTitle":"ACTFAST: Achieve Cholesterol Targets Fast With Atorvastatin Stratified Titration. A Multicenter, Twelve-Week Treatment, Single Step Titration, Open-Label Study Assessing The Percentage Of Dyslipidemic High-Risk Patients Achieving Low Density Lipoprotein Cholesterol (LDL-C) Target With Atorvastatin Starting Doses Of 10 Mg, 20 Mg, 40 Mg, And 80 Mg","acronym":"ACTFAST"},"statusModule":{"statusVerifiedDate":"2021-02","overallStatus":"COMPLETED","expandedAccessInfo":{"hasExpandedAccess":false},"startDateStruct":{"date":"2003-01"},"primaryCompletionDateStruct":{"date":"2004-02","type":"ACTUAL"},"completionDateStruct":{"date":"2004-02","type":"ACTUAL"},"studyFirstSubmitDate":"2007-02-28","studyFirstSubmitQcDate":"2007-02-28","studyFirstPostDateStruct":{"date":"2007-03-02","type":"ESTIMATED"},"lastUpdateSubmitDate":"2021-02-17","lastUpdatePostDateStruct":{"date":"2021-02-18","type":"ACTUAL"}},"sponsorCollaboratorsModule":{"responsibleParty":{"type":"SPONSOR"},"leadSponsor":{"name":"Pfizer's Upjohn has merged with Mylan to form Viatris Inc.","class":"INDUSTRY"}},"descriptionModule":{"briefSummary":"Physicians tend to always use the lowest dose of statins to initiate therapy even in subjects who require large reductions in cholesterol. The study evaluates if selecting the starting dose based on baseline and target LDL-C cholesterol would provide better results (ie proportion of subjects resching target)"},"conditionsModule":{"conditions":["Coronary Arteriosclerosis","Diabetes Mellitus, Type 2","Cerebrovascular Accident","Dyslipidemia","Peripheral Vascular Disease"]},"designModule":{"studyType":"INTERVENTIONAL","phases":["PHASE4"],"designInfo":{"allocation":"NON_RANDOMIZED","interventionModel":"PARALLEL","primaryPurpose":"TREATMENT","maskingInfo":{"masking":"NONE"}},"enrollmentInfo":{"count":2080}},"armsInterventionsModule":{"interventions":[{"type":"DRUG","name":"Atorvastatin (Lipitor)"}]},"outcomesModule":{"primaryOutcomes":[{"measure":"Proportion of subjects achieving a LDL-C target of < 100 mg/dL (2.6 mmol/L) after 12 weeks."}],"secondaryOutcomes":[{"measure":"Percentage of subjects achieving:"},{"measure":"LDL-C target <100 mg/dL (<2.6 mmol/L) after 6 weeks of treatment."},{"measure":"Total cholesterol (TC)/HDL-C ratio target (<4.0) after 6 and 12 weeks of treatment."},{"measure":"Either the LDL-C <100mg/dL (<2.6 mmol/L) or TC/HDL-C ratio (<4.0) targets after 6 and 12 weeks of treatment."},{"measure":"Both the LDL-C <100mg/dL (<2.6 mmol/L) and TC/HDL-C ratio (<4.0) targets after 6 and 12 weeks of treatment."},{"measure":"LDL-C <100mg/dL (<2.6 mmol/L) or TC/HDL-C ratio (<4.0) targets after 6 and 12 weeks of treatment by LDL-C strata."},{"measure":"LDL-C target (<100 mg/dL) by primary inclusion diagnosis (CHD, CHD-equivalent, diabetes or 10-year CHD risk-equivalent >20%)."},{"measure":"The mean percent change in LDL-C, high density lipoprotein cholesterol (HDL-C),TC/HDL-C ratio, non HDL-C (in subjects with triglycerides [TG] â‰¥200 mg/dL or 2.3 mmol/L), TC and TG from baseline to 6 and 12 weeks of treatment."},{"measure":"Change from baseline in apolipoprotein-B (Apo-B) and change from baseline in glycosylated hemoglobin (HbA1c) was assessed at 12 weeks."}]},"eligibilityModule":{"eligibilityCriteria":"Inclusion Criteria:\n\n* High cholesterol blood levels (LDL-cholesterol above 100 mg/dL up to 220 mg/dL.\n* Triglycerides up to 600 mg/dL.\n* History of coronary artery disease (ex.: heart attack, angina), stroke, diabetes or at high risk of such events\n\nExclusion Criteria:\n\n* Pregnancy or lactation, use of high statin doses (\\>40mg) at baseline, liver or renal problems, use of other drugs that would interfere with evaluation of efficacy or cause safety problems, uncontrolled hypertension, diabetes or hypothyroidism, recent cardiac event of procedure, high baseline CPK levels","healthyVolunteers":false,"sex":"ALL","minimumAge":"18 Years","stdAges":["ADULT","OLDER_ADULT"]},"contactsLocationsModule":{"overallOfficials":[{"name":"Pfizer CT.gov Call Center","affiliation":"Pfizer","role":"STUDY_DIRECTOR"}],"locations":[{"facility":"Pfizer Investigational Site","city":"Mississauga","state":"Ontario","country":"Cameroon"},{"facility":"Pfizer Investigational Site","city":"Calgary","state":"Alberta","country":"Canada","geoPoint":{"lat":51.05011,"lon":-114.08529}},{"facility":"Pfizer Investigational Site","city":"Edmonton","state":"Alberta","country":"Canada","geoPoint":{"lat":53.55014,"lon":-113.46871}},{"facility":"Pfizer Investigational Site","city":"Medicine Hat","state":"Alberta","country":"Canada","geoPoint":{"lat":50.03928,"lon":-110.67661}},{"facility":"Pfizer Investigational Site","city":"Red Deer","state":"Alberta","country":"Canada","geoPoint":{"lat":52.26682,"lon":-113.802}},{"facility":"Pfizer Investigational Site","city":"Campbell River","state":"British Columbia","country":"Canada","geoPoint":{"lat":50.01634,"lon":-125.24459}},{"facility":"Pfizer Investigational Site","city":"Maple Ridge","state":"British Columbia","country":"Canada","geoPoint":{"lat":49.21939,"lon":-122.60193}},{"facility":"Pfizer Investigational Site","city":"Nanaimo","state":"British Columbia","country":"Canada","geoPoint":{"lat":49.16638,"lon":-123.94003}},{"facility":"Pfizer Investigational Site","city":"New Westminster","state":"British Columbia","country":"Canada","geoPoint":{"lat":49.20678,"lon":-122.91092}},{"facility":"Pfizer Investigational Site","city":"Richmond","state":"British Columbia","country":"Canada","geoPoint":{"lat":49.17003,"lon":-123.13683}},{"facility":"Pfizer Investigational Site","city":"Surrey","state":"British Columbia","country":"Canada","geoPoint":{"lat":49.10635,"lon":-122.82509}},{"facility":"Pfizer Investigational Site","city":"Vancouver","state":"British Columbia","country":"Canada","geoPoint":{"lat":49.24966,"lon":-123.11934}},{"facility":"Pfizer Investigational Site","city":"Vernon","state":"British Columbia","country":"Canada","geoPoint":{"lat":50.26729,"lon":-119.27337}},{"facility":"Pfizer Investigational Site","city":"Victoria","state":"British Columbia","country":"Canada","geoPoint":{"lat":48.43294,"lon":-123.3693}},{"facility":"Pfizer Investigational Site","city":"Brandon","state":"Manitoba","country":"Canada","geoPoint":{"lat":49.84692,"lon":-99.95306}},{"facility":"Pfizer Investigational Site","city":"Winnipeg","state":"Manitoba","country":"Canada","geoPoint":{"lat":49.8844,"lon":-97.14704}},{"facility":"Pfizer Investigational Site","city":"Ajax","state":"Ontario","country":"Canada","geoPoint":{"lat":43.85012,"lon":-79.03288}},{"facility":"Pfizer Investigational Site","city":"Brampton","state":"Ontario","country":"Canada","geoPoint":{"lat":43.68341,"lon":-79.76633}},{"facility":"Pfizer Investigational Site","city":"Burlington","state":"Ontario","country":"Canada","geoPoint":{"lat":43.38621,"lon":-79.83713}},{"facility":"Pfizer Investigational Site","city":"Cambridge","state":"Ontario","country":"Canada","geoPoint":{"lat":43.3601,"lon":-80.31269}},{"facility":"Pfizer Investigational Site","city":"Cornwall","state":"Ontario","country":"Canada","geoPoint":{"lat":45.01809,"lon":-74.72815}},{"facility":"Pfizer Investigational Site","city":"Etobicoke","state":"Ontario","country":"Canada","geoPoint":{"lat":43.65421,"lon":-79.56711}},{"facility":"Pfizer Investigational Site","city":"Mississauga","state":"Ontario","country":"Canada","geoPoint":{"lat":43.5789,"lon":-79.6583}},{"facility":"Pfizer Investigational Site","city":"Niagara Falls","state":"Ontario","country":"Canada","geoPoint":{"lat":43.10012,"lon":-79.06627}},{"facility":"Pfizer Investigational Site","city":"North York","state":"Ontario","country":"Canada","geoPoint":{"lat":43.76681,"lon":-79.4163}},{"facility":"Pfizer Investigational Site","city":"Orillia","state":"Ontario","country":"Canada","geoPoint":{"lat":44.60868,"lon":-79.42068}},{"facility":"Pfizer Investigational Site","city":"Oshawa","state":"Ontario","country":"Canada","geoPoint":{"lat":43.90012,"lon":-78.84957}},{"facility":"Pfizer Investigational Site","city":"Rexdale","state":"Ontario","country":"Canada","geoPoint":{"lat":43.72087,"lon":-79.57106}},{"facility":"Pfizer Investigational Site","city":"Sarnia","state":"Ontario","country":"Canada","geoPoint":{"lat":42.97866,"lon":-82.40407}},{"facility":"Pfizer Investigational Site","city":"Scarborough","state":"Ontario","country":"Canada","geoPoint":{"lat":43.77223,"lon":-79.25666}},{"facility":"Pfizer Investigational Site","city":"Simcoe","state":"Ontario","country":"Canada","geoPoint":{"lat":42.8334,"lon":-80.29967}},{"facility":"Pfizer Investigational Site","city":"Thunder Bay","state":"Ontario","country":"Canada","geoPoint":{"lat":48.38202,"lon":-89.25018}},{"facility":"Pfizer Investigational Site","city":"Toronto","state":"Ontario","country":"Canada","geoPoint":{"lat":43.70011,"lon":-79.4163}},{"facility":"Pfizer Investigational Site","city":"Weston","state":"Ontario","country":"Canada"},{"facility":"Pfizer Investigational Site","city":"Whitby","state":"Ontario","country":"Canada","geoPoint":{"lat":43.88342,"lon":-78.93287}},{"facility":"Pfizer Investigational Site","city":"Willowdale","state":"Ontario","country":"Canada","geoPoint":{"lat":43.76675,"lon":-79.39913}},{"facility":"Pfizer Investigational Site","city":"Chicoutimi","state":"Quebec","country":"Canada","geoPoint":{"lat":48.41963,"lon":-71.06369}},{"facility":"Pfizer Investigational Site","city":"Cowansville","state":"Quebec","country":"Canada","geoPoint":{"lat":45.20008,"lon":-72.74913}},{"facility":"Pfizer Investigational Site","city":"Drummondville","state":"Quebec","country":"Canada","geoPoint":{"lat":45.88336,"lon":-72.48241}},{"facility":"Pfizer Investigational Site","city":"Joliette","state":"Quebec","country":"Canada","geoPoint":{"lat":46.0164,"lon":-73.4236}},{"facility":"Pfizer Investigational Site","city":"Laval","state":"Quebec","country":"Canada","geoPoint":{"lat":45.56995,"lon":-73.692}},{"facility":"Pfizer Investigational Site","city":"Levis","state":"Quebec","country":"Canada","geoPoint":{"lat":46.80326,"lon":-71.17793}},{"facility":"Pfizer Investigational Site","city":"Maria","state":"Quebec","country":"Canada","geoPoint":{"lat":48.1749,"lon":-65.98595}},{"facility":"Pfizer Investigational Site","city":"Montreal","state":"Quebec","country":"Canada","geoPoint":{"lat":45.50884,"lon":-73.58781}},{"facility":"Pfizer Investigational Site","city":"Newport","state":"Quebec","country":"Canada"},{"facility":"Pfizer Investigational Site","city":"Pointe Claire","state":"Quebec","country":"Canada","geoPoint":{"lat":45.44868,"lon":-73.81669}},{"facility":"Pfizer Investigational Site","city":"Repentigny","state":"Quebec","country":"Canada","geoPoint":{"lat":45.74222,"lon":-73.45008}},{"facility":"Pfizer Investigational Site","city":"Saint Hyacinthe","state":"Quebec","country":"Canada","geoPoint":{"lat":45.63076,"lon":-72.95699}},{"facility":"Pfizer Investigational Site","city":"Sainte Foy","state":"Quebec","country":"Canada","geoPoint":{"lat":46.75615,"lon":-71.29543}},{"facility":"Pfizer Investigational Site","city":"Sherbrooke","state":"Quebec","country":"Canada","geoPoint":{"lat":45.40008,"lon":-71.89908}},{"facility":"Pfizer Investigational Site","city":"St-georges (beauce)","state":"Quebec","country":"Canada"},{"facility":"Pfizer Investigational Site","city":"St. Lambert","state":"Quebec","country":"Canada","geoPoint":{"lat":45.50008,"lon":-73.51028}},{"facility":"Pfizer Investigational Site","city":"Thetford Mines","state":"Quebec","country":"Canada","geoPoint":{"lat":46.09371,"lon":-71.30539}},{"facility":"Pfizer Investigational Site","city":"Vaudreuil","state":"Quebec","country":"Canada"},{"facility":"Pfizer Investigational Site","city":"Saskatoon","state":"Saskatchewan","country":"Canada","geoPoint":{"lat":52.13238,"lon":-106.66892}},{"facility":"Pfizer Investigational Site","city":"Quebec","country":"Canada","geoPoint":{"lat":46.81228,"lon":-71.21454}},{"facility":"Pfizer Investigational Site","city":"Tricase","state":"(le)","country":"Italy","geoPoint":{"lat":39.93018,"lon":18.35421}},{"facility":"Pfizer Investigational Site","city":"Vimercate","state":"(mi)","country":"Italy","geoPoint":{"lat":45.61545,"lon":9.36801}},{"facility":"Pfizer Investigational Site","city":"Somma Lombardo","state":"(va)","country":"Italy","geoPoint":{"lat":45.68213,"lon":8.70759}},{"facility":"Pfizer Investigational Site","city":"Asti","country":"Italy","geoPoint":{"lat":44.90162,"lon":8.20751}},{"facility":"Pfizer Investigational Site","city":"Bari","country":"Italy","geoPoint":{"lat":41.11148,"lon":16.8554}},{"facility":"Pfizer Investigational Site","city":"Belluno","country":"Italy","geoPoint":{"lat":46.14262,"lon":12.2156}},{"facility":"Pfizer Investigational Site","city":"Bologna","country":"Italy","geoPoint":{"lat":44.49381,"lon":11.33875}},{"facility":"Pfizer Investigational Site","city":"Bolzano","country":"Italy","geoPoint":{"lat":46.49067,"lon":11.33982}},{"facility":"Pfizer Investigational Site","city":"Catania","country":"Italy","geoPoint":{"lat":37.49223,"lon":15.07041}},{"facility":"Pfizer Investigational Site","city":"Chieti","country":"Italy","geoPoint":{"lat":42.34827,"lon":14.16494}},{"facility":"Pfizer Investigational Site","city":"Ferrara","country":"Italy","geoPoint":{"lat":44.83804,"lon":11.62057}},{"facility":"Pfizer Investigational Site","city":"Firenze","country":"Italy","geoPoint":{"lat":43.77925,"lon":11.24626}},{"facility":"Pfizer Investigational Site","city":"Foggia","country":"Italy","geoPoint":{"lat":41.45845,"lon":15.55188}},{"facility":"Pfizer Investigational Site","city":"Grosseto","country":"Italy","geoPoint":{"lat":42.76296,"lon":11.10941}},{"facility":"Pfizer Investigational Site","city":"Napoli","country":"Italy","geoPoint":{"lat":40.85216,"lon":14.26811}},{"facility":"Pfizer Investigational Site","city":"Novara","country":"Italy","geoPoint":{"lat":45.44694,"lon":8.62118}},{"facility":"Pfizer Investigational Site","city":"Palermo","country":"Italy","geoPoint":{"lat":38.13205,"lon":13.33561}},{"facility":"Pfizer Investigational Site","city":"Perugia","country":"Italy","geoPoint":{"lat":43.1122,"lon":12.38878}},{"facility":"Pfizer Investigational Site","city":"Potenza","country":"Italy","geoPoint":{"lat":40.64175,"lon":15.80794}},{"facility":"Pfizer Investigational Site","city":"Prato","country":"Italy","geoPoint":{"lat":43.8805,"lon":11.09699}},{"facility":"Pfizer Investigational Site","city":"Roma","country":"Italy","geoPoint":{"lat":41.89193,"lon":12.51133}},{"facility":"Pfizer Investigational Site","city":"Salerno","country":"Italy","geoPoint":{"lat":40.67545,"lon":14.79328}},{"facility":"Pfizer Investigational Site","city":"San Donato Milanese","country":"Italy","geoPoint":{"lat":45.41047,"lon":9.26838}},{"facility":"Pfizer Investigational Site","city":"Sassari","country":"Italy","geoPoint":{"lat":40.72586,"lon":8.55552}},{"facility":"Pfizer Investigational Site","city":"Savona","country":"Italy","geoPoint":{"lat":44.30905,"lon":8.47715}},{"facility":"Pfizer Investigational Site","city":"Siena","country":"Italy","geoPoint":{"lat":43.31822,"lon":11.33064}},{"facility":"Pfizer Investigational Site","city":"Torino","country":"Italy","geoPoint":{"lat":45.07049,"lon":7.68682}},{"facility":"Pfizer Investigational Site","city":"Venezia","country":"Italy","geoPoint":{"lat":45.43713,"lon":12.33265}},{"facility":"Pfizer Investigational Site","city":"Hospitalet de Llobregat","state":"Barcelona","country":"Spain","geoPoint":{"lat":41.35967,"lon":2.10028}},{"facility":"Pfizer Investigational Site","city":"Girona","state":"Cataluna","country":"Spain","geoPoint":{"lat":41.98311,"lon":2.82493}},{"facility":"Pfizer Investigational Site","city":"Galdakao","state":"Vizcaya","country":"Spain","geoPoint":{"lat":43.23333,"lon":-2.83333}},{"facility":"Pfizer Investigational Site","city":"Avila","country":"Spain","geoPoint":{"lat":40.65724,"lon":-4.69951}},{"facility":"Pfizer Investigational Site","city":"Barcelona","country":"Spain","geoPoint":{"lat":41.38879,"lon":2.15899}},{"facility":"Pfizer Investigational Site","city":"Granada","country":"Spain","geoPoint":{"lat":37.18817,"lon":-3.60667}},{"facility":"Pfizer Investigational Site","city":"Huelva","country":"Spain","geoPoint":{"lat":37.26638,"lon":-6.94004}},{"facility":"Pfizer Investigational Site","city":"Jerez de La Frontera","country":"Spain","geoPoint":{"lat":36.68645,"lon":-6.13606}},{"facility":"Pfizer Investigational Site","city":"Madrid","country":"Spain","geoPoint":{"lat":40.4165,"lon":-3.70256}},{"facility":"Pfizer Investigational Site","city":"Marbella","country":"Spain","geoPoint":{"lat":36.51543,"lon":-4.88583}},{"facility":"Pfizer Investigational Site","city":"Sevilla","country":"Spain","geoPoint":{"lat":37.38283,"lon":-5.97317}},{"facility":"Pfizer Investigational Site","city":"Tarragona","country":"Spain","geoPoint":{"lat":41.11667,"lon":1.25}},{"facility":"Pfizer Investigational Site","city":"Valencia","country":"Spain","geoPoint":{"lat":39.46975,"lon":-0.37739}},{"facility":"Pfizer Investigational Site","city":"Newtonabbey","state":"Belfast","country":"United Kingdom"},{"facility":"Pfizer Investigational Site","city":"Aylesbury","state":"Buckinghamshire","country":"United Kingdom","geoPoint":{"lat":51.81665,"lon":-0.81458}},{"facility":"Pfizer Investigational Site","city":"ELY","state":"Cambs","country":"United Kingdom","geoPoint":{"lat":52.39964,"lon":0.26196}},{"facility":"Pfizer Investigational Site","city":"Peterborough","state":"Cambs","country":"United Kingdom","geoPoint":{"lat":52.57364,"lon":-0.24777}},{"facility":"Pfizer Investigational Site","city":"Newtonabbey","state":"CO Antrim","country":"United Kingdom"},{"facility":"Pfizer Investigational Site","city":"Hastings","state":"EAST Sussex","country":"United Kingdom","geoPoint":{"lat":50.85519,"lon":0.57292}},{"facility":"Pfizer Investigational Site","city":"High Valleyfield","state":"Fife","country":"United Kingdom","geoPoint":{"lat":56.06357,"lon":-3.59913}},{"facility":"Pfizer Investigational Site","city":"Rutherglen","state":"Glasgow","country":"United Kingdom","geoPoint":{"lat":55.82885,"lon":-4.21376}},{"facility":"Pfizer Investigational Site","city":"Leslie, FIFE","state":"Glenrotheshire","country":"United Kingdom"},{"facility":"Pfizer Investigational Site","city":"Sunbury on Thames","state":"Middlesex","country":"United Kingdom","geoPoint":{"lat":51.40424,"lon":-0.41817}},{"facility":"Pfizer Investigational Site","city":"Frome","state":"Somerset","country":"United Kingdom","geoPoint":{"lat":51.22834,"lon":-2.32211}},{"facility":"Pfizer Investigational Site","city":"Barry","state":"South Glamorgan","country":"United Kingdom","geoPoint":{"lat":51.39979,"lon":-3.2838}},{"facility":"Pfizer Investigational Site","city":"Doncaster","state":"South Yorkshire","country":"United Kingdom","geoPoint":{"lat":53.52285,"lon":-1.13116}},{"facility":"Pfizer Investigational Site","city":"Stairfoot, Barnsley","state":"South Yorkshire","country":"United Kingdom"},{"facility":"Pfizer Investigational Site","city":"Addlestone","state":"Surrey","country":"United Kingdom","geoPoint":{"lat":51.37135,"lon":-0.49353}},{"facility":"Pfizer Investigational Site","city":"East Horsley","state":"Surrey","country":"United Kingdom","geoPoint":{"lat":51.27358,"lon":-0.43207}},{"facility":"Pfizer Investigational Site","city":"Atherstone","state":"Warks","country":"United Kingdom","geoPoint":{"lat":52.57536,"lon":-1.54693}},{"facility":"Pfizer Investigational Site","city":"Balsall Common","state":"WEST Midlands","country":"United Kingdom","geoPoint":{"lat":52.39186,"lon":-1.6504}},{"facility":"Pfizer Investigational Site","city":"Pound Hill, Crawley","state":"WEST Sussex","country":"United Kingdom"},{"facility":"Pfizer Investigational Site","city":"Trowbridge","state":"Wiltshire","country":"United Kingdom","geoPoint":{"lat":51.31889,"lon":-2.20861}},{"facility":"Pfizer Investigational Site","city":"Chippenham","state":"Wilts","country":"United Kingdom","geoPoint":{"lat":51.46,"lon":-2.12472}},{"facility":"Pfizer Investigational Site","city":"Sheffield","state":"Yorkshire","country":"United Kingdom","geoPoint":{"lat":53.38297,"lon":-1.4659}},{"facility":"Pfizer Investigational Site","city":"Bath","country":"United Kingdom","geoPoint":{"lat":51.3751,"lon":-2.36172}},{"facility":"Pfizer Investigational Site"}]},"referencesModule":{"references":[{"pmid":"21610204","type":"DERIVED","citation":"Gupta M, Martineau P, Tran T, Despres JP, Gaw A, de Teresa E, Farsang C, Gensini GF, Leiter LA, Blanco-Colio LM, Egido J, Langer A; ACTFAST investigators. Low-density lipoprotein cholesterol and high-sensitivity C-reactive protein lowering with atorvastatin in patients of South Asian compared with European origin: insights from the Achieve Cholesterol Targets Fast with Atorvastatin Stratified Titration (ACTFAST) study. J Clin Pharmacol. 2012 Jun;52(6):850-8. doi: 10.1177/0091270011407196. Epub 2011 May 24."},{"pmid":"19217176","type":"DERIVED","citation":"Gensini GF, Gori AM, Dilaghi B, Rostagno C, Gaw A, Blanco-Colio LM, de Teresa E, Egido J, Farsang C, Leiter LA, Martineau P, Nozza A, Langer A; Achieve Cholesterol Targets Fast withAtorvastatin Stratified Titration Investigators. Effect of atorvastatin on circulating hsCRP concentrations: a sub-study of the achieve cholesterol targets fast with atorvastatin stratified titration (ACTFAST) study. Int J Cardiol. 2010 Jul 23;142(3):257-64. doi: 10.1016/j.ijcard.2008.12.213. Epub 2009 Feb 12."}],"seeAlsoLinks":[{"label":"To obtain contact information for a study center near you, click here.","url":"https://trialinfoemail.pfizer.com/pages/landing.aspx?StudyID=A2581087&StudyName=Establish+The+Benefits+Of+Using+Various+Starting+Doses+Of+Atorvastatin+On+Achievement+Of+Cholesterol+Targets+%28ACTFAST%29"}]}},"derivedSection":{"miscInfoModule":{"versionHolder":"2024-02-14"},"conditionBrowseModule":{"meshes":[{"id":"D000020521","term":"Stroke"},{"id":"D000014652","term":"Vascular Diseases"},{"id":"D000016491","term":"Peripheral Vascular Diseases"},{"id":"D000058729","term":"Peripheral Arterial Disease"},{"id":"D000001161","term":"Arteriosclerosis"},{"id":"D000003324","term":"Coronary Artery Disease"},{"id":"D000017202","term":"Myocardial Ischemia"},{"id":"D000003924","term":"Diabetes Mellitus, Type 2"},{"id":"D000050171","term":"Dyslipidemias"}],"ancestors":[{"id":"D000003920","term":"Diabetes Mellitus"},{"id":"D000044882","term":"Glucose Metabolism Disorders"},{"id":"D000008659","term":"Metabolic Diseases"},{"id":"D000004700","term":"Endocrine System Diseases"},{"id":"D000052439","term":"Lipid Metabolism Disorders"},{"id":"D000002318","term":"Cardiovascular Diseases"},{"id":"D000002561","term":"Cerebrovascular Disorders"},{"id":"D000001927","term":"Brain Diseases"},{"id":"D000002493","term":"Central Nervous System Diseases"},{"id":"D000009422","term":"Nervous System Diseases"},{"id":"D000050197","term":"Atherosclerosis"},{"id":"D000001157","term":"Arterial Occlusive Diseases"},{"id":"D000003327","term":"Coronary Disease"},{"id":"D000006331","term":"Heart Diseases"}],"browseLeaves":[{"id":"M21996","name":"Stroke","asFound":"Cerebrovascular Accident","relevance":"HIGH"},{"id":"M6805","name":"Diabetes Mellitus","relevance":"LOW"},{"id":"M6809","name":"Diabetes Mellitus, Type 2","asFound":"Diabetes Mellitus, Type 2","relevance":"HIGH"},{"id":"M6236","name":"Coronary Artery Disease","asFound":"Coronary Arteriosclerosis","relevance":"HIGH"},{"id":"M25871","name":"Dyslipidemias","asFound":"Dyslipidemia","relevance":"HIGH"},{"id":"M19196","name":"Myocardial Ischemia","asFound":"Coronary Arteriosclerosis","relevance":"HIGH"},{"id":"M28903","name":"Peripheral Arterial Disease","asFound":"Peripheral Vascular Disease","relevance":"HIGH"},{"id":"M18584","name":"Peripheral Vascular Diseases","asFound":"Peripheral Vascular Disease","relevance":"HIGH"},{"id":"M17090","name":"Vascular Diseases","asFound":"Vascular Disease","relevance":"HIGH"},{"id":"M4159","name":"Arteriosclerosis","asFound":"Arteriosclerosis","relevance":"HIGH"},{"id":"M6239","name":"Coronary Disease","relevance":"LOW"},{"id":"M10233","name":"Ischemia","relevance":"LOW"},{"id":"M11329","name":"Metabolic Diseases","relevance":"LOW"},{"id":"M25093","name":"Glucose Metabolism Disorders","relevance":"LOW"},{"id":"M7552","name":"Endocrine System Diseases","relevance":"LOW"},{"id":"M26719","name":"Lipid Metabolism Disorders","relevance":"LOW"},{"id":"M5500","name":"Cerebrovascular Disorders","relevance":"LOW"},{"id":"M4894","name":"Brain Diseases","relevance":"LOW"},{"id":"M5432","name":"Central Nervous System Diseases","relevance":"LOW"},{"id":"M25878","name":"Atherosclerosis","relevance":"LOW"},{"id":"M4155","name":"Arterial Occlusive Diseases","relevance":"LOW"},{"id":"M9109","name":"Heart Diseases","relevance":"LOW"}],"browseBranches":[{"abbrev":"BC10","name":"Nervous System Diseases"},{"abbrev":"BC14","name":"Heart and Blood Diseases"},{"abbrev":"All","name":"All Conditions"},{"abbrev":"BC18","name":"Nutritional and Metabolic Diseases"},{"abbrev":"BC19","name":"Gland and Hormone Related Diseases"},{"abbrev":"BC23","name":"Symptoms and General Pathology"}]},"interventionBrowseModule":{"meshes":[{"id":"D000069059","term":"Atorvastatin"}],"ancestors":[{"id":"D000000924","term":"Anticholesteremic Agents"},{"id":"D000000960","term":"Hypolipidemic Agents"},{"id":"D000000963","term":"Antimetabolites"},{"id":"D000045504","term":"Molecular Mechanisms of Pharmacological Action"},{"id":"D000057847","term":"Lipid Regulating Agents"},{"id":"D000019161","term":"Hydroxymethylglutaryl-CoA Reductase Inhibitors"},{"id":"D000004791","term":"Enzyme Inhibitors"}],"browseLeaves":[{"id":"M351","name":"Atorvastatin","asFound":"Functional","relevance":"HIGH"},{"id":"M3933","name":"Anticholesteremic Agents","relevance":"LOW"},{"id":"M3968","name":"Hypolipidemic Agents","relevance":"LOW"},{"id":"M3971","name":"Antimetabolites","relevance":"LOW"},{"id":"M28573","name":"Lipid Regulating Agents","relevance":"LOW"},{"id":"M20845","name":"Hydroxymethylglutaryl-CoA Reductase Inhibitors","relevance":"LOW"},{"id":"M7641","name":"Enzyme Inhibitors","relevance":"LOW"}],"browseBranches":[{"abbrev":"Lipd","name":"Lipid Regulating Agents"},{"abbrev":"All","name":"All Drugs and Chemicals"}]}},"hasResults":false}