{"protocolSection":{"identificationModule":{"nctId":"NCT05702034","orgStudyIdInfo":{"id":"CR109231"},"secondaryIdInfos":[{"id":"70033093STR3001","type":"OTHER","domain":"Janssen Research & Development, LLC"},{"id":"2022-501176-26-00","type":"REGISTRY","domain":"EUCT number"}],"organization":{"fullName":"Janssen Research & Development, LLC","class":"INDUSTRY"},"briefTitle":"A Study of Milvexian in Participants After an Acute Ischemic Stroke or High-Risk Transient Ischemic Attack- LIBREXIA-STROKE","officialTitle":"A Phase 3, Randomized, Double-Blind, Parallel-Group, Placebo-Controlled Study to Demonstrate the Efficacy and Safety of Milvexian, an Oral Factor XIa Inhibitor, for Stroke Prevention After an Acute Ischemic Stroke or High-Risk Transient Ischemic Attack","acronym":"LIBREXIA-STROK"},"statusModule":{"statusVerifiedDate":"2024-01","overallStatus":"RECRUITING","expandedAccessInfo":{"hasExpandedAccess":false},"startDateStruct":{"date":"2023-02-15","type":"ACTUAL"},"primaryCompletionDateStruct":{"date":"2026-11-11","type":"ESTIMATED"},"completionDateStruct":{"date":"2026-12-09","type":"ESTIMATED"},"studyFirstSubmitDate":"2023-01-19","studyFirstSubmitQcDate":"2023-01-19","studyFirstPostDateStruct":{"date":"2023-01-27","type":"ACTUAL"},"lastUpdateSubmitDate":"2024-01-29","lastUpdatePostDateStruct":{"date":"2024-01-31","type":"ACTUAL"}},"sponsorCollaboratorsModule":{"responsibleParty":{"type":"SPONSOR"},"leadSponsor":{"name":"Janssen Research & Development, LLC","class":"INDUSTRY"},"collaborators":[{"name":"Bristol Myers Squibb Company (BMS)","class":"UNKNOWN"}]},"oversightModule":{"oversightHasDmc":true,"isFdaRegulatedDrug":true,"isFdaRegulatedDevice":false},"descriptionModule":{"briefSummary":"The purpose of this study is to evaluate whether milvexian compared to placebo reduce the risk of recurrent ischemic stroke."},"conditionsModule":{"conditions":["Ischemic Stroke; Ischemic Attack, Transient"]},"designModule":{"studyType":"INTERVENTIONAL","phases":["PHASE3"],"designInfo":{"allocation":"RANDOMIZED","interventionModel":"PARALLEL","primaryPurpose":"TREATMENT","maskingInfo":{"masking":"QUADRUPLE","whoMasked":["PARTICIPANT","CARE_PROVIDER","INVESTIGATOR","OUTCOMES_ASSESSOR"]}},"enrollmentInfo":{"count":15000,"type":"ESTIMATED"}},"armsInterventionsModule":{"armGroups":[{"label":"Milvexian","type":"EXPERIMENTAL","description":"Participants after an acute ischemic stroke or high-risk transient ischemic attack (TIA) who are receiving antiplatelet therapy standard-of-care (SAPT \\[single antiplatelet therapy\\] or DAPT \\[dual antiplatelet therapy\\]) will receive milvexian 25 milligrams (mg), orally, twice daily.","interventionNames":["Drug: Milvexian"]},{"label":"Placebo","type":"PLACEBO_COMPARATOR","description":"Participants after an acute ischemic stroke or high-risk TIA who are receiving antiplatelet therapy standard-of-care (SAPT or DAPT) will receive placebo orally twice daily.","interventionNames":["Drug: Placebo"]}],"interventions":[{"type":"DRUG","name":"Milvexian","description":"Milvexian will be administered orally.","armGroupLabels":["Milvexian"],"otherNames":["JNJ-70033093, BMS-986177"]},{"type":"DRUG","name":"Placebo","description":"Placebo will be administered orally","armGroupLabels":["Placebo"]}]},"outcomesModule":{"primaryOutcomes":[{"measure":"Time to First Occurrence of Ischemic Stroke","description":"Time to first occurrence of ischemic stroke will be reported.","timeFrame":"Up to global targeted endpoint date (approximately 41 months)"}],"secondaryOutcomes":[{"measure":"Time to First Occurrence of any Component of the Composite of Cardiovascular Death (CVD), Myocardial Infraction (MI), or Ischemic Stroke","description":"Time to first occurrence of any component of the composite of CVD, MI, or ischemic stroke will be reported.","timeFrame":"Up to global targeted endpoint date (approximately 41 months)"},{"measure":"Time to First Occurrence of Ischemic Stroke","description":"Time to first occurrence of ischemic stroke in the first 90 days will be reported.","timeFrame":"Up to Day 90"},{"measure":"Time to First Occurrence of any Component of Major Adverse Vascular Events (MAVE)","description":"Time to first occurrence of any component of MAVE will be reported. MAVE is a composite of (CVD), myocardial infarction (MI), ischemic stroke, major adverse limb events (MALE), symptomatic pulmonary embolism (PE) or deep vein thrombosis (DVT).","timeFrame":"Up to global targeted endpoint date (approximately 41 months)"}]},"eligibilityModule":{"eligibilityCriteria":"Inclusion Criteria:\n\n* Ischemic Stroke: a neurological deficit attributable to an acute brain infarction and national institute of health stroke score scale (NIHSS) score less than or equal to (\\<=) 7 and at least 1 of the following: persistent signs or symptoms of the ischemic event at the time of randomization, or acute, ischemic brain lesion determined by standard-of-care neuroimaging, or participant underwent thrombolysis or thrombectomy, or transient ischemic attack (TIA): acute onset neurological deficit attributable to focal ischemia of the brain by history or examination, with complete symptom resolution of the deficit and no brain infarction on neuroimaging (example, computed tomography (CT) scan or magnetic resonance imaging (MRI), performed as part of standard medical practice), and ABCD2 Score greater than or equal to (\\>=) 6\n* Participants will be randomized as soon as possible after determining eligibility and within 48 hours of onset of event.\n* Current or planned antiplatelet treatment per international and/or local guidelines. If acetyl salicylic acid (ASA) is used, it will be limited to low dose (75 to 100 milligrams (mg)/day). Loading dose of antiplatelet agents (including ASA) are allowed per standard-of-care\n* A female participant must agree not to be pregnant, breastfeeding, or planning to become pregnant until 4 days (5 half lives) after the last dose of study intervention\n* Willing and able to adhere to the lifestyle restrictions specified in this protocol\n\nExclusion Criteria:\n\n* Prior history of intracranial hemorrhage except subarachnoid hemorrhage greater than (\\>) 1 year prior with adequate treatment\n* The index stroke or TIA is considered to have a cardio-embolic etiology based on local standard-of-care investigations and for which guidelines recommend anticoagulation\n* The index stroke or TIA considered to have another known cause, not related to athero-thrombotic sources (treatment of acute stroke trial \\[TOAST\\] Other Determined Etiology), based on local standard-of-care investigations\n* Increased risk of bleeding, including clinically significant bleeding within the previous 3 months or known bleeding diathesis or known activated partial thromboplastin time (aPTT) prolongation or spinal cord hemorrhage or retinal hemorrhage\n* Current active liver disease, eg, acute hepatitis, known cirrhosis, including participants receiving antiviral treatment for hepatitis\n* Known allergies, hypersensitivity, or intolerance to milvexian or its excipients","healthyVolunteers":false,"sex":"ALL","minimumAge":"40 Years","stdAges":["ADULT","OLDER_ADULT"]},"contactsLocationsModule":{"centralContacts":[{"name":"Study Contact","role":"CONTACT","phone":"844-434-4210","email":"Participate-In-This-Study@its.jnj.com"}],"overallOfficials":[{"name":"Janssen Research & Development, LLC Clinical Trial","affiliation":"Janssen Research & Development, LLC","role":"STUDY_DIRECTOR"}],"locations":[{"facility":"Plaza Neuroscience Clinic","status":"RECRUITING","city":"Fayetteville","state":"Arkansas","zip":"72703-3902","country":"United States","geoPoint":{"lat":36.06258,"lon":-94.15743}},{"facility":"Alta Bates Medical Center Cancer Center","status":"RECRUITING","city":"Berkeley","state":"California","zip":"94705","country":"United States","geoPoint":{"lat":37.87159,"lon":-122.27275}},{"facility":"Sutter Health - Eden Medical Center","status":"RECRUITING","city":"Castro Valley","state":"California","zip":"94546","country":"United States","geoPoint":{"lat":37.6941,"lon":-122.08635}},{"facility":"Glendale Adventist Medical Center","status":"RECRUITING","city":"Glendale","state":"California","zip":"91206","country":"United States","geoPoint":{"lat":34.14251,"lon":-118.25508}},{"facility":"UC Irvine Healthcare Center","status":"RECRUITING","city":"Irvine","state":"California","zip":"92697","country":"United States","geoPoint":{"lat":33.66946,"lon":-117.82311}},{"facility":"Long Beach Memorial","status":"RECRUITING","city":"Long Beach","state":"California","zip":"90806","country":"United States","geoPoint":{"lat":33.76696,"lon":-118.18923}},{"facility":"California Pacific Medical Center","status":"RECRUITING","city":"San Francisco","state":"California","zip":"94115","country":"United States","geoPoint":{"lat":37.77493,"lon":-122.41942}},{"facility":"Harbor Ucla Medical Center","status":"RECRUITING","city":"Torrance","state":"California","zip":"90502","country":"United States","geoPoint":{"lat":33.83585,"lon":-118.34063}},{"facility":"University of Colorado","status":"RECRUITING","city":"Aurora","state":"Colorado","zip":"80045","country":"United States","geoPoint":{"lat":39.72943,"lon":-104.83192}},{"facility":"Banner Health Research Institute","status":"RECRUITING","city":"Greeley","state":"Colorado","zip":"80631","country":"United States","geoPoint":{"lat":40.42331,"lon":-104.70913}},{"facility":"MedStar Health Research Institute","status":"RECRUITING","city":"Washington","state":"District of Columbia","zip":"20010","country":"United States","geoPoint":{"lat":38.89511,"lon":-77.03637}},{"facility":"Boca Raton Regional Hospital","status":"RECRUITING","city":"Boca Raton","state":"Florida","zip":"33486","country":"United States","geoPoint":{"lat":26.3669,"lon":-80.13033}},{"facility":"Advent Health Orlando","status":"RECRUITING","city":"Orlando","state":"Florida","zip":"32804-5521","country":"United States","geoPoint":{"lat":28.53834,"lon":-81.37924}},{"facility":"Sacred Heart Hospital","status":"RECRUITING","city":"Pensacola","state":"Florida","zip":"32504","country":"United States","geoPoint":{"lat":30.42131,"lon":-87.21691}},{"facility":"Sarasota Memorial Hospital","status":"RECRUITING","city":"Sarasota","state":"Florida","zip":"34239","country":"United States","geoPoint":{"lat":27.33643,"lon":-82.53065}},{"facility":"Theia Clincial Research, LLC","status":"RECRUITING","city":"Temple Terrace","state":"Florida","zip":"33617","country":"United States","geoPoint":{"lat":28.0353,"lon":-82.38926}},{"facility":"Saint Alphonsus Regional Medical Center- Cancer Care Center","status":"RECRUITING","city":"Boise","state":"Idaho","zip":"83706","country":"United States","geoPoint":{"lat":43.6135,"lon":-116.20345}},{"facility":"Rush University Medical Center","status":"RECRUITING","city":"Chicago","state":"Illinois","zip":"60612","country":"United States","geoPoint":{"lat":41.85003,"lon":-87.65005}},{"facility":"Insight Hospital and Medical Center Chicago","status":"RECRUITING","city":"Chicago","state":"Illinois","zip":"60616","country":"United States","geoPoint":{"lat":41.85003,"lon":-87.65005}},{"facility":"Northshore University Healthsystem","status":"RECRUITING","city":"Evanston","state":"Illinois","zip":"60201","country":"United States","geoPoint":{"lat":42.04114,"lon":-87.69006}},{"facility":"OSF Saint Francis Medical Center","status":"RECRUITING","city":"Peoria","state":"Illinois","zip":"61637","country":"United States","geoPoint":{"lat":40.69365,"lon":-89.58899}},{"facility":"Blessing Hospital","status":"RECRUITING","city":"Quincy","state":"Illinois","zip":"62301","country":"United States","geoPoint":{"lat":39.9356,"lon":-91.40987}},{"facility":"Javon Bea Hospital","status":"RECRUITING","city":"Rockford","state":"Illinois","zip":"61114","country":"United States","geoPoint":{"lat":42.27113,"lon":-89.094}},{"facility":"Prairie Education And Research Cooperative","status":"RECRUITING","city":"Springfield","state":"Illinois","zip":"62769","country":"United States","geoPoint":{"lat":39.80172,"lon":-89.64371}},{"facility":"Parkview Research Center","status":"RECRUITING","city":"Fort Wayne","state":"Indiana","zip":"46845","country":"United States","geoPoint":{"lat":41.1306,"lon":-85.12886}},{"facility":"IU Health Methodist Hospital","status":"RECRUITING","city":"Indianapolis","state":"Indiana","zip":"46202","country":"United States","geoPoint":{"lat":39.76838,"lon":-86.15804}},{"facility":"Community Hospital Cardiovascular Research","status":"RECRUITING","city":"Munster","state":"Indiana","zip":"46321","country":"United States","geoPoint":{"lat":41.56448,"lon":-87.51254}},{"facility":"University of Kansas Medical Center Research Institute","status":"RECRUITING","city":"Kansas City","state":"Kansas","zip":"66160","country":"United States","geoPoint":{"lat":39.11417,"lon":-94.62746}},{"facility":"Ascension via Christi Research","status":"RECRUITING","city":"Wichita","state":"Kansas","zip":"67214","country":"United States","geoPoint":{"lat":37.69224,"lon":-97.33754}},{"facility":"University of Kentucky Medical Center","status":"RECRUITING","city":"Lexington","state":"Kentucky","zip":"40506","country":"United States","geoPoint":{"lat":37.98869,"lon":-84.47772}},{"facility":"Pikeville Medical Center","status":"RECRUITING","city":"Pikeville","state":"Kentucky","zip":"41537","country":"United States","geoPoint":{"lat":37.47927,"lon":-82.51876}},{"facility":"Sinai Hospital of Baltimore","status":"RECRUITING","city":"Baltimore","state":"Maryland","zip":"21215","country":"United States","geoPoint":{"lat":39.29038,"lon":-76.61219}},{"facility":"Comprehensive Neurology Services","status":"RECRUITING","city":"Silver Spring","state":"Maryland","zip":"20902","country":"United States","geoPoint":{"lat":38.99067,"lon":-77.02609}},{"facility":"St John Hospital and Medical Center","status":"RECRUITING","city":"Detroit","state":"Michigan","zip":"48236","country":"United States","geoPoint":{"lat":42.33143,"lon":-83.04575}},{"facility":"Detroit Clinical Research Center","status":"RECRUITING","city":"Farmington Hills","state":"Michigan","zip":"48334","country":"United States","geoPoint":{"lat":42.48531,"lon":-83.37716}},{"facility":"Memorial Institute for Neurosciences and Multiple Sclerosis","status":"RECRUITING","city":"Owosso","state":"Michigan","zip":"48867","country":"United States","geoPoint":{"lat":42.9978,"lon":-84.17664}},{"facility":"Providence & Providence Park Hospital","status":"RECRUITING","city":"Southfield","state":"Michigan","zip":"48075","country":"United States","geoPoint":{"lat":42.47337,"lon":-83.22187}},{"facility":"Cox Health","status":"RECRUITING","city":"Springfield","state":"Missouri","zip":"65807","country":"United States","geoPoint":{"lat":37.21533,"lon":-93.29824}},{"facility":"University of Nebraska Medical Center","status":"RECRUITING","city":"Omaha","state":"Nebraska","zip":"68106","country":"United States","geoPoint":{"lat":41.25626,"lon":-95.94043}},{"facility":"Hackensack University Medical Center","status":"RECRUITING","city":"Hackensack","state":"New Jersey","zip":"07601-1915","country":"United States","geoPoint":{"lat":40.88593,"lon":-74.04347}},{"facility":"Jersey Shore University Medical Center","status":"RECRUITING","city":"Neptune","state":"New Jersey","zip":"07753","country":"United States","geoPoint":{"lat":40.20011,"lon":-74.02792}},{"facility":"Rutgers New Jersey Medical School","status":"RECRUITING","city":"Newark","state":"New Jersey","zip":"07103","country":"United States","geoPoint":{"lat":40.73566,"lon":-74.17237}},{"facility":"Capital Health Regional Medical Center","status":"RECRUITING","city":"Trenton","state":"New Jersey","zip":"08638","country":"United States","geoPoint":{"lat":40.21705,"lon":-74.74294}},{"facility":"Lincoln Hospital","status":"RECRUITING","city":"Bronx","state":"New York","zip":"10451","country":"United States","geoPoint":{"lat":40.84985,"lon":-73.86641}},{"facility":"Mercy Hospital","status":"RECRUITING","city":"Buffalo","state":"New York","zip":"14220","country":"United States","geoPoint":{"lat":42.88645,"lon":-78.87837}},{"facility":"United Health Services","status":"RECRUITING","city":"Johnson City","state":"New York","zip":"13790","country":"United States","geoPoint":{"lat":42.11563,"lon":-75.95881}},{"facility":"Lenox Hill Hospital","status":"RECRUITING","city":"Lake Success","state":"New York","zip":"11041","country":"United States","geoPoint":{"lat":40.77066,"lon":-73.71763}},{"facility":"Weill Cornell Medical College","status":"RECRUITING","city":"New York","state":"New York","zip":"10021","country":"United States","geoPoint":{"lat":40.71427,"lon":-74.00597}},{"facility":"Novant Health","status":"RECRUITING","city":"Charlotte","state":"North Carolina","zip":"28204","country":"United States","geoPoint":{"lat":35.22709,"lon":-80.84313}},{"facility":"Guilford Neurologic Associates","status":"RECRUITING","city":"Greensboro","state":"North Carolina","zip":"27405","country":"United States","geoPoint":{"lat":36.07264,"lon":-79.79198}},{"facility":"Summa Health System","status":"RECRUITING","city":"Akron","state":"Ohio","zip":"44304","country":"United States","geoPoint":{"lat":41.08144,"lon":-81.51901}},{"facility":"TriHealth Network","status":"RECRUITING","city":"Cincinnati","state":"Ohio","zip":"45220","country":"United States","geoPoint":{"lat":39.12713,"lon":-84.51435}},{"facility":"The Ohio State University","status":"RECRUITING","city":"Columbus","state":"Ohio","zip":"43210","country":"United States","geoPoint":{"lat":39.96118,"lon":-82.99879}},{"facility":"Ascension Medical Group - St. John Clinic Infectious Disease","status":"RECRUITING","city":"Tulsa","state":"Oklahoma","zip":"74104","country":"United States","geoPoint":{"lat":36.15398,"lon":-95.99277}},{"facility":"Sacred Heart Medical Center","status":"RECRUITING","city":"Eugene","state":"Oregon","zip":"97401","country":"United States","geoPoint":{"lat":44.05207,"lon":-123.08675}},{"facility":"Abington Memorial Hospital","status":"RECRUITING","city":"Abington","state":"Pennsylvania","zip":"19001","country":"United States","geoPoint":{"lat":40.12067,"lon":-75.11795}},{"facility":"Temple University Hospital","status":"RECRUITING","city":"Philadelphia","state":"Pennsylvania","zip":"19140","country":"United States","geoPoint":{"lat":39.95233,"lon":-75.16379}},{"facility":"Einstein Medical Center","status":"RECRUITING","city":"Philadelphia","state":"Pennsylvania","zip":"19141","country":"United States","geoPoint":{"lat":39.95233,"lon":-75.16379}},{"facility":"TriStar Skyline Medical Center","status":"RECRUITING","city":"Nashville","state":"Tennessee","zip":"37207","country":"United States","geoPoint":{"lat":36.16589,"lon":-86.78444}},{"facility":"Saint Thomas Health","status":"RECRUITING","city":"Nashville","state":"Tennessee","zip":"37215","country":"United States","geoPoint":{"lat":36.16589,"lon":-86.78444}},{"facility":"Seton Medical Center","status":"RECRUITING","city":"Austin","state":"Texas","zip":"78701","country":"United States","geoPoint":{"lat":30.26715,"lon":-97.74306}},{"facility":"Baylor Research Institute","status":"RECRUITING","city":"Dallas","state":"Texas","zip":"75204","country":"United States","geoPoint":{"lat":32.78306,"lon":-96.80667}},{"facility":"Neurology Consultants of Dallas, PA","status":"RECRUITING","city":"Dallas","state":"Texas","zip":"75231","country":"United States","geoPoint":{"lat":32.78306,"lon":-96.80667}},{"facility":"Houston Methodist Hospital","status":"RECRUITING","city":"Houston","state":"Texas","zip":"77030","country":"United States","geoPoint":{"lat":29.76328,"lon":-95.36327}},{"facility":"Houston Methodist Neurological Institute","status":"RECRUITING","city":"Houston","state":"Texas","zip":"77030","country":"United States","geoPoint":{"lat":29.76328,"lon":-95.36327}},{"facility":"Sentara Medical Group","status":"RECRUITING","city":"Norfolk","state":"Virginia","zip":"23502","country":"United States","geoPoint":{"lat":36.84681,"lon":-76.28522}},{"facility":"Winchester Medical Center","status":"RECRUITING","city":"Winchester","state":"Virginia","zip":"22601","country":"United States","geoPoint":{"lat":39.18566,"lon":-78.16333}},{"facility":"Providence Regional Medical Center Everett","status":"RECRUITING","city":"Everett","state":"Washington","zip":"98201","country":"United States","geoPoint":{"lat":47.97898,"lon":-122.20208}},{"facility":"Multiple Sclerosis Center at Evergreen","status":"RECRUITING","city":"Kirkland","state":"Washington","zip":"98034","country":"United States","geoPoint":{"lat":47.68149,"lon":-122.20874}},{"facility":"Mayo Clinic Health System","status":"RECRUITING","city":"Eau Claire","state":"Wisconsin","zip":"54703","country":"United States","geoPoint":{"lat":44.81135,"lon":-91.49849}},{"facility":"Mayo Clinic Health System","status":"RECRUITING","city":"La Crosse","state":"Wisconsin","zip":"54601","country":"United States","geoPoint":{"lat":43.80136,"lon":-91.23958}},{"facility":"Fundacion Favaloro","status":"RECRUITING","city":"Buenos Aires","zip":"1093","country":"Argentina","geoPoint":{"lat":-34.61315,"lon":-58.37723}},{"facility":"Sanatorio Finochietto","status":"RECRUITING","city":"Buenos Aires","zip":"C1187AAN","country":"Argentina","geoPoint":{"lat":-34.61315,"lon":-58.37723}},{"facility":"Sanatorio Los Arcos","status":"RECRUITING","city":"Buenos Aires","zip":"C1425FSD","country":"Argentina","geoPoint":{"lat":-34.61315,"lon":-58.37723}},{"facility":"Sanatorio Guemes","status":"RECRUITING","city":"Caba","zip":"C1180AAX","country":"Argentina","geoPoint":{"lat":-34.61315,"lon":-58.37723}},{"facility":"Sanatorio Mater Dei","status":"RECRUITING","city":"Ciudad Autonoma Buenos Aires","zip":"C1425DND","country":"Argentina","geoPoint":{"lat":-34.61315,"lon":-58.37723}},{"facility":"Clínica Adventista Belgrano","status":"RECRUITING","city":"Ciudad Autonoma Buenos Aires","zip":"C1430EGF","country":"Argentina","geoPoint":{"lat":-34.61315,"lon":-58.37723}},{"facility":"Hospital Britanico de Buenos Aires","status":"RECRUITING","city":"Ciudad Autonoma de Buenos Aires","zip":"C1280AEB","country":"Argentina","geoPoint":{"lat":-34.61315,"lon":-58.37723}},{"facility":"Clínica Colombo","status":"RECRUITING","city":"Cordoba","zip":"5000","country":"Argentina","geoPoint":{"lat":-31.4135,"lon":-64.18105}},{"facility":"Sanatorio Allende","status":"RECRUITING","city":"Cordoba","zip":"X5000JHQ","country":"Argentina","geoPoint":{"lat":-31.4135,"lon":-64.18105}},{"facility":"Hospital Municipal Dr Raul Alfredo Caccavo","status":"RECRUITING","city":"Coronel Suarez","zip":"B7540GHD","country":"Argentina","geoPoint":{"lat":-37.45467,"lon":-61.93343}},{"facility":"Clínica Chutro","status":"RECRUITING","city":"Córdoba","zip":"X5000EPU","country":"Argentina","geoPoint":{"lat":-31.4135,"lon":-64.18105}},{"facility":"Hospital Interzonal General de Agudos Eva Perón","status":"RECRUITING","city":"San Martin","zip":"B1650 NBN","country":"Argentina","geoPoint":{"lat":-33.08103,"lon":-68.46814}},{"facility":"Flinders Medical Centre","status":"RECRUITING","city":"Adelaide","zip":"5042","country":"Australia","geoPoint":{"lat":-34.92866,"lon":138.59863}},{"facility":"Monash Medical Centre","status":"RECRUITING","city":"Clayton","zip":"3168","country":"Australia","geoPoint":{"lat":-37.91667,"lon":145.11667}},{"facility":"Austin Health","status":"RECRUITING","city":"Heidelberg","zip":"3084","country":"Australia","geoPoint":{"lat":-37.75,"lon":145.06667}},{"facility":"Royal Brisbane and Women's Hospital","status":"RECRUITING","city":"Herston","zip":"4029","country":"Australia","geoPoint":{"lat":-27.44453,"lon":153.01852}},{"facility":"Liverpool Hospital","status":"RECRUITING","city":"Liverpool","zip":"2170","country":"Australia","geoPoint":{"lat":-33.90011,"lon":150.93328}},{"facility":"Fiona Stanley Hospital","status":"RECRUITING","city":"Murdoch","zip":"6150","country":"Australia","geoPoint":{"lat":-32.06987,"lon":115.83757}},{"facility":"Royal Melbourne Hospital","status":"RECRUITING","city":"Parkville","zip":"3050","country":"Australia","geoPoint":{"lat":-37.78333,"lon":144.95}},{"facility":"Gold Coast University Hospital","status":"RECRUITING","city":"Southport","zip":"4215","country":"Australia","geoPoint":{"lat":-27.96724,"lon":153.39796}},{"facility":"Latrobe Regional Hospital","status":"RECRUITING","city":"Traralgon","zip":"3844","country":"Australia","geoPoint":{"lat":-38.19528,"lon":146.5415}},{"facility":"Princess Alexandra Hospital","status":"RECRUITING","city":"Woolloongabba","zip":"4102","country":"Australia","geoPoint":{"lat":-27.48855,"lon":153.03655}},{"facility":"Klinikum Wels-Grieskirchen","status":"RECRUITING","city":"Wels","zip":"4600","country":"Austria","geoPoint":{"lat":48.16667,"lon":14.03333}},{"facility":"Centre Hospitalier EPICURA Ath-Baudour-Hornu","status":"RECRUITING","city":"Ath","zip":"7800","country":"Belgium","geoPoint":{"lat":50.62937,"lon":3.77801}},{"facility":"Imeldaziekenhuis","status":"RECRUITING","city":"Bonheiden","zip":"2820","country":"Belgium","geoPoint":{"lat":51.02261,"lon":4.54714}},{"facility":"C.H.U. Brugmann","status":"RECRUITING","city":"Bruxelles","zip":"1020","country":"Belgium","geoPoint":{"lat":50.85045,"lon":4.34878}},{"facility":"AZ Sint-Blasius","status":"RECRUITING","city":"Dendermonde","zip":"9200","country":"Belgium","geoPoint":{"lat":51.02869,"lon":4.10106}},{"facility":"UZA","status":"RECRUITING","city":"Edegem","zip":"2650","country":"Belgium","geoPoint":{"lat":51.15662,"lon":4.44504}},{"facility":"Az Groeninge","status":"RECRUITING","city":"Kortrijk","zip":"8500","country":"Belgium","geoPoint":{"lat":50.82803,"lon":3.26487}},{"facility":"Chu Tivoli","status":"RECRUITING","city":"La Louvière","zip":"7100","country":"Belgium","geoPoint":{"lat":50.48657,"lon":4.18785}},{"facility":"CHC MontLegia","status":"RECRUITING","city":"Liege","zip":"4000","country":"Belgium","geoPoint":{"lat":50.63373,"lon":5.56749}},{"facility":"Fundacao para o Desenvolvimento Medico Hospitalar (UNESP Botucatu)","status":"RECRUITING","city":"Botucatu","zip":"18618-686","country":"Brazil","geoPoint":{"lat":-22.88583,"lon":-48.445}},{"facility":"Sociedade Hospitalar Angelina Caron","status":"RECRUITING","city":"Campina Grande Do Sul","zip":"83430-000","country":"Brazil","geoPoint":{"lat":-25.30556,"lon":-49.05528}},{"facility":"Sociedade Literaria e Caritativa Santo Agostinho - Hospital Sao Jose","status":"RECRUITING","city":"Criciúma","zip":"88811-508","country":"Brazil","geoPoint":{"lat":-28.6775,"lon":-49.36972}},{"facility":"Associacao Hospital de Caridade Ijui","status":"RECRUITING","city":"Ijui","zip":"98700-000","country":"Brazil","geoPoint":{"lat":-28.38778,"lon":-53.91472}},{"facility":"Clinica Neurologica e Neurocirurgica de Joinville","status":"RECRUITING","city":"Joinville","zip":"89202-165","country":"Brazil","geoPoint":{"lat":-26.30444,"lon":-48.84556}},{"facility":"Instituto Mederi de Pesquisa e Saude","status":"RECRUITING","city":"Passo Fundo","zip":"99010-120","country":"Brazil","geoPoint":{"lat":-28.26278,"lon":-52.40667}},{"facility":"Associacao Hospitalar Moinhos de Vento","status":"RECRUITING","city":"Porto Alegre","zip":"90035-001","country":"Brazil","geoPoint":{"lat":-30.03306,"lon":-51.23}},{"facility":"Hospital das Clinicas de Porto Alegre","status":"RECRUITING","city":"Porto Alegre","zip":"90035-903","country":"Brazil","geoPoint":{"lat":-30.03306,"lon":-51.23}},{"facility":"Associacao Educadora Sao Carlos AESC Hospital Mae De Deus","status":"RECRUITING","city":"Porto Alegre","zip":"90470-340","country":"Brazil","geoPoint":{"lat":-30.03306,"lon":-51.23}},{"facility":"Hospital Alemao Oswaldo Cruz","status":"RECRUITING","city":"Sao Paulo","zip":"01323-903","country":"Brazil","geoPoint":{"lat":-23.5475,"lon":-46.63611}},{"facility":"Multiprofile Hospital for Active Treatment Puls","status":"RECRUITING","city":"Blagoevgrad","zip":"2700","country":"Bulgaria","geoPoint":{"lat":42.01667,"lon":23.1}},{"facility":"MHAT Sveti Ivan Rilski","status":"RECRUITING","city":"Gorna Oryahovitsa","zip":"5100","country":"Bulgaria","geoPoint":{"lat":43.12778,"lon":25.70164}},{"facility":"Multiprofile Hospital for Active Treatment - Haskovo","status":"RECRUITING","city":"Haskovo","zip":"6300","country":"Bulgaria","geoPoint":{"lat":41.93415,"lon":25.55557}},{"facility":"MHAT - Pazardzhik AD","status":"RECRUITING","city":"Pazardzhik","zip":"4400","country":"Bulgaria","geoPoint":{"lat":42.2,"lon":24.33333}},{"facility":"MHAT Avis - Medica OOD","status":"RECRUITING","city":"Pleven","zip":"5800","country":"Bulgaria","geoPoint":{"lat":43.41667,"lon":24.61667}},{"facility":"UMHAT 'Dr. Georgi Stranski', EAD","status":"RECRUITING","city":"Pleven","zip":"5800","country":"Bulgaria","geoPoint":{"lat":43.41667,"lon":24.61667}},{"facility":"UMHAT Kaspela","status":"RECRUITING","city":"Plovdiv","zip":"4001","country":"Bulgaria","geoPoint":{"lat":42.15,"lon":24.75}},{"facility":"UMHAT Sveti Georgi","status":"RECRUITING","city":"Plovdiv","zip":"4002","country":"Bulgaria","geoPoint":{"lat":42.15,"lon":24.75}},{"facility":"UMHAT 'Kanev' EAD","status":"RECRUITING","city":"Ruse","zip":"7002","country":"Bulgaria","geoPoint":{"lat":43.85639,"lon":25.97083}},{"facility":"Multiprofile Hospital for Active Treatment - Sofia","status":"RECRUITING","city":"Sofia","zip":"1142","country":"Bulgaria","geoPoint":{"lat":42.69751,"lon":23.32415}},{"facility":"Multiprofile Hospital For Active Treatment National Cardiology Hospital, Ead","status":"RECRUITING","city":"Sofia","zip":"1309","country":"Bulgaria","geoPoint":{"lat":42.69751,"lon":23.32415}},{"facility":"UMHATEM N I Pirogov","status":"RECRUITING","city":"Sofia","zip":"1606","country":"Bulgaria","geoPoint":{"lat":42.69751,"lon":23.32415}},{"facility":"Clinica Alemana de Santiago S.A.","status":"RECRUITING","city":"Santiago","country":"Chile","geoPoint":{"lat":-33.45694,"lon":-70.64827}},{"facility":"Hospital Clinico Vina del Mar","status":"RECRUITING","city":"Vina del Mar","zip":"2520612","country":"Chile","geoPoint":{"lat":-33.02457,"lon":-71.55183}},{"facility":"Beijing Tiantan Hospital, Capital Medical University","status":"RECRUITING","city":"Beijing","zip":"100070","country":"China","geoPoint":{"lat":39.9075,"lon":116.39723}},{"facility":"Jilin Province Peoples Hospital","status":"RECRUITING","city":"Changchun","zip":"130021","country":"China","geoPoint":{"lat":43.88,"lon":125.32278}},{"facility":"The First Hospital of Jilin University","status":"RECRUITING","city":"Changchun","zip":"130021","country":"China","geoPoint":{"lat":43.88,"lon":125.32278}},{"facility":"Hunan Province People's Hospital The First Affiliated Hospital of Hunan Normal University","status":"RECRUITING","city":"Changsha","zip":"410002","country":"China","geoPoint":{"lat":28.19874,"lon":112.97087}},{"facility":"The second Xiangya Hospital of Central South University","status":"RECRUITING","city":"Changsha","zip":"410011","country":"China","geoPoint":{"lat":28.19874,"lon":112.97087}},{"facility":"The First Affiliated Hospital of Chengdu Medical College","status":"RECRUITING","city":"Chengdu","zip":"610500","country":"China","geoPoint":{"lat":30.66667,"lon":104.06667}},{"facility":"Dazhou Central Hospital","status":"RECRUITING","city":"Dazhou","zip":"635000","country":"China","geoPoint":{"lat":31.21592,"lon":107.50092}},{"facility":"Dongguan People's Hospital","status":"RECRUITING","city":"Dongguan","zip":"523059","country":"China","geoPoint":{"lat":23.01797,"lon":113.74866}},{"facility":"Jiangxi Ganzhou People's Hospital","status":"RECRUITING","city":"Ganzhou","zip":"341000","country":"China"},{"facility":"Guangdong Provincial People's Hospital","status":"RECRUITING","city":"Guangzhou","zip":"510080","country":"China","geoPoint":{"lat":23.11667,"lon":113.25}},{"facility":"Guangzhou First Municipal People's Hospital","status":"RECRUITING","city":"Guangzhou","zip":"510180","country":"China","geoPoint":{"lat":23.11667,"lon":113.25}},{"facility":"Guangdong Second Provincial General Hospital","status":"RECRUITING","city":"Guangzhou","zip":"510317","country":"China","geoPoint":{"lat":23.11667,"lon":113.25}},{"facility":"Zhejiang Provincial People's Hospital","status":"RECRUITING","city":"Hangzhou","zip":"310000","country":"China","geoPoint":{"lat":30.29365,"lon":120.16142}},{"facility":"Zhejiang Hospital","status":"RECRUITING","city":"Hangzhou","zip":"310007","country":"China","geoPoint":{"lat":30.29365,"lon":120.16142}},{"facility":"Qilu Hospital of Shandong University","status":"RECRUITING","city":"Jinan","zip":"250012","country":"China","geoPoint":{"lat":36.66833,"lon":116.99722}},{"facility":"Jingdezhen No.1 People's Hospital","status":"RECRUITING","city":"Jingdezhen","zip":"333000","country":"China","geoPoint":{"lat":29.2947,"lon":117.20789}},{"facility":"Liaocheng People s Hospital","status":"RECRUITING","city":"Liaocheng","zip":"252000","country":"China","geoPoint":{"lat":36.45596,"lon":115.97766}},{"facility":"Linfen Central Hospital","status":"RECRUITING","city":"Linfen","zip":"041000","country":"China","geoPoint":{"lat":36.08889,"lon":111.51889}},{"facility":"Linyi City People Hospital","status":"RECRUITING","city":"Linyi","zip":"276000","country":"China","geoPoint":{"lat":35.06306,"lon":118.34278}},{"facility":"Liuzhou people's Hospital","status":"RECRUITING","city":"Liuzhou","zip":"545006","country":"China"},{"facility":"No. 2 Hospital Affiliated to Henan Technical University","status":"RECRUITING","city":"Luoyang","zip":"471000","country":"China","geoPoint":{"lat":34.68361,"lon":112.45361}},{"facility":"The First Affiliated Hospital of NanChang University","status":"RECRUITING","city":"Nanchang","zip":"330006","country":"China","geoPoint":{"lat":28.68396,"lon":115.85306}},{"facility":"Nanchong Central Hospital","status":"RECRUITING","city":"Nanchong","zip":"637000","country":"China","geoPoint":{"lat":30.79508,"lon":106.08473}},{"facility":"Nanyang Central Hospital","status":"RECRUITING","city":"Nanyang","zip":"473000","country":"China","geoPoint":{"lat":32.99472,"lon":112.53278}},{"facility":"Nanshi Hospital of Nanyang","status":"RECRUITING","city":"Nanyang","zip":"473065","country":"China","geoPoint":{"lat":32.99472,"lon":112.53278}},{"facility":"Pingxiang People's Hospital","status":"RECRUITING","city":"Pingxiang","zip":"337055","country":"China","geoPoint":{"lat":27.61672,"lon":113.85353}},{"facility":"The First Affiliated Hospital of Shantou University Medical","status":"RECRUITING","city":"Shantou","zip":"515041","country":"China","geoPoint":{"lat":23.36814,"lon":116.71479}},{"facility":"Tai An City Center Hospital","status":"RECRUITING","city":"Taian","zip":"271000","country":"China","geoPoint":{"lat":36.18528,"lon":117.12}},{"facility":"Tonghua Central Hospital","status":"RECRUITING","city":"Tonghua","country":"China","geoPoint":{"lat":41.71972,"lon":125.92639}},{"facility":"The Central Hospital of Wuhan","status":"RECRUITING","city":"Wuhan","zip":"430014","country":"China","geoPoint":{"lat":30.58333,"lon":114.26667}},{"facility":"The Affiliated Hospital of Xuzhou Medical College","status":"RECRUITING","city":"Xuzhou","country":"China","geoPoint":{"lat":34.18045,"lon":117.15707}},{"facility":"Yanbian University Hospital","status":"RECRUITING","city":"Yanji","zip":"133000","country":"China","geoPoint":{"lat":42.9075,"lon":129.50778}},{"facility":"Affiliated Hospital Of Guangdong Medical University","status":"RECRUITING","city":"Zhanjiang","zip":"524000","country":"China","geoPoint":{"lat":21.28145,"lon":110.34271}},{"facility":"Opca bolnica Bjelovar","status":"RECRUITING","city":"Bjelovar","zip":"43000","country":"Croatia","geoPoint":{"lat":45.89861,"lon":16.84889}},{"facility":"OB Varazdin","status":"RECRUITING","city":"Varazdin","zip":"42000","country":"Croatia","geoPoint":{"lat":46.30444,"lon":16.33778}},{"facility":"Fakultni nemocnice Brno","status":"RECRUITING","city":"Brno","zip":"636 00","country":"Czechia","geoPoint":{"lat":49.19522,"lon":16.60796}},{"facility":"Fakultni nemocnice u sv. Anny v Brne","status":"RECRUITING","city":"Brno","zip":"656 91","country":"Czechia","geoPoint":{"lat":49.19522,"lon":16.60796}},{"facility":"Nemocnice Jihlava","status":"RECRUITING","city":"Jihlava","zip":"586 33","country":"Czechia","geoPoint":{"lat":49.3961,"lon":15.59124}},{"facility":"Vitkovicka nemocnice a.s.","status":"RECRUITING","city":"Ostrava - Vitkovice","zip":"703 84","country":"Czechia","geoPoint":{"lat":49.83465,"lon":18.28204}},{"facility":"Fakultni nemocnice Ostrava","status":"RECRUITING","city":"Poruba","zip":"708 52","country":"Czechia"},{"facility":"Vseobecna fakultni nemocnice v Praze","status":"RECRUITING","city":"Praha 2","zip":"128 21","country":"Czechia","geoPoint":{"lat":50.08804,"lon":14.42076}},{"facility":"Fakultni nemocnice v Motole","status":"RECRUITING","city":"Praha 5","zip":"150 06","country":"Czechia","geoPoint":{"lat":50.08804,"lon":14.42076}},{"facility":"Nemocnice Pisek, a.s.","status":"RECRUITING","city":"Písek","zip":"397 23","country":"Czechia","geoPoint":{"lat":49.3088,"lon":14.1475}},{"facility":"Aarhus Universitetshospital","status":"RECRUITING","city":"Aarhus","zip":"8200","country":"Denmark","geoPoint":{"lat":56.15674,"lon":10.21076}},{"facility":"Rigshospitalet","status":"RECRUITING","city":"Glostrup","zip":"2600","country":"Denmark","geoPoint":{"lat":55.6666,"lon":12.40377}},{"facility":"Herning Regional Hospital","status":"RECRUITING","city":"Herning","zip":"7400","country":"Denmark","geoPoint":{"lat":56.13932,"lon":8.97378}},{"facility":"Ålborg Universitetshospital","status":"RECRUITING","city":"Ålborg","zip":"9100","country":"Denmark"},{"facility":"Helsinki University Hospital","status":"RECRUITING","city":"HUS","zip":"00029","country":"Finland"},{"facility":"Turun yliopistollinen keskussairaala","status":"RECRUITING","city":"Turku","zip":"20520","country":"Finland","geoPoint":{"lat":60.45148,"lon":22.26869}},{"facility":"Centre Hospitalier du Pays d'Aix Service de Neurologie","status":"RECRUITING","city":"Aix-en-Provence cedex 01","zip":"13616","country":"France","geoPoint":{"lat":43.5283,"lon":5.44973}},{"facility":"CHRU Besancon Hopital Jean Minjoz","status":"RECRUITING","city":"Besançon Cedex","zip":"25030","country":"France","geoPoint":{"lat":47.24878,"lon":6.01815}},{"facility":"Groupe Hospitalier Pellegrin CHU de Bordeaux","status":"RECRUITING","city":"Bordeaux Cedex","zip":"33076","country":"France","geoPoint":{"lat":44.84044,"lon":-0.5805}},{"facility":"CHU Bourg en Bresse","status":"RECRUITING","city":"Bourg en Bresse cedex","zip":"01012","country":"France","geoPoint":{"lat":46.20574,"lon":5.2258}},{"facility":"CHU de Brest - Hôpital de la Cavale Blanche","status":"RECRUITING","city":"Brest cedex","zip":"29609","country":"France","geoPoint":{"lat":48.3903,"lon":-4.48628}},{"facility":"Centre Hospitalier de Chartres","status":"RECRUITING","city":"Chartres cedex","zip":"28018","country":"France","geoPoint":{"lat":48.44685,"lon":1.48925}},{"facility":"CHU Clermont-Ferrand - Hopital Gabriel Montpied","status":"RECRUITING","city":"Clermont Ferrand Cedex","zip":"63003","country":"France","geoPoint":{"lat":45.77966,"lon":3.08628}},{"facility":"Hopital Raymond Poincare","status":"RECRUITING","city":"Garches","zip":"92380","country":"France","geoPoint":{"lat":48.84226,"lon":2.18232}},{"facility":"Centre Hospitalier","status":"RECRUITING","city":"La Roche sur Yon","zip":"85925","country":"France","geoPoint":{"lat":46.66667,"lon":-1.43333}},{"facility":"CHR Metz Thionville Hopital de Mercy","status":"RECRUITING","city":"Laquenexy","zip":"57530","country":"France","geoPoint":{"lat":49.07806,"lon":6.31098}},{"facility":"Hopital Roger Salengro - CHU Lille","status":"RECRUITING","city":"Lille Cedex","zip":"59037","country":"France","geoPoint":{"lat":50.63297,"lon":3.05858}},{"facility":"CHU de Limoges Hopital Dupuytren","status":"RECRUITING","city":"Limoges","zip":"87000","country":"France","geoPoint":{"lat":45.83153,"lon":1.25781}},{"facility":"Hopital de la Timone","status":"RECRUITING","city":"Marseille cedex 05","zip":"13385","country":"France","geoPoint":{"lat":43.29551,"lon":5.38958}},{"facility":"Centre Hospitalier Annecy Genevois","status":"RECRUITING","city":"Metz-Tessy","zip":"74374","country":"France","geoPoint":{"lat":45.93406,"lon":6.10826}},{"facility":"Hopital Gui de Chauliac","status":"RECRUITING","city":"Montpellier","zip":"34295","country":"France","geoPoint":{"lat":43.61092,"lon":3.87723}},{"facility":"Centre Hospitalier Universitaire de Nancy - Hôpital Central","status":"RECRUITING","city":"Nancy","zip":"54035","country":"France","geoPoint":{"lat":48.68439,"lon":6.18496}},{"facility":"Hopital Lariboisiere","status":"RECRUITING","city":"Paris","zip":"75010","country":"France","geoPoint":{"lat":48.85341,"lon":2.3488}},{"facility":"Hopital Saint Joseph","status":"RECRUITING","city":"Paris","zip":"75014","country":"France","geoPoint":{"lat":48.85341,"lon":2.3488}},{"facility":"Hôpital Bichat - Claude Bernard","status":"RECRUITING","city":"Paris","zip":"75018","country":"France","geoPoint":{"lat":48.85341,"lon":2.3488}},{"facility":"Fondation Adolphe de Rothschild Hospital","status":"RECRUITING","city":"Paris","zip":"75019","country":"France","geoPoint":{"lat":48.85341,"lon":2.3488}},{"facility":"CHU Poitiers - Hôpital la Milétrie","status":"RECRUITING","city":"Poitiers","zip":"86021","country":"France","geoPoint":{"lat":46.58333,"lon":0.33333}},{"facility":"CHU Rouen - Hopital Charles Nicolle","status":"RECRUITING","city":"Rouen Cedex","zip":"76031","country":"France","geoPoint":{"lat":49.44313,"lon":1.09932}},{"facility":"Universitätsklinikum Aachen","status":"RECRUITING","city":"Aachen","zip":"52074","country":"Germany","geoPoint":{"lat":50.77664,"lon":6.08342}},{"facility":"Klinikum Altenburger Land GmbH","status":"RECRUITING","city":"Altenburg","zip":"04600","country":"Germany","geoPoint":{"lat":50.98763,"lon":12.43684}},{"facility":"Charite Universitaetsmedizin Berlin - Campus Charite Mitte","status":"RECRUITING","city":"Berlin","zip":"10117","country":"Germany","geoPoint":{"lat":52.52437,"lon":13.41053}},{"facility":"EPIMED GmbH","status":"RECRUITING","city":"Berlin","zip":"12157","country":"Germany","geoPoint":{"lat":52.52437,"lon":13.41053}},{"facility":"Städtisches Klinikum Dresden","status":"RECRUITING","city":"Dresden","zip":"01067","country":"Germany","geoPoint":{"lat":51.05089,"lon":13.73832}},{"facility":"Universitaetsklinikum Essen","status":"RECRUITING","city":"Essen","zip":"45147","country":"Germany","geoPoint":{"lat":51.45657,"lon":7.01228}},{"facility":"Klinikum der Johann Wolfgang Goethe -Universitaet","status":"RECRUITING","city":"Frankfurt","zip":"60528","country":"Germany","geoPoint":{"lat":50.11552,"lon":8.68417}},{"facility":"Klinikum Frankfurt Hoechst GmbH","status":"RECRUITING","city":"Frankfurt","zip":"65929","country":"Germany","geoPoint":{"lat":50.11552,"lon":8.68417}},{"facility":"Klinikum Friedrichshafen GmbH","status":"RECRUITING","city":"Friedrichshafen","zip":"88048","country":"Germany","geoPoint":{"lat":47.65689,"lon":9.47554}},{"facility":"Klinikum Fulda - Tumorklinik - Germany","status":"RECRUITING","city":"Fulda","zip":"36043","country":"Germany","geoPoint":{"lat":50.55162,"lon":9.67518}},{"facility":"Universitaetsklinikum Giessen und Marburg GmbH","status":"RECRUITING","city":"Giessen","zip":"35392","country":"Germany","geoPoint":{"lat":50.58727,"lon":8.67554}},{"facility":"Asklepios Klinik Wandsbeck","status":"RECRUITING","city":"Hamburg","zip":"22043","country":"Germany","geoPoint":{"lat":53.57532,"lon":10.01534}},{"facility":"Asklepios Klinik Nord - Heidberg","status":"RECRUITING","city":"Hamburg","zip":"22417","country":"Germany","geoPoint":{"lat":53.57532,"lon":10.01534}},{"facility":"Asklepios Klinik Altona","status":"RECRUITING","city":"Hamburg","zip":"22763","country":"Germany","geoPoint":{"lat":53.57532,"lon":10.01534}},{"facility":"Universitaetsklinikum Leipzig","status":"RECRUITING","city":"Leipzig","zip":"04103","country":"Germany","geoPoint":{"lat":51.33962,"lon":12.37129}},{"facility":"Universitaetsklinikum Schleswig-Holstein - Campus Luebeck","status":"RECRUITING","city":"Luebeck","zip":"23538","country":"Germany","geoPoint":{"lat":53.86893,"lon":10.68729}},{"facility":"Staedtisches Klinikum Lueneburg","status":"RECRUITING","city":"Lueneburg","zip":"21339","country":"Germany","geoPoint":{"lat":53.2509,"lon":10.41409}},{"facility":"Johannes Wesling Klinikum Minden","status":"RECRUITING","city":"Minden","zip":"32429","country":"Germany","geoPoint":{"lat":52.28953,"lon":8.91455}},{"facility":"Universitaetsklinikum Muenster","status":"RECRUITING","city":"Muenster","zip":"48149","country":"Germany","geoPoint":{"lat":51.96236,"lon":7.62571}},{"facility":"Nordwest Krankenhaus Sanderbusch","status":"RECRUITING","city":"Sande","zip":"26452","country":"Germany","geoPoint":{"lat":53.50489,"lon":8.01418}},{"facility":"Helios Klinikum Schleswig","status":"RECRUITING","city":"Schleswig","zip":"24837","country":"Germany","geoPoint":{"lat":54.52156,"lon":9.5586}},{"facility":"Universitaetsklinikum Tuebingen","status":"RECRUITING","city":"Tuebingen","zip":"72074","country":"Germany","geoPoint":{"lat":48.52266,"lon":9.05222}},{"facility":"Universitaetsklinikum Ulm","status":"RECRUITING","city":"Ulm","zip":"89081","country":"Germany","geoPoint":{"lat":48.39841,"lon":9.99155}},{"facility":"The University of Hong Kong","status":"RECRUITING","city":"Hong Kong","country":"Hong Kong","geoPoint":{"lat":22.27832,"lon":114.17469}},{"facility":"The Chinese University of Hong Kong","status":"RECRUITING","city":"N.t.","country":"Hong Kong"},{"facility":"Orszagos Mentalis, Ideggyogyaszati es Idegsebeszeti Intezet","status":"RECRUITING","city":"Budapest","zip":"1145","country":"Hungary","geoPoint":{"lat":47.49801,"lon":19.03991}},{"facility":"Debreceni Egyetem Klinikai Központ,Infektológiai Klinika","status":"RECRUITING","city":"Debrecen","zip":"4031","country":"Hungary","geoPoint":{"lat":47.53333,"lon":21.63333}},{"facility":"Shree Krishna Hospital and Medical Research Center","status":"RECRUITING","city":"Anand","zip":"388325","country":"India","geoPoint":{"lat":22.55251,"lon":72.9552}},{"facility":"KLE's Dr. Prabhakar Kore Hospital & Medical Research Centre (MRC)","status":"RECRUITING","city":"Belgaum","zip":"590010","country":"India","geoPoint":{"lat":15.85212,"lon":74.50447}},{"facility":"SUM Ultimate Medicare","status":"RECRUITING","city":"Bhubaneswar","zip":"751003","country":"India","geoPoint":{"lat":20.27241,"lon":85.83385}},{"facility":"Apollo Hospitals","status":"RECRUITING","city":"Bhubaneswar","zip":"751005","country":"India","geoPoint":{"lat":20.27241,"lon":85.83385}},{"facility":"S.P.Medical College & AG of Hospitals","status":"RECRUITING","city":"Bikaner","zip":"334003","country":"India","geoPoint":{"lat":28.01762,"lon":73.31495}},{"facility":"SIMS Multispecialty Hospital","status":"RECRUITING","city":"Chennai","zip":"600026","country":"India","geoPoint":{"lat":13.08784,"lon":80.27847}},{"facility":"K.G. Hospital and PG Medical Institute","status":"RECRUITING","city":"Coimbatore","zip":"641018","country":"India","geoPoint":{"lat":11.00555,"lon":76.96612}},{"facility":"Paras Hospital","status":"RECRUITING","city":"Gurgaon","zip":"122002","country":"India","geoPoint":{"lat":28.4601,"lon":77.02635}},{"facility":"Institute of Neurological Sciences GNRC","status":"RECRUITING","city":"Guwahati","zip":"781006","country":"India","geoPoint":{"lat":26.1844,"lon":91.7458}},{"facility":"Yashoda Super Speciality Hospitals","status":"RECRUITING","city":"Hyderabad","zip":"500082","country":"India","geoPoint":{"lat":17.38405,"lon":78.45636}},{"facility":"Care Hospitals","status":"RECRUITING","city":"Hyderbad","zip":"500034","country":"India"},{"facility":"Institute of Neurosciences Kolkata","status":"RECRUITING","city":"Kolkata","zip":"700017","country":"India","geoPoint":{"lat":22.56263,"lon":88.36304}},{"facility":"Baby Memorial Hospital","status":"RECRUITING","city":"Kozhikode","zip":"673004","country":"India","geoPoint":{"lat":11.24802,"lon":75.7804}},{"facility":"Mallikatta Neurocentre","status":"RECRUITING","city":"Mangalore","zip":"575002","country":"India","geoPoint":{"lat":12.91723,"lon":74.85603}},{"facility":"JSS Hospital","status":"RECRUITING","city":"Mysuru","zip":"570004","country":"India","geoPoint":{"lat":12.29791,"lon":76.63925}},{"facility":"Chopda Medicare & Research Centre","status":"RECRUITING","city":"Nashik","zip":"422005","country":"India","geoPoint":{"lat":19.99727,"lon":73.79096}},{"facility":"Siddhi Hospital","status":"RECRUITING","city":"Nashik","zip":"422007","country":"India","geoPoint":{"lat":19.99727,"lon":73.79096}},{"facility":"BLK Super Specialty Hospital","status":"RECRUITING","city":"New Delhi","zip":"110005","country":"India","geoPoint":{"lat":28.63576,"lon":77.22445}},{"facility":"Sir Ganga Ram Hospital","status":"RECRUITING","city":"New Delhi","zip":"110060","country":"India","geoPoint":{"lat":28.63576,"lon":77.22445}},{"facility":"Ruby Hall Clinic","status":"RECRUITING","city":"Pune","zip":"411001","country":"India","geoPoint":{"lat":18.51957,"lon":73.85535}},{"facility":"Sahyadri Speciality Hospital","status":"RECRUITING","city":"Pune","zip":"411004","country":"India","geoPoint":{"lat":18.51957,"lon":73.85535}},{"facility":"Sahyadri Speciality Hospital","status":"RECRUITING","city":"Pune","zip":"411014","country":"India","geoPoint":{"lat":18.51957,"lon":73.85535}},{"facility":"Synergy Superspeciality Hospital","status":"RECRUITING","city":"Rajkot","zip":"360005","country":"India","geoPoint":{"lat":22.29161,"lon":70.79322}},{"facility":"Institute of Neuroscience","status":"RECRUITING","city":"Surat","zip":"395001","country":"India","geoPoint":{"lat":21.19594,"lon":72.83023}},{"facility":"Kiran Super Multispecialty Hospital","status":"RECRUITING","city":"Surat","zip":"395004","country":"India","geoPoint":{"lat":21.19594,"lon":72.83023}},{"facility":"Bhaktivedanta Hospital & Research Institute","status":"RECRUITING","city":"Thane","zip":"411107","country":"India","geoPoint":{"lat":19.19704,"lon":72.96355}},{"facility":"City Neurology Centre","status":"RECRUITING","city":"Varanasi","zip":"221002","country":"India","geoPoint":{"lat":25.31668,"lon":83.01041}},{"facility":"Galaxy Life Care Services Pvt. Ltd","status":"RECRUITING","city":"Varanasi","zip":"221010","country":"India","geoPoint":{"lat":25.31668,"lon":83.01041}},{"facility":"Soroka University Medical Center","status":"RECRUITING","city":"Beer sheva","zip":"151","country":"Israel","geoPoint":{"lat":31.25181,"lon":34.7913}},{"facility":"Rambam Health Care Campus","status":"RECRUITING","city":"Haifa","zip":"31096","country":"Israel","geoPoint":{"lat":32.81841,"lon":34.9885}},{"facility":"Carmel Medical Center","status":"RECRUITING","city":"Haifa","zip":"3436212","country":"Israel","geoPoint":{"lat":32.81841,"lon":34.9885}},{"facility":"Chaim Sheba Medical Center","status":"RECRUITING","city":"Ramat Gan","zip":"52621","country":"Israel","geoPoint":{"lat":32.08227,"lon":34.81065}},{"facility":"Tel Aviv Sourasky Medical Center","status":"RECRUITING","city":"Tel Aviv","zip":"64239","country":"Israel","geoPoint":{"lat":32.08088,"lon":34.78057}},{"facility":"Azienda Socio Sanitaria Territoriale degli Spedali Civili di Brescia Presidio Spedali Civili","status":"RECRUITING","city":"Brescia","zip":"25123","country":"Italy","geoPoint":{"lat":45.53558,"lon":10.21472}},{"facility":"Azienda Ospedaliera Istituti Ospitalieri di Cremona","status":"RECRUITING","city":"Cremona","zip":"26100","country":"Italy","geoPoint":{"lat":45.13325,"lon":10.02129}},{"facility":"Nuovo Ospedale San Giovanni Battista","status":"RECRUITING","city":"Foligno","zip":"06034","country":"Italy","geoPoint":{"lat":42.95488,"lon":12.70268}},{"facility":"Ospedale Policlinico San Martino IRCCS","status":"RECRUITING","city":"Genova","zip":"16132","country":"Italy","geoPoint":{"lat":44.40478,"lon":8.94438}},{"facility":"Ospedale San Salvatore","status":"RECRUITING","city":"L'Aquila","zip":"67100","country":"Italy","geoPoint":{"lat":42.35055,"lon":13.39954}},{"facility":"Azienda Ospedaliera della Provincia di Lecco_Presidio Ospedaliero 'A. Manzoni' - S.C.di Cardiologia","status":"RECRUITING","city":"Lecco","zip":"23900","country":"Italy","geoPoint":{"lat":45.85589,"lon":9.39704}},{"facility":"Ospedale Apuane","status":"RECRUITING","city":"Massa","zip":"54100","country":"Italy","geoPoint":{"lat":44.03541,"lon":10.13927}},{"facility":"Ospedale San Raffaele","status":"RECRUITING","city":"Milano","zip":"20132","country":"Italy","geoPoint":{"lat":45.46427,"lon":9.18951}},{"facility":"Fondazione Istituto Neurologico Casimiro Mondino","status":"RECRUITING","city":"Pavia","zip":"27100","country":"Italy","geoPoint":{"lat":45.19205,"lon":9.15917}},{"facility":"Azienda Unita Sanitaria Locale Umbria 1 Ospedale di Citta di Castello","status":"RECRUITING","city":"Perugia","zip":"06012","country":"Italy","geoPoint":{"lat":43.1122,"lon":12.38878}},{"facility":"Azienda Ospedaliera Ospedale Santa Corona","status":"RECRUITING","city":"Pietra Ligure","zip":"17027","country":"Italy","geoPoint":{"lat":44.1492,"lon":8.28206}},{"facility":"Azienda Ospedaliero Universitaria Pisana","status":"RECRUITING","city":"Pisa","zip":"56126","country":"Italy","geoPoint":{"lat":43.70853,"lon":10.4036}},{"facility":"Arcispedale S Maria Nuova (Civic Hospital)","status":"RECRUITING","city":"Reggio Emilia","zip":"42100","country":"Italy","geoPoint":{"lat":44.69825,"lon":10.63125}},{"facility":"Azienda Ospedaliera San Camillo-Forlanini","status":"RECRUITING","city":"Roma","zip":"00152","country":"Italy","geoPoint":{"lat":41.89193,"lon":12.51133}},{"facility":"Policlinico Umberto I","status":"RECRUITING","city":"Roma","zip":"00161","country":"Italy","geoPoint":{"lat":41.89193,"lon":12.51133}},{"facility":"Policlinico Universitario Agostino Gemelli","status":"RECRUITING","city":"Roma","zip":"00168","country":"Italy","geoPoint":{"lat":41.89193,"lon":12.51133}},{"facility":"Azienda sanitaria universitaria Giuliano Isontina ASU GI","status":"RECRUITING","city":"Trieste","zip":"34149","country":"Italy","geoPoint":{"lat":45.64953,"lon":13.77679}},{"facility":"ASUI Santa Maria della Misericordia di Udine","status":"RECRUITING","city":"Udine","zip":"33100","country":"Italy","geoPoint":{"lat":46.0693,"lon":13.23715}},{"facility":"Azienda Ospedaliera Universitaria Integrata Verona","status":"RECRUITING","city":"Verona","zip":"37126","country":"Italy","geoPoint":{"lat":45.4299,"lon":10.98444}},{"facility":"Toyota Memorial Hospital","status":"RECRUITING","city":"Aichi","zip":"471-8513","country":"Japan","geoPoint":{"lat":32.51879,"lon":130.62158}},{"facility":"Funabashi Munitiple Medical Center","status":"RECRUITING","city":"Chiba","zip":"273-8588","country":"Japan","geoPoint":{"lat":35.6,"lon":140.11667}},{"facility":"Fukuoka University Chikushi Hospital","status":"RECRUITING","city":"Chikushino-shi","zip":"818-8502","country":"Japan","geoPoint":{"lat":33.49631,"lon":130.5156}},{"facility":"Fukuoka Neurosurgical Hospital","status":"RECRUITING","city":"Fukuoka-shi","zip":"811-1313","country":"Japan","geoPoint":{"lat":33.6,"lon":130.41667}},{"facility":"Japanese Red Cross Fukuoka Hospital","status":"RECRUITING","city":"Fukuoka-shi","zip":"815-8555","country":"Japan","geoPoint":{"lat":33.6,"lon":130.41667}},{"facility":"Steel Memorial Yawata Hospital","status":"RECRUITING","city":"Fukuoka","zip":"805-0050","country":"Japan","geoPoint":{"lat":33.6,"lon":130.41667}},{"facility":"Saiseikai Fukuoka General Hospital","status":"RECRUITING","city":"Fukuoka","zip":"810-0001","country":"Japan","geoPoint":{"lat":33.6,"lon":130.41667}},{"facility":"National Hospital Organization Kyushu Medical Center","status":"RECRUITING","city":"Fukuoka","zip":"810-8563","country":"Japan","geoPoint":{"lat":33.6,"lon":130.41667}},{"facility":"Takayama Red Cross Hospital","status":"RECRUITING","city":"Gifu","zip":"506-0025","country":"Japan","geoPoint":{"lat":35.42291,"lon":136.76039}},{"facility":"Tokai University Hachioji Hospital","status":"RECRUITING","city":"Hachioji","zip":"192-0032","country":"Japan","geoPoint":{"lat":35.65583,"lon":139.32389}},{"facility":"Seirei Hamamatsu General Hospital","status":"RECRUITING","city":"Hamamatsu","zip":"430-8558","country":"Japan","geoPoint":{"lat":34.7,"lon":137.73333}},{"facility":"JA Hiroshima General Hospital","status":"RECRUITING","city":"Hatsukaichi","zip":"738-8503","country":"Japan","geoPoint":{"lat":34.35,"lon":132.33333}},{"facility":"Saitama Medical University International Medical Center","status":"RECRUITING","city":"Hidaka","zip":"350-1298","country":"Japan"},{"facility":"NHO Higashihiroshima Medical Center","status":"RECRUITING","city":"Higashihiroshima-shi","zip":"739-0041","country":"Japan","geoPoint":{"lat":34.40861,"lon":132.73682}},{"facility":"Hyogo Prefectural Harima-Himeji General Medical Center","status":"RECRUITING","city":"Himeji-shi","zip":"670-8560","country":"Japan","geoPoint":{"lat":34.81667,"lon":134.7}},{"facility":"Hiroshima City Asa Citizens Hospital","status":"RECRUITING","city":"Hiroshima-shi","zip":"731-0293","country":"Japan","geoPoint":{"lat":34.4,"lon":132.45}},{"facility":"Hiroshima Prefectural Hospital","status":"RECRUITING","city":"Hiroshima-shi","zip":"734-8530","country":"Japan","geoPoint":{"lat":34.4,"lon":132.45}},{"facility":"Hiroshima City Hiroshima Citizens Hospital","status":"RECRUITING","city":"Hiroshima","zip":"730-8518","country":"Japan","geoPoint":{"lat":34.4,"lon":132.45}},{"facility":"Ina Central Hospital","status":"RECRUITING","city":"Ina-shi","zip":"396-8555","country":"Japan","geoPoint":{"lat":35.82756,"lon":137.95378}},{"facility":"National Hospital Organization Kanazawa Medical Center","status":"RECRUITING","city":"Ishikawa","zip":"920-8650","country":"Japan","geoPoint":{"lat":26.42333,"lon":127.82139}},{"facility":"National Hospital Organization Kagoshima Medical Center","status":"RECRUITING","city":"Kagoshima","zip":"892-0853","country":"Japan","geoPoint":{"lat":31.56667,"lon":130.55}},{"facility":"Fukuoka Tokushukai Hospital","status":"RECRUITING","city":"Kasuga-shi","zip":"816-0864","country":"Japan"},{"facility":"Nagoya Tokushukai General Hospital","status":"RECRUITING","city":"Kasugai-shi","zip":"487-0016","country":"Japan","geoPoint":{"lat":35.24762,"lon":136.97229}},{"facility":"St.Marianna University Hospital","status":"RECRUITING","city":"Kawasaki City","zip":"216-8511","country":"Japan","geoPoint":{"lat":35.52056,"lon":139.71722}},{"facility":"Kokura Memorial Hospital","status":"RECRUITING","city":"Kitakyushu-shi","zip":"802-8555","country":"Japan","geoPoint":{"lat":33.85181,"lon":130.85034}},{"facility":"Hospital of the University of Occupational and Environmental Health","status":"RECRUITING","city":"Kitakyushu-shi","zip":"807-8556","country":"Japan","geoPoint":{"lat":33.85181,"lon":130.85034}},{"facility":"Kobe City Medical Center General Hospital","status":"RECRUITING","city":"Kobe-shi","zip":"650-0047","country":"Japan","geoPoint":{"lat":34.6913,"lon":135.183}},{"facility":"National Hospital Organization Fukuoka Higashi Medical Center","status":"RECRUITING","city":"Koga","zip":"811-3195","country":"Japan","geoPoint":{"lat":33.73333,"lon":130.46667}},{"facility":"Asama Nanroku Komoro Medical Center","status":"RECRUITING","city":"Komoro-shi","zip":"384-8588","country":"Japan","geoPoint":{"lat":36.31667,"lon":138.43333}},{"facility":"Japanese Red Cross Kumamoto Hospital","status":"RECRUITING","city":"Kumamoto","zip":"861-8520","country":"Japan","geoPoint":{"lat":32.80589,"lon":130.69182}},{"facility":"JOHAS Chugoku Rosai Hospital","status":"RECRUITING","city":"Kure-shi","zip":"737-0193","country":"Japan","geoPoint":{"lat":34.23222,"lon":132.56658}},{"facility":"Tenjinkai Shin Koga Clinic","status":"RECRUITING","city":"Kurume-shi","zip":"830-8577","country":"Japan","geoPoint":{"lat":33.31667,"lon":130.51667}},{"facility":"Koseikai Takeda Hospital","status":"RECRUITING","city":"Kyoto-shi","zip":"600-8558","country":"Japan","geoPoint":{"lat":35.02107,"lon":135.75385}},{"facility":"Maebashi Red Cross Hospital","status":"RECRUITING","city":"Maebashi","zip":"371-0811","country":"Japan","geoPoint":{"lat":36.4,"lon":139.08333}},{"facility":"Tokushukai Matsubara Tokushukai Hospital","status":"RECRUITING","city":"Matsubara-shi","zip":"580-0032","country":"Japan","geoPoint":{"lat":34.56667,"lon":135.55}},{"facility":"Nagasaki University Hospital","status":"RECRUITING","city":"Nagasaki-shi","zip":"852-8501","country":"Japan","geoPoint":{"lat":32.75,"lon":129.88333}},{"facility":"NHO Nagoya Medical Center","status":"RECRUITING","city":"Nagoya-shi","zip":"460-0001","country":"Japan","geoPoint":{"lat":35.18147,"lon":136.90641}},{"facility":"Hyogo Medical University Hospital","status":"RECRUITING","city":"Nishinomiya-shi","zip":"663-8501","country":"Japan","geoPoint":{"lat":34.71562,"lon":135.33199}},{"facility":"Omuta City Hospital","status":"RECRUITING","city":"Omuta-Shi","zip":"836-0861","country":"Japan","geoPoint":{"lat":33.03333,"lon":130.45}},{"facility":"National Hospital Organization Osaka National Hospital","status":"RECRUITING","city":"Osaka-shi","zip":"540-0006","country":"Japan","geoPoint":{"lat":34.69374,"lon":135.50218}},{"facility":"Osaka General Medical Center","status":"RECRUITING","city":"Osaka-shi","zip":"558-8558","country":"Japan","geoPoint":{"lat":34.69374,"lon":135.50218}},{"facility":"Osaka Metropolitan University Hospital","status":"RECRUITING","city":"Osaka","zip":"545-8586","country":"Japan","geoPoint":{"lat":34.69374,"lon":135.50218}},{"facility":"Osaka University Hospital","status":"RECRUITING","city":"Osaka","zip":"565-0871","country":"Japan","geoPoint":{"lat":34.69374,"lon":135.50218}},{"facility":"Rinku General Medical Center","status":"RECRUITING","city":"Osaka","zip":"598-8577","country":"Japan","geoPoint":{"lat":34.69374,"lon":135.50218}},{"facility":"Makita General Hospital","status":"RECRUITING","city":"Ota-ku","zip":"144-8501","country":"Japan","geoPoint":{"lat":36.3,"lon":139.36667}},{"facility":"Saga University Hospital","status":"RECRUITING","city":"Saga","zip":"849-8501","country":"Japan","geoPoint":{"lat":33.23333,"lon":130.3}},{"facility":"Kyoyukai Sainokuni Higashiomiya Medical Center","status":"RECRUITING","city":"Saitama-shi","zip":"331-8577","country":"Japan","geoPoint":{"lat":35.90807,"lon":139.65657}},{"facility":"Ijinkai Nakamura Memorial Hospital","status":"RECRUITING","city":"Sapporo-shi","zip":"060-8570","country":"Japan","geoPoint":{"lat":43.06667,"lon":141.35}},{"facility":"Sendai City Hospital","status":"RECRUITING","city":"Sendai-shi","zip":"982-8502","country":"Japan","geoPoint":{"lat":38.26667,"lon":140.86667}},{"facility":"Konankai Konan Hospital","status":"RECRUITING","city":"Sendai-shi","zip":"982-8523","country":"Japan","geoPoint":{"lat":38.26667,"lon":140.86667}},{"facility":"Shimonoseki City Hospital","status":"RECRUITING","city":"Shimonoseki-shi","zip":"7500061","country":"Japan","geoPoint":{"lat":33.95001,"lon":130.94999}},{"facility":"Kanmon Medical Center","status":"RECRUITING","city":"Shimonoseki-shi","zip":"752-8510","country":"Japan","geoPoint":{"lat":33.95001,"lon":130.94999}},{"facility":"Jichi Medical University Hospital","status":"RECRUITING","city":"Shimotsuke","zip":"329-0498","country":"Japan","geoPoint":{"lat":36.41323,"lon":139.86622}},{"facility":"Shizuoka City Shizuoka Hospital","status":"RECRUITING","city":"Shizuoka Aoi-ku","zip":"420-8630","country":"Japan"},{"facility":"National Cerebral and Cardiovascular Center","status":"RECRUITING","city":"Suita-Shi","zip":"564-8565","country":"Japan","geoPoint":{"lat":34.76143,"lon":135.51567}},{"facility":"Nippon Medical School Hospital","status":"RECRUITING","city":"Tokyo","zip":"113-8603","country":"Japan","geoPoint":{"lat":35.6895,"lon":139.69171}},{"facility":"NTT Medical Center Tokyo","status":"RECRUITING","city":"Tokyo","zip":"141-8625","country":"Japan","geoPoint":{"lat":35.6895,"lon":139.69171}},{"facility":"Nihon University Itabashi Hospital","status":"RECRUITING","city":"Tokyo","zip":"173-8610","country":"Japan","geoPoint":{"lat":35.6895,"lon":139.69171}},{"facility":"Tokyo Medical University Hachioji Medical Center","status":"RECRUITING","city":"Tokyo","zip":"193-0998","country":"Japan","geoPoint":{"lat":35.6895,"lon":139.69171}},{"facility":"Kyorin University Hospital","status":"RECRUITING","city":"Tokyo","zip":"600-8492","country":"Japan","geoPoint":{"lat":35.6895,"lon":139.69171}},{"facility":"Fujita Health University Hospital","status":"RECRUITING","city":"Toyoake","zip":"470-1192","country":"Japan","geoPoint":{"lat":35.038,"lon":136.99931}},{"facility":"NHO Toyohashi Medical Center","status":"RECRUITING","city":"Toyohasi-shi","zip":"440-8510","country":"Japan"},{"facility":"Juntendo University Hospital Urayasu","status":"RECRUITING","city":"Urayasu-shi","zip":"279-0021","country":"Japan","geoPoint":{"lat":35.67054,"lon":139.88862}},{"facility":"Uwajima City Hospital","status":"RECRUITING","city":"Uwajima-shi","zip":"798-8510","country":"Japan","geoPoint":{"lat":33.22375,"lon":132.56001}},{"facility":"Sanyudo Hospital","status":"RECRUITING","city":"Yonezawa-shi","zip":"992-0045","country":"Japan","geoPoint":{"lat":37.91,"lon":140.11667}},{"facility":"Hallym University Sacred Heart Hospital","status":"RECRUITING","city":"Anyang-si","zip":"431-796","country":"Korea, Republic of","geoPoint":{"lat":37.3925,"lon":126.92694}},{"facility":"Pusan National University Hospital","status":"RECRUITING","city":"Busan","zip":"49241","country":"Korea, Republic of","geoPoint":{"lat":35.10278,"lon":129.04028}},{"facility":"Dong-A University Hospital","status":"RECRUITING","city":"Busan","zip":"602-812","country":"Korea, Republic of","geoPoint":{"lat":35.10278,"lon":129.04028}},{"facility":"Kyungpook National University Hospital","status":"RECRUITING","city":"Daegu","zip":"41944","country":"Korea, Republic of","geoPoint":{"lat":35.87028,"lon":128.59111}},{"facility":"Yeungnam University Hospital","status":"RECRUITING","city":"Daegu","zip":"42415","country":"Korea, Republic of","geoPoint":{"lat":35.87028,"lon":128.59111}},{"facility":"Keimyung University Dongsan Hospital","status":"RECRUITING","city":"Daegu","zip":"42601","country":"Korea, Republic of","geoPoint":{"lat":35.87028,"lon":128.59111}},{"facility":"Inje University Ilsan Paik Hospital","status":"RECRUITING","city":"Goyang-si","zip":"10380","country":"Korea, Republic of","geoPoint":{"lat":37.65639,"lon":126.835}},{"facility":"Chosun university hospital","status":"RECRUITING","city":"Gwangju","zip":"61453","country":"Korea, Republic of","geoPoint":{"lat":35.15472,"lon":126.91556}},{"facility":"Chonnam National University Hospital","status":"RECRUITING","city":"Gwangju","zip":"61469","country":"Korea, Republic of","geoPoint":{"lat":35.15472,"lon":126.91556}},{"facility":"Seoul National University Bundang Hospital","status":"RECRUITING","city":"Gyeonggi-do","zip":"13620","country":"Korea, Republic of","geoPoint":{"lat":37.58944,"lon":126.76917}},{"facility":"Gachon University Gil Medical Center","status":"RECRUITING","city":"Incheon","zip":"21565","country":"Korea, Republic of","geoPoint":{"lat":37.45646,"lon":126.70515}},{"facility":"Inha University Hospital","status":"RECRUITING","city":"Incheon","zip":"22322","country":"Korea, Republic of","geoPoint":{"lat":37.45646,"lon":126.70515}},{"facility":"Catholic Kwandong University International ST Marys Hospital","status":"RECRUITING","city":"Incheon","zip":"22711","country":"Korea, Republic of","geoPoint":{"lat":37.45646,"lon":126.70515}},{"facility":"Jeju National University Hospital","status":"RECRUITING","city":"Jeju Special","zip":"63241","country":"Korea, Republic of"},{"facility":"Chungnam National University Hospital","status":"RECRUITING","city":"Sejong-si","zip":"30099","country":"Korea, Republic of"},{"facility":"Nowon Eulji Medical Center, Eulji University","status":"RECRUITING","city":"Seoul","zip":"01830","country":"Korea, Republic of","geoPoint":{"lat":37.566,"lon":126.9784}},{"facility":"Korea University Anam Hospital","status":"RECRUITING","city":"Seoul","zip":"02841","country":"Korea, Republic of","geoPoint":{"lat":37.566,"lon":126.9784}},{"facility":"Severance Hospital Yonsei University Health System","status":"RECRUITING","city":"Seoul","zip":"03722","country":"Korea, Republic of","geoPoint":{"lat":37.566,"lon":126.9784}},{"facility":"Hanyang University Medical Center","status":"RECRUITING","city":"Seoul","zip":"04763","country":"Korea, Republic of","geoPoint":{"lat":37.566,"lon":126.9784}},{"facility":"Asan Medical Center","status":"RECRUITING","city":"Seoul","zip":"05505","country":"Korea, Republic of","geoPoint":{"lat":37.566,"lon":126.9784}},{"facility":"Samsung Medical Center","status":"RECRUITING","city":"Seoul","zip":"06351","country":"Korea, Republic of","geoPoint":{"lat":37.566,"lon":126.9784}},{"facility":"The Catholic University of Korea Seoul St. Mary's Hospital","status":"RECRUITING","city":"Seoul","zip":"06591","country":"Korea, Republic of","geoPoint":{"lat":37.566,"lon":126.9784}},{"facility":"Seoul National University Boramae Hospital","status":"RECRUITING","city":"Seoul","zip":"07061","country":"Korea, Republic of","geoPoint":{"lat":37.566,"lon":126.9784}},{"facility":"Ewha Woman's University Seoul Hospital","status":"RECRUITING","city":"Seoul","zip":"07804","country":"Korea, Republic of","geoPoint":{"lat":37.566,"lon":126.9784}},{"facility":"Soon Chun Hyang Univ.Hospital","status":"RECRUITING","city":"Seoul","zip":"140-743","country":"Korea, Republic of","geoPoint":{"lat":37.566,"lon":126.9784}},{"facility":"Seoul National University Hospital","status":"RECRUITING","city":"Seoul","zip":"3080","country":"Korea, Republic of","geoPoint":{"lat":37.566,"lon":126.9784}},{"facility":"Korea University Guro Hospital","status":"RECRUITING","city":"Seoul","zip":"8308","country":"Korea, Republic of","geoPoint":{"lat":37.566,"lon":126.9784}},{"facility":"Uijeongbu Eulji Medical Center Eulji University","status":"RECRUITING","city":"Uijeongbu-si","zip":"11759","country":"Korea, Republic of","geoPoint":{"lat":37.7415,"lon":127.0474}},{"facility":"Ulsan University Hospital","status":"RECRUITING","city":"Ulsan","zip":"44033","country":"Korea, Republic of","geoPoint":{"lat":35.53722,"lon":129.31667}},{"facility":"Yongin Severance Hospital","status":"RECRUITING","city":"Yongin-si","zip":"16995","country":"Korea, Republic of","geoPoint":{"lat":37.29686,"lon":127.08042}},{"facility":"Vilnius University Hospital Santariskiu Clinic, Public Institution","status":"RECRUITING","city":"Vilnius","zip":"LT-08661","country":"Lithuania","geoPoint":{"lat":54.68916,"lon":25.2798}},{"facility":"Hospital Tengku Ampuan Rahimah","status":"RECRUITING","city":"Klang","zip":"41200","country":"Malaysia","geoPoint":{"lat":3.03333,"lon":101.45}},{"facility":"Hospital University Sains Malaysia","status":"RECRUITING","city":"Kota Bharu","zip":"15200","country":"Malaysia","geoPoint":{"lat":6.13328,"lon":102.2386}},{"facility":"Hospital Seberang Jaya","status":"RECRUITING","city":"Seberang Jaya","zip":"13700","country":"Malaysia","geoPoint":{"lat":5.39085,"lon":100.41044}},{"facility":"Hospital Sungai Buloh","status":"RECRUITING","city":"Sungai Buloh","zip":"47000","country":"Malaysia","geoPoint":{"lat":3.2,"lon":101.58333}},{"facility":"Hospital Cardiologica Aguascalientes","status":"RECRUITING","city":"Aguascalientes","zip":"20230","country":"Mexico","geoPoint":{"lat":21.88234,"lon":-102.28259}},{"facility":"Centro de Investigacion Clinica Chapultepec S.A. de C.V.","status":"RECRUITING","city":"Morelia","zip":"58260","country":"Mexico","geoPoint":{"lat":19.70078,"lon":-101.18443}},{"facility":"Amphia Ziekenhuis","status":"RECRUITING","city":"Breda","zip":"4818 CK","country":"Netherlands","geoPoint":{"lat":51.58656,"lon":4.77596}},{"facility":"Bernhoven Uden","status":"RECRUITING","city":"Uden","zip":"5406 PT","country":"Netherlands","geoPoint":{"lat":51.66083,"lon":5.61944}},{"facility":"Auckland City Hospital","status":"RECRUITING","city":"Auckland","zip":"1023","country":"New Zealand","geoPoint":{"lat":-36.84853,"lon":174.76349}},{"facility":"Hawkes Bay Hospital","status":"RECRUITING","city":"Hastings","zip":"4120","country":"New Zealand","geoPoint":{"lat":-39.6381,"lon":176.84918}},{"facility":"Middlemore Hospital","status":"RECRUITING","city":"Otahuhu","zip":"2025","country":"New Zealand","geoPoint":{"lat":-36.9382,"lon":174.84019}},{"facility":"Rotorua Hospital","status":"RECRUITING","city":"Rotorua","zip":"3010","country":"New Zealand","geoPoint":{"lat":-38.13874,"lon":176.24516}},{"facility":"Wellington Hospital","status":"RECRUITING","city":"Wellington","zip":"6021","country":"New Zealand","geoPoint":{"lat":-41.28664,"lon":174.77557}},{"facility":"Szpital Uniwersytecki NR 1 IM. Dr. Antoniego Jurasza","status":"RECRUITING","city":"Bydgoszcz","zip":"85-096","country":"Poland","geoPoint":{"lat":53.1235,"lon":18.00762}},{"facility":"Samodzielny Publiczny Wojewodzki Szpital Specjalistyczny w Chelmie","status":"RECRUITING","city":"Chelmie","zip":"22-100","country":"Poland"},{"facility":"SP Specjalistyczny Szpital Zachodni im. Jana Pawla II","status":"RECRUITING","city":"Grodzisk Mazowiecki","zip":"05-825","country":"Poland","geoPoint":{"lat":52.10387,"lon":20.6337}},{"facility":"Samodzielny Publiczny Zespol Zakladow Opieki Zdrowotnej Medicam Gryfice","status":"RECRUITING","city":"Gryfice","zip":"72-300","country":"Poland","geoPoint":{"lat":53.9165,"lon":15.20027}},{"facility":"Oddzial Ortopedii i Traumatologii Narzadu Ruchu Szpital Specjalistyczny im. Ludwika Rydygiera","status":"RECRUITING","city":"Krakow","zip":"31-637","country":"Poland","geoPoint":{"lat":50.06143,"lon":19.93658}},{"facility":"Wojewodzki Szpital Zespolony w Lesznie Oddzial Neurologiczny z Pododzialem udarowym","status":"RECRUITING","city":"Leszno","zip":"64-100","country":"Poland","geoPoint":{"lat":51.84034,"lon":16.57494}},{"facility":"III Szpital Miejski im. Dr. K. Jonschera w Lodzi","status":"RECRUITING","city":"Lodz","zip":"93-113","country":"Poland","geoPoint":{"lat":51.75,"lon":19.46667}},{"facility":"1 Wojskowy Szpital Kliniczny z Poliklinika SPZOZ w Lublinie","status":"RECRUITING","city":"Lublin","zip":"20-049","country":"Poland","geoPoint":{"lat":51.25,"lon":22.56667}},{"facility":"Wojewodzki Szpital Specjalistyczny w Olsztynie","status":"RECRUITING","city":"Olsztyn","zip":"10-561","country":"Poland","geoPoint":{"lat":53.77995,"lon":20.49416}},{"facility":"Samodzielny Publiczny Zakład Opieki Zdrowotnej Wojewódzki Szpital Specjalistyczny nr 3 w Rybniku","status":"RECRUITING","city":"Rybnik","zip":"44-200","country":"Poland","geoPoint":{"lat":50.09713,"lon":18.54179}},{"facility":"Zespol Opieki Zdrowotnej w Skarzysku-Kamiennej Szpital Powiatowy im. M.Curie-Sklodowskiej","status":"RECRUITING","city":"Skarzysko-Kamienna","zip":"26-110","country":"Poland","geoPoint":{"lat":51.11311,"lon":20.87162}},{"facility":"KO-MED Centra Kliniczne Staszow","status":"RECRUITING","city":"Staszow","zip":"28-200","country":"Poland","geoPoint":{"lat":50.56307,"lon":21.16593}},{"facility":"Specjalistyczny Szpital Miejski im. M.Kopernika","status":"RECRUITING","city":"Torun","zip":"87-100","country":"Poland","geoPoint":{"lat":53.01375,"lon":18.59814}},{"facility":"Szpital Specjalistyczny im. F. Ceynowy Szpitale Pomorskie","status":"RECRUITING","city":"Wejherowo","zip":"84-200","country":"Poland","geoPoint":{"lat":54.60568,"lon":18.23559}},{"facility":"Hospital de Braga","status":"RECRUITING","city":"Braga","zip":"4710-243","country":"Portugal","geoPoint":{"lat":41.55032,"lon":-8.42005}},{"facility":"Centro Hospitalar e Universitário de Coimbra - Hospitais da Universidade de Coimbra","status":"RECRUITING","city":"Coimbra","zip":"3040-278","country":"Portugal","geoPoint":{"lat":40.20564,"lon":-8.41955}},{"facility":"Centro Hospitalar Cova da Beira, E.P.E.","status":"RECRUITING","city":"Covilha","zip":"6200-502","country":"Portugal","geoPoint":{"lat":40.28601,"lon":-7.50396}},{"facility":"Chlo - Hosp. Egas Moniz","status":"RECRUITING","city":"Lisboa","zip":"1349-019","country":"Portugal","geoPoint":{"lat":38.71667,"lon":-9.13333}},{"facility":"Centro Hospitalar de Lisboa Norte Hospital Santa Maria","status":"RECRUITING","city":"Lisboa","zip":"1649-035","country":"Portugal","geoPoint":{"lat":38.71667,"lon":-9.13333}},{"facility":"Centro Hospitalar de Entre o Douro e Vouga, E.P.E","status":"RECRUITING","city":"Santa Maria da Feira","zip":"4520-211","country":"Portugal","geoPoint":{"lat":40.92726,"lon":-8.54839}},{"facility":"Spitalul Clinic Judetean de Urgenta Arad","status":"RECRUITING","city":"Arad","zip":"310037","country":"Romania","geoPoint":{"lat":46.18333,"lon":21.31667}},{"facility":"Spitalul de Psihiatrie si Neurologie Brasov","status":"RECRUITING","city":"Brasov","zip":"500123","country":"Romania","geoPoint":{"lat":45.64861,"lon":25.60613}},{"facility":"Institutul National de Neurologie si Boli Neurovasculare Bucuresti","status":"RECRUITING","city":"Bucuresti","zip":"077160","country":"Romania","geoPoint":{"lat":44.42802,"lon":26.09665}},{"facility":"Emergency Clinical County Hospital Constanta","status":"RECRUITING","city":"Constanta","zip":"900591","country":"Romania","geoPoint":{"lat":44.18073,"lon":28.63432}},{"facility":"Spitalul Clinic Judetean de Urgenta Targu Mures","status":"RECRUITING","city":"Targu Mures","zip":"RO540136","country":"Romania","geoPoint":{"lat":46.54245,"lon":24.55747}},{"facility":"Spitalul Clinic Judetean de Urgenta 'Pius Brinzeu'","status":"RECRUITING","city":"Timisoara","zip":"300723","country":"Romania","geoPoint":{"lat":45.75372,"lon":21.22571}},{"facility":"Singapore General Hospital","status":"RECRUITING","city":"Singapore","zip":"169608","country":"Singapore","geoPoint":{"lat":1.28967,"lon":103.85007}},{"facility":"Univerzitna nemocnica Bratislava","status":"RECRUITING","city":"Bratislava","zip":"82601","country":"Slovakia","geoPoint":{"lat":48.14816,"lon":17.10674}},{"facility":"Nemocnica AGEL Levice, s.r.o.","status":"RECRUITING","city":"Levice","zip":"93401","country":"Slovakia","geoPoint":{"lat":48.21563,"lon":18.60705}},{"facility":"Nemocnica S Poliklinikou SV. Barbory","status":"RECRUITING","city":"Lucenec","zip":"98401","country":"Slovakia","geoPoint":{"lat":48.33249,"lon":19.66708}},{"facility":"Univerzitná nemocnica Martin","status":"RECRUITING","city":"Martin","zip":"036 59","country":"Slovakia","geoPoint":{"lat":49.06651,"lon":18.92399}},{"facility":"Fakultna nemocnica s poliklinikou Nove Zamky","status":"RECRUITING","city":"Nové Zámky","zip":"940 34","country":"Slovakia","geoPoint":{"lat":47.98544,"lon":18.16195}},{"facility":"Nemocnica s poliklinikou Spisska Nova Ves, a.s.","status":"RECRUITING","city":"Spisska Nova Ves","zip":"05201","country":"Slovakia","geoPoint":{"lat":48.94464,"lon":20.56153}},{"facility":"FN Trencin","status":"RECRUITING","city":"Trencin","zip":"91101","country":"Slovakia","geoPoint":{"lat":48.89452,"lon":18.04436}},{"facility":"Fakultna nemocnica s poliklinikou v Ziline","status":"RECRUITING","city":"Zilina","zip":"1207","country":"Slovakia","geoPoint":{"lat":49.22315,"lon":18.73941}},{"facility":"Iatros International","status":"RECRUITING","city":"Bloemfontein","zip":"9324","country":"South Africa","geoPoint":{"lat":-29.12107,"lon":26.214}},{"facility":"Synergy Biomed Research Institute (SBRI)","status":"RECRUITING","city":"East London","zip":"5241","country":"South Africa","geoPoint":{"lat":-33.01529,"lon":27.91162}},{"facility":"TASK Central","status":"RECRUITING","city":"George","zip":"06530","country":"South Africa","geoPoint":{"lat":-33.963,"lon":22.46173}},{"facility":"Garda, RA","status":"RECRUITING","city":"Johannesburg","zip":"2192","country":"South Africa","geoPoint":{"lat":-26.20227,"lon":28.04363}},{"facility":"Dr J.M. Engelbrecht Trial Site","status":"RECRUITING","city":"Somerset West","zip":"7130","country":"South Africa","geoPoint":{"lat":-34.08401,"lon":18.82113}},{"facility":"Drs Sarvan and Moodley","status":"RECRUITING","city":"Tongaat","zip":"4399","country":"South Africa","geoPoint":{"lat":-29.57215,"lon":31.11682}},{"facility":"Clinical Projects Research SA (PTY) LTD","status":"RECRUITING","city":"Worcester","zip":"6850","country":"South Africa","geoPoint":{"lat":-33.64651,"lon":19.44852}},{"facility":"Hosp. Gral. Univ. de Alicante","status":"RECRUITING","city":"Alicante","zip":"03010","country":"Spain","geoPoint":{"lat":38.34517,"lon":-0.48149}},{"facility":"Hosp. Del Mar","status":"RECRUITING","city":"Barcelona","zip":"08003","country":"Spain","geoPoint":{"lat":41.38879,"lon":2.15899}},{"facility":"Hosp. Univ. Vall D Hebron","status":"RECRUITING","city":"Barcelona","zip":"08035","country":"Spain","geoPoint":{"lat":41.38879,"lon":2.15899}},{"facility":"Hosp. de La Santa Creu I Sant Pau","status":"RECRUITING","city":"Barcelona","zip":"08041","country":"Spain","geoPoint":{"lat":41.38879,"lon":2.15899}},{"facility":"Hosp. Reina Sofia","status":"RECRUITING","city":"Cordoba","zip":"14004","country":"Spain","geoPoint":{"lat":37.89155,"lon":-4.77275}},{"facility":"Hosp. Univ. Dr. Josep Trueta","status":"RECRUITING","city":"Girona","zip":"17007","country":"Spain","geoPoint":{"lat":41.98311,"lon":2.82493}},{"facility":"Hosp. Univ. A Coruna","status":"RECRUITING","city":"La Coruña","zip":"15006","country":"Spain","geoPoint":{"lat":43.37135,"lon":-8.396}},{"facility":"Hosp. Univ. Arnau de Vilanova de Lleida","status":"RECRUITING","city":"Lleida","zip":"25198","country":"Spain","geoPoint":{"lat":41.61674,"lon":0.62218}},{"facility":"Hosp. Univ. Ramon Y Cajal","status":"RECRUITING","city":"Madrid","zip":"28034","country":"Spain","geoPoint":{"lat":40.4165,"lon":-3.70256}},{"facility":"Hosp. Clinico San Carlos","status":"RECRUITING","city":"Madrid","zip":"28040","country":"Spain","geoPoint":{"lat":40.4165,"lon":-3.70256}},{"facility":"Hosp. Univ. 12 de Octubre","status":"RECRUITING","city":"Madrid","zip":"28041","country":"Spain","geoPoint":{"lat":40.4165,"lon":-3.70256}},{"facility":"Hosp. Univ. de La Paz","status":"RECRUITING","city":"Madrid","zip":"28046","country":"Spain","geoPoint":{"lat":40.4165,"lon":-3.70256}},{"facility":"Hosp. Regional Univ. de Malaga","status":"RECRUITING","city":"Malaga","zip":"29010","country":"Spain","geoPoint":{"lat":36.72016,"lon":-4.42034}},{"facility":"Hosp. Puerta Del Sur","status":"RECRUITING","city":"Mostoles","zip":"28938","country":"Spain","geoPoint":{"lat":40.32234,"lon":-3.86496}},{"facility":"Hosp. Univ. Son Espases","status":"RECRUITING","city":"Palma de Mallorca","zip":"07120","country":"Spain","geoPoint":{"lat":39.56939,"lon":2.65024}},{"facility":"Hosp. Clinico Univ. de Santiago","status":"RECRUITING","city":"Santiago de Compostela","zip":"15706","country":"Spain","geoPoint":{"lat":42.88052,"lon":-8.54569}},{"facility":"Hosp. Virgen Del Rocio","status":"RECRUITING","city":"Sevilla","zip":"41013","country":"Spain","geoPoint":{"lat":37.38283,"lon":-5.97317}},{"facility":"Hosp Univ de Tarragona Joan Xxiii","status":"RECRUITING","city":"Tarragona","zip":"43005","country":"Spain","geoPoint":{"lat":41.11667,"lon":1.25}},{"facility":"Hosp. Mutua Terrassa","status":"RECRUITING","city":"Terrassa","zip":"08221","country":"Spain","geoPoint":{"lat":41.56667,"lon":2.01667}},{"facility":"Hosp. Clinico Univ. de Valencia","status":"RECRUITING","city":"Valencia","zip":"46010","country":"Spain","geoPoint":{"lat":39.46975,"lon":-0.37739}},{"facility":"Hosp. Clinico Univ. de Valladolid","status":"RECRUITING","city":"Valladolid","zip":"470003","country":"Spain","geoPoint":{"lat":41.65518,"lon":-4.72372}},{"facility":"Hosp. Alvaro Cunqueiro","status":"RECRUITING","city":"Vigo","zip":"36213","country":"Spain","geoPoint":{"lat":42.23282,"lon":-8.72264}},{"facility":"Sahlgrenska University Hospital","status":"RECRUITING","city":"Göteborg","zip":"41345","country":"Sweden","geoPoint":{"lat":57.70716,"lon":11.96679}},{"facility":"Skanes universitetssjukhus","status":"RECRUITING","city":"Malmoe","zip":"205 02","country":"Sweden"},{"facility":"Skaraborgs sjukhus Skövde","status":"RECRUITING","city":"Skövde","zip":"54142","country":"Sweden","geoPoint":{"lat":58.39118,"lon":13.84506}},{"facility":"Kantonsspital Aarau","status":"RECRUITING","city":"Aarau","zip":"5001","country":"Switzerland","geoPoint":{"lat":47.39254,"lon":8.04422}},{"facility":"Universitatsspital Basel","status":"RECRUITING","city":"Basel","zip":"4031","country":"Switzerland","geoPoint":{"lat":47.55839,"lon":7.57327}},{"facility":"INSELSPITAL, Universitätsspital Bern","status":"RECRUITING","city":"Bern","zip":"3010","country":"Switzerland","geoPoint":{"lat":46.94809,"lon":7.44744}},{"facility":"Kantonsspital St.Gallen","status":"RECRUITING","city":"St. Gallen","zip":"CH-9007","country":"Switzerland","geoPoint":{"lat":47.42391,"lon":9.37477}},{"facility":"Changhua Christian Hospital","status":"RECRUITING","city":"Changhua","zip":"50006","country":"Taiwan","geoPoint":{"lat":24.07327,"lon":120.56276}},{"facility":"Chia-Yi Christian Hospital","status":"RECRUITING","city":"Chia-Yi City","zip":"600","country":"Taiwan"},{"facility":"Chang Gung Memorial Hospital, Chiayi Branch","status":"RECRUITING","city":"Chiayi","zip":"613","country":"Taiwan"},{"facility":"Hualien Tzu Chi Hospital","status":"RECRUITING","city":"Hualien","zip":"97002","country":"Taiwan"},{"facility":"Kaohsiung Chang Gung Memorial Hospital","status":"RECRUITING","city":"Kaohsiung","zip":"83301","country":"Taiwan","geoPoint":{"lat":22.61626,"lon":120.31333}},{"facility":"Chang Gung Medical Foundation","status":"RECRUITING","city":"Keelung","zip":"20401","country":"Taiwan","geoPoint":{"lat":25.12825,"lon":121.7419}},{"facility":"Taipei Medical University Shuang Ho Hospital","status":"RECRUITING","city":"New Taipei City","zip":"23561","country":"Taiwan","geoPoint":{"lat":25.01111,"lon":121.44583}},{"facility":"En Chu Kong Hospital","status":"RECRUITING","city":"New Taipei City","zip":"237","country":"Taiwan","geoPoint":{"lat":25.01111,"lon":121.44583}},{"facility":"National Taiwan University Hospital","status":"RECRUITING","city":"Taipei","zip":"10002","country":"Taiwan","geoPoint":{"lat":25.04776,"lon":121.53185}},{"facility":"Chang Gung Memorial Hospital- Linkou","status":"RECRUITING","city":"Taoyuan County","zip":"33305","country":"Taiwan"},{"facility":"Siriraj Hospital","status":"RECRUITING","city":"Bangkoknoi","zip":"10700","country":"Thailand","geoPoint":{"lat":13.76266,"lon":100.47798}},{"facility":"Phramongkutklao Hospital and Medical College","status":"RECRUITING","city":"Bangkok","zip":"10400","country":"Thailand","geoPoint":{"lat":13.75398,"lon":100.50144}},{"facility":"Ramathibodi Hospital","status":"RECRUITING","city":"Bangkok","zip":"10400","country":"Thailand","geoPoint":{"lat":13.75398,"lon":100.50144}},{"facility":"Maharaj Nakorn Chiang Mai hospital - Faculty of Medicine","status":"RECRUITING","city":"Chiangmai","zip":"50200","country":"Thailand","geoPoint":{"lat":18.79038,"lon":98.98468}},{"facility":"Lampang Hospital","status":"RECRUITING","city":"Muang","zip":"52000","country":"Thailand"},{"facility":"Srinagarind Hospital","status":"RECRUITING","city":"Nai Mueang Subdistrict Mueang","zip":"40000","country":"Thailand"},{"facility":"King Chulalongkorn Memorial Hospital","status":"RECRUITING","city":"Pathum Wan","zip":"10330","country":"Thailand","geoPoint":{"lat":13.73649,"lon":100.5239}},{"facility":"Aberdeen Royal Infirmary","status":"RECRUITING","city":"Aberdeen","zip":"AB25 2ZN","country":"United Kingdom","geoPoint":{"lat":57.14369,"lon":-2.09814}},{"facility":"University Hospital Monklands","status":"RECRUITING","city":"Airdrie","zip":"ML6 0JS","country":"United Kingdom","geoPoint":{"lat":55.86602,"lon":-3.98025}},{"facility":"Cheltenham General Hospital","status":"RECRUITING","city":"Cheltenham","zip":"GL53 7AN","country":"United Kingdom","geoPoint":{"lat":51.90006,"lon":-2.07972}},{"facility":"Ninewells Hospital","status":"RECRUITING","city":"Dundee","zip":"DD1 9SY","country":"United Kingdom","geoPoint":{"lat":56.46913,"lon":-2.97489}},{"facility":"Royal Devon and Exeter Hospital(Wonford)","status":"RECRUITING","city":"Exeter","zip":"EX2 5DW","country":"United Kingdom","geoPoint":{"lat":50.7236,"lon":-3.52751}},{"facility":"Queen Elizabeth University Hospital","status":"RECRUITING","city":"Glasgow","zip":"G51 4TF","country":"United Kingdom","geoPoint":{"lat":55.86515,"lon":-4.25763}},{"facility":"Leicester General Hospital","status":"RECRUITING","city":"Leicester","zip":"LE5 4PW","country":"United Kingdom","geoPoint":{"lat":52.6386,"lon":-1.13169}},{"facility":"Royal London Hospital","status":"RECRUITING","city":"London","zip":"E1 1BB","country":"United Kingdom","geoPoint":{"lat":51.50853,"lon":-0.12574}},{"facility":"Luton and Dunstable Hospital","status":"RECRUITING","city":"Luton","zip":"LU4 0DZ","country":"United Kingdom","geoPoint":{"lat":51.87967,"lon":-0.41748}},{"facility":"Nottingham University Hospitals","status":"RECRUITING","city":"Nottingham","zip":"NG5 1PB","country":"United Kingdom","geoPoint":{"lat":52.9536,"lon":-1.15047}},{"facility":"Pinderfields General Hospital - Dept. of Neurology","status":"RECRUITING","city":"Wakefield","zip":"WF1 4DG","country":"United Kingdom","geoPoint":{"lat":53.68331,"lon":-1.49768}},{"facility":"York Hospital","status":"RECRUITING","city":"York","zip":"YO31 8HE","country":"United Kingdom","geoPoint":{"lat":53.95763,"lon":-1.08271}}]},"ipdSharingStatementModule":{"ipdSharing":"YES","description":"The data sharing policy of the Janssen Pharmaceutical Companies of Johnson \\& Johnson is available at www.janssen.com/clinical-trials/transparency. As noted on this site, requests for access to the study data can be submitted through Yale Open Data Access (YODA) Project site at yoda.yale.edu","url":"https://www.janssen.com/clinical-trials/transparency"}},"derivedSection":{"miscInfoModule":{"versionHolder":"2024-02-14","removedCountries":["Canada","Estonia","Greece","Latvia","Philippines","Serbia","Vietnam"]},"conditionBrowseModule":{"meshes":[{"id":"D000020521","term":"Stroke"},{"id":"D000083242","term":"Ischemic Stroke"},{"id":"D000002544","term":"Cerebral Infarction"},{"id":"D000002546","term":"Ischemic Attack, Transient"},{"id":"D000007511","term":"Ischemia"}],"ancestors":[{"id":"D000002561","term":"Cerebrovascular Disorders"},{"id":"D000001927","term":"Brain Diseases"},{"id":"D000002493","term":"Central Nervous System Diseases"},{"id":"D000009422","term":"Nervous System Diseases"},{"id":"D000014652","term":"Vascular Diseases"},{"id":"D000002318","term":"Cardiovascular Diseases"},{"id":"D000010335","term":"Pathologic Processes"},{"id":"D000020520","term":"Brain Infarction"},{"id":"D000002545","term":"Brain Ischemia"},{"id":"D000007238","term":"Infarction"},{"id":"D000009336","term":"Necrosis"}],"browseLeaves":[{"id":"M21996","name":"Stroke","asFound":"Stroke","relevance":"HIGH"},{"id":"M10233","name":"Ischemia","asFound":"Ischemic","relevance":"HIGH"},{"id":"M2401","name":"Ischemic Stroke","asFound":"Ischemic Stroke","relevance":"HIGH"},{"id":"M5485","name":"Ischemic Attack, Transient","asFound":"Ischemic Attack, Transient","relevance":"HIGH"},{"id":"M9972","name":"Infarction","relevance":"LOW"},{"id":"M5483","name":"Cerebral Infarction","asFound":"Ischemic Stroke","relevance":"HIGH"},{"id":"M5500","name":"Cerebrovascular Disorders","relevance":"LOW"},{"id":"M4894","name":"Brain Diseases","relevance":"LOW"},{"id":"M5432","name":"Central Nervous System Diseases","relevance":"LOW"},{"id":"M17090","name":"Vascular Diseases","relevance":"LOW"},{"id":"M21995","name":"Brain Infarction","relevance":"LOW"},{"id":"M5484","name":"Brain Ischemia","relevance":"LOW"},{"id":"M11974","name":"Necrosis","relevance":"LOW"},{"id":"T170","name":"Acute Graft Versus Host Disease","relevance":"LOW"}],"browseBranches":[{"abbrev":"BC10","name":"Nervous System Diseases"},{"abbrev":"BC14","name":"Heart and Blood Diseases"},{"abbrev":"All","name":"All Conditions"},{"abbrev":"BC23","name":"Symptoms and General Pathology"},{"abbrev":"Rare","name":"Rare Diseases"}]}},"hasResults":false}