{"protocolSection":{"identificationModule":{"nctId":"NCT02877615","orgStudyIdInfo":{"id":"CL2-44819-004"},"secondaryIdInfos":[{"id":"2016-001005-16","type":"EUDRACT_NUMBER"},{"id":"UTN number: U1111-1180-8991","type":"OTHER","domain":"WHO"}],"organization":{"fullName":"Servier","class":"INDUSTRY"},"briefTitle":"Efficacy and Safety Trial With S 44819 After Recent Ischemic Cerebral Event","officialTitle":"Randomized Efficacy and Safety Trial With Oral S 44819 After Recent Ischemic Cerebral Event. International, Multi-centre, Randomized, Doubleblind Placebo-controlled Phase II Study. (RESTORE BRAIN Study)"},"statusModule":{"statusVerifiedDate":"2020-03","overallStatus":"COMPLETED","expandedAccessInfo":{"hasExpandedAccess":false},"startDateStruct":{"date":"2016-12-19","type":"ACTUAL"},"primaryCompletionDateStruct":{"date":"2019-03-10","type":"ACTUAL"},"completionDateStruct":{"date":"2019-03-10","type":"ACTUAL"},"studyFirstSubmitDate":"2016-07-20","studyFirstSubmitQcDate":"2016-08-19","studyFirstPostDateStruct":{"date":"2016-08-24","type":"ESTIMATED"},"lastUpdateSubmitDate":"2020-03-09","lastUpdatePostDateStruct":{"date":"2020-03-11","type":"ACTUAL"}},"sponsorCollaboratorsModule":{"responsibleParty":{"type":"SPONSOR"},"leadSponsor":{"name":"Institut de Recherches Internationales Servier","class":"OTHER"},"collaborators":[{"name":"ADIR, a Servier Group company","class":"INDUSTRY"}]},"oversightModule":{"oversightHasDmc":true,"isFdaRegulatedDrug":false,"isFdaRegulatedDevice":false},"descriptionModule":{"briefSummary":"The purpose of this study is to assess the efficacy and safety of S 44819 in enhancing functional recovery after an ischemic stroke."},"conditionsModule":{"conditions":["Post Stroke Recovery"]},"designModule":{"studyType":"INTERVENTIONAL","phases":["PHASE2"],"designInfo":{"allocation":"RANDOMIZED","interventionModel":"PARALLEL","primaryPurpose":"TREATMENT","maskingInfo":{"masking":"QUADRUPLE","whoMasked":["PARTICIPANT","CARE_PROVIDER","INVESTIGATOR","OUTCOMES_ASSESSOR"]}},"enrollmentInfo":{"count":585,"type":"ACTUAL"}},"armsInterventionsModule":{"armGroups":[{"label":"S 44819 150 mg twice a day","type":"EXPERIMENTAL","interventionNames":["Drug: S 44819 150 mg twice a day"]},{"label":"S 44819 300 mg twice a day","type":"EXPERIMENTAL","interventionNames":["Drug: S 44819 300 mg twice a day"]},{"label":"Placebo","type":"PLACEBO_COMPARATOR","interventionNames":["Drug: Placebo"]}],"interventions":[{"type":"DRUG","name":"S 44819 150 mg twice a day","description":"One sachet of S 44819 150 mg and one sachet of placebo twice a day","armGroupLabels":["S 44819 150 mg twice a day"]},{"type":"DRUG","name":"S 44819 300 mg twice a day","description":"Two sachets of S 44819 150 mg twice a day","armGroupLabels":["S 44819 300 mg twice a day"]},{"type":"DRUG","name":"Placebo","description":"Two sachets of placebo twice a day","armGroupLabels":["Placebo"]}]},"outcomesModule":{"primaryOutcomes":[{"measure":"Modified Rankin Scale (mRS)","timeFrame":"Up to 90 days"}],"secondaryOutcomes":[{"measure":"National Institutes of Health Stroke Scale (NIHSS) total score","description":"Efficacy criterion","timeFrame":"Selection visit Day 0 Day 5 Day 30 Day 60 Day 90 Day 105"},{"measure":"Barthel Index (BI) total score","description":"Efficacy criterion","timeFrame":"Day 30 Day 60 Day 90 Day 105"},{"measure":"Montreal Cognitive Assessment scale (Moca) total score","description":"Efficacy criterion","timeFrame":"Day 30 Day 90"},{"measure":"Trail Making Test (TMT) time for part A","description":"Efficacy criterion","timeFrame":"Day 30 Day 90"},{"measure":"Adverse events","description":"Safety criterion","timeFrame":"Through study completion, an average of 3 months"},{"measure":"Suicidal ideation and suicidal behavior using the Columbia-Suicide Severity Rating Scale (C-SSRS)","description":"Safety criterion","timeFrame":"Day 5 Day 30 Day 60 Day 90 Day 105"},{"measure":"Body weight","description":"Safety criterion","timeFrame":"Selection visit Day 30 Day 60 Day 90 Day 105"},{"measure":"Vital signs (supine for Systolic and Diastolic Blood Pressure)","description":"Safety criterion","timeFrame":"Selection visit Day 0 Day 5 Day 30 Day 60 Day 90 Day 105"},{"measure":"12 lead-ECG","description":"Safety criterion","timeFrame":"Day 0 Day 5 Day 30 Day 60 Day 90 Day 105"},{"measure":"Trail Making Test (TMT) time for part B","description":"Efficacy criterion","timeFrame":"Day 30 Day 90"}]},"eligibilityModule":{"eligibilityCriteria":"Inclusion criteria :\n\n* Patients aged between 18 and 85 years (both inclusive)\n* Acute ischemic stroke that occured between 72 hours (3 days) and 192 hours (8 days) (both inclusive) before inclusion\n\nExclusion criteria :\n\n* Any non-selection criteria, which could have occurred after the selection visit\n* Positive urinary or blood pregnancy test (for female patients of child bearing potential)\n* Any clinically significant findings from the local laboratory test likely to interfere with the ability to participate in the study and / or with the study outcome\n* Severe renal impairment detected in the local laboratory test\n* Severe hepatic impairment or liver enzymes abnormalities found in the local laboratory test\n* Stroke due to cerebral venous thrombosis\n* Brain MRI showing a severe microangiopathy\n* Brain imaging showing an acute haemorrhagic stroke or a symptomatic haemorrhagic transformation of the brain infarct\n* Qualifying ischemic cerebral event older than 192 hours at inclusion\n* Any clinically relevant abnormalities detected during the examinations likely to interfere with study procedures or study outcome,\n* Repeated prolongation of ECG QTcF\n* Patient or authorised representative refusing to attend study visits or to take part in the study","healthyVolunteers":false,"sex":"ALL","minimumAge":"18 Years","maximumAge":"85 Years","stdAges":["ADULT","OLDER_ADULT"]},"contactsLocationsModule":{"locations":[{"facility":"Royal Adelaide Hospital Department of Neurology","city":"Adelaide","zip":"5000","country":"Australia","geoPoint":{"lat":-34.92866,"lon":138.59863}},{"facility":"Sunshine Coast Hospital","city":"Birtinya","zip":"4575","country":"Australia","geoPoint":{"lat":-26.74322,"lon":153.11913}},{"facility":"Monash Medical Centre Department of Neurology","city":"Clayton","zip":"3168","country":"Australia","geoPoint":{"lat":-37.91667,"lon":145.11667}},{"facility":"Lyell McEwin Hospital Neurology Department","city":"Elizabeth Vale","zip":"5112","country":"Australia","geoPoint":{"lat":-34.74857,"lon":138.66819}},{"facility":"Gosford Hospital Neurosciences Department","city":"Gosford","zip":"2250","country":"Australia","geoPoint":{"lat":-33.4244,"lon":151.34399}},{"facility":"Austin Health Neurology Department","city":"Heidelberg","zip":"VIC 3084","country":"Australia","geoPoint":{"lat":-37.75,"lon":145.06667}},{"facility":"Royal Brisbane & Women's Hospital Department of Neurology","city":"Herston","zip":"4029","country":"Australia","geoPoint":{"lat":-27.44453,"lon":153.01852}},{"facility":"Alfred Health","city":"Melbourne","zip":"3004","country":"Australia","geoPoint":{"lat":-37.814,"lon":144.96332}},{"facility":"Royal Melbourne Hospital Department of Neurology","city":"Parkville","zip":"3050","country":"Australia","geoPoint":{"lat":-37.78333,"lon":144.95}},{"facility":"Gold Coast University Hospital","city":"Southport","zip":"QLD 4215","country":"Australia","geoPoint":{"lat":-27.96724,"lon":153.39796}},{"facility":"AZ Sint-Lucas Neurologie","city":"Brugge","zip":"8000","country":"Belgium","geoPoint":{"lat":51.20892,"lon":3.22424}},{"facility":"AZ. St. Jan","city":"Brugge","zip":"8000","country":"Belgium","geoPoint":{"lat":51.20892,"lon":3.22424}},{"facility":"Universitair Ziekenhuis Antwerpen","city":"Edegem","zip":"2650","country":"Belgium","geoPoint":{"lat":51.15662,"lon":4.44504}},{"facility":"Jessa Ziekenhuis Dienst Neurologie","city":"Hasselt","zip":"3500","country":"Belgium","geoPoint":{"lat":50.93106,"lon":5.33781}},{"facility":"UZ Leuven Campus Gasthuisberg","city":"Leuven","zip":"3000","country":"Belgium","geoPoint":{"lat":50.87959,"lon":4.70093}},{"facility":"Les Cliniques Saint-Joseph","city":"Liege","zip":"4000","country":"Belgium","geoPoint":{"lat":50.63373,"lon":5.56749}},{"facility":"Sint Andries Ziekenhuis Dienst Neurologie","city":"Tielt","zip":"8700","country":"Belgium","geoPoint":{"lat":50.99931,"lon":3.32707}},{"facility":"Hospital das Clinicas da Faculdade de Medicina de Botucatu","city":"Botucatu","zip":"18618-970","country":"Brazil","geoPoint":{"lat":-22.88583,"lon":-48.445}},{"facility":"Clínica Neurológica e Neurocirúrgica de Joinville","city":"Joinville","zip":"89202-165","country":"Brazil","geoPoint":{"lat":-26.30444,"lon":-48.84556}},{"facility":"Hospital Carlos Fernando Malzone Departamento de Neurologia","city":"Matão","zip":"15990-000","country":"Brazil","geoPoint":{"lat":-21.60333,"lon":-48.36583}},{"facility":"IMV Pesquisa Neurológica Setor de Pesquisa Clinica","city":"Porto Alegre","zip":"90110-270","country":"Brazil","geoPoint":{"lat":-30.03306,"lon":-51.23}},{"facility":"Hospital Sao Lucas da Pontificia Universidade Catolica RS Setor de Pesquisa Clínica","city":"Porto Alegre","zip":"90610-000","country":"Brazil","geoPoint":{"lat":-30.03306,"lon":-51.23}},{"facility":"Hospital das Clinicas da Fac. de Med. de Ribeirao Preto Unidade de Emergencia - Centro de Estudo","city":"Ribeirao Preto","zip":"14015-130","country":"Brazil","geoPoint":{"lat":-21.1775,"lon":-47.81028}},{"facility":"Hospital das Clinicas da Fac. de med. de Ribeirao Preto Unidade de Emergiancia","city":"Ribeirão Preto","zip":"14015-130","country":"Brazil","geoPoint":{"lat":-21.1775,"lon":-47.81028}},{"facility":"Hospital Quinta D'or Departamento de Neurologia","city":"Rio de Janeiro","zip":"20941-150","country":"Brazil","geoPoint":{"lat":-22.90278,"lon":-43.2075}},{"facility":"Irmandade Santa Casa de Misericordia de Sao Paulo Ambulatório de Neurologia","city":"Sao Paulo","zip":"01221-020","country":"Brazil","geoPoint":{"lat":-23.5475,"lon":-46.63611}},{"facility":"UNIFESP - Universidade Federal de Sao Paulo Centro de Pesquisa em Neurologia","city":"Sao Paulo","zip":"04039-032","country":"Brazil","geoPoint":{"lat":-23.5475,"lon":-46.63611}},{"facility":"University of Alberta","city":"Edmonton","zip":"T6G 2G3","country":"Canada","geoPoint":{"lat":53.55014,"lon":-113.46871}},{"facility":"Charles LeMoyne Hospital-CISSS de la Monteregie-Centre","city":"Greenfield Park","zip":"J4V 2H1","country":"Canada","geoPoint":{"lat":45.48649,"lon":-73.46223}},{"facility":"Montreal General Hospital","city":"Montreal","zip":"H3G 1A4","country":"Canada","geoPoint":{"lat":45.50884,"lon":-73.58781}},{"facility":"Saint John Regional Hospital","city":"Saint John","zip":"E2L 4L2","country":"Canada","geoPoint":{"lat":45.2727,"lon":-66.06769}},{"facility":"Fakultni nemocnice Brno Neurologicka klinika","city":"Brno","zip":"625 00","country":"Czechia","geoPoint":{"lat":49.19522,"lon":16.60796}},{"facility":"Fakultni nemocnice u sv. Anny Neurologicka klinika","city":"Brno","zip":"656 91","country":"Czechia","geoPoint":{"lat":49.19522,"lon":16.60796}},{"facility":"Nemocnice Jihlava","city":"Jihlava","zip":"586 33","country":"Czechia","geoPoint":{"lat":49.3961,"lon":15.59124}},{"facility":"Vseobecna fakultni nemocnice II. interni klinika VFN a 1. LF UK","city":"Praha","zip":"128 08","country":"Czechia","geoPoint":{"lat":50.08804,"lon":14.42076}},{"facility":"CHU Bdx-Hôpital Pellegrin-Tripode Service de Neurologie","city":"Bordeaux","zip":"33076","country":"France","geoPoint":{"lat":44.84044,"lon":-0.5805}},{"facility":"Hôpital Sud-Francilien Unité Neurovasculaire","city":"Corbeil-essonnes","zip":"91106","country":"France","geoPoint":{"lat":48.60603,"lon":2.48757}},{"facility":"CHU Henri Mondor Service de Neurologie","city":"Creteil","zip":"94010","country":"France","geoPoint":{"lat":48.78333,"lon":2.46667}},{"facility":"CHU de Bicêtre Service de neurologie","city":"Le Kremlin-Bicêtre","zip":"94270","country":"France","geoPoint":{"lat":48.81471,"lon":2.36073}},{"facility":"CHRU-Hôpital Roger Salengro Service de Neurologie","city":"Lille","zip":"59037","country":"France","geoPoint":{"lat":50.63297,"lon":3.05858}},{"facility":"CHU-Hôpital Gui de Chaulliac Unité de Neuropshysiologie Clinique","city":"Montpellier","zip":"34295","country":"France","geoPoint":{"lat":43.61092,"lon":3.87723}},{"facility":"Hôpital Lariboisière, Fernand-Vidal Service de Neurologie","city":"Paris","zip":"75010","country":"France","geoPoint":{"lat":48.85341,"lon":2.3488}},{"facility":"Hôpital Sainte-Anne Service de Neurologie","city":"Paris","zip":"75674","country":"France","geoPoint":{"lat":48.85341,"lon":2.3488}},{"facility":"CHU-Hôpital de la Milétrie Service de Neurologie","city":"Poitiers","zip":"86021","country":"France","geoPoint":{"lat":46.58333,"lon":0.33333}},{"facility":"Klinikum Altenburger Land GmbH Neurologische Klinik","city":"Altenburg","zip":"04600","country":"Germany","geoPoint":{"lat":50.98763,"lon":12.43684}},{"facility":"Neurologische Klinik GmbH, Bad Neustadt","city":"Bad Neustadt An Der Saale","zip":"97616","country":"Germany","geoPoint":{"lat":50.32174,"lon":10.20673}},{"facility":"Vivantes Klinikum Neukölln Klinik für Neurologie mit Stroke Unit","city":"Berlin","zip":"12351","country":"Germany","geoPoint":{"lat":52.52437,"lon":13.41053}},{"facility":"Universitätsklinikum Erlangen Neurologische Klinik","city":"Erlangen","zip":"91054","country":"Germany","geoPoint":{"lat":49.59099,"lon":11.00783}},{"facility":"Universitaetsklinikum Essen Neurologische Universitätsklinik Essen","city":"Essen","zip":"45147","country":"Germany","geoPoint":{"lat":51.45657,"lon":7.01228}},{"facility":"Universitätsmedizin der Johannes Gutenberg-Universität Klinik und Poliklinik für","city":"Mainz","zip":"55131","country":"Germany","geoPoint":{"lat":49.98419,"lon":8.2791}},{"facility":"Johannes Wesling Klinik Minden Klinik für Neurologie","city":"Minden","zip":"32429","country":"Germany","geoPoint":{"lat":52.28953,"lon":8.91455}},{"facility":"Kreisklinikum Siegen Klinik fuer Neurologie","city":"Siegen","zip":"57076","country":"Germany","geoPoint":{"lat":50.87481,"lon":8.02431}},{"facility":"Universitätsklinik der Eberhard-Karls Universtiät Tübingen Hertie-Institut für Klinische Hirnforschung","city":"Tübingen","zip":"72076","country":"Germany","geoPoint":{"lat":48.52266,"lon":9.05222}},{"facility":"Universitätsklinikum Ulm Neurologische Klinik (RKU)","city":"ULM","zip":"89081","country":"Germany","geoPoint":{"lat":48.39841,"lon":9.99155}},{"facility":"Semmelweis Egyetem Neurologiai Klinika","city":"Budapest","zip":"1083","country":"Hungary","geoPoint":{"lat":47.49801,"lon":19.03991}},{"facility":"Bajcsy-Zsilinszky Korhaz es Rendelointezet Neurologiai Osztaly","city":"Budapest","zip":"1106","country":"Hungary","geoPoint":{"lat":47.49801,"lon":19.03991}},{"facility":"Szent Janos Korhaz Neurologiai osztaly","city":"Budapest","zip":"1125","country":"Hungary","geoPoint":{"lat":47.49801,"lon":19.03991}},{"facility":"Honved Korhaz Stroke reszleg","city":"Budapest","zip":"1134","country":"Hungary","geoPoint":{"lat":47.49801,"lon":19.03991}},{"facility":"Orszagos Idegsebeszeti Tudomanyos Intezet","city":"Budapest","zip":"1145","country":"Hungary","geoPoint":{"lat":47.49801,"lon":19.03991}},{"facility":"Petz Aladar Megyei Oktato Korhaz Neurologiai Osztaly","city":"Gyor","zip":"9024","country":"Hungary","geoPoint":{"lat":47.68333,"lon":17.63512}},{"facility":"Somogy Megyei Kaposi Mor Oktato Korhaz Neurologiai Osztaly","city":"Kaposvár","zip":"7400","country":"Hungary","geoPoint":{"lat":46.36667,"lon":17.8}},{"facility":"Flor Ferenc Korhaz Neurologia","city":"Kistarcsa","zip":"2143","country":"Hungary","geoPoint":{"lat":47.54757,"lon":19.26247}},{"facility":"B-A-Z Megyei Korhaz es Egyetemi Oktato Korhaz Stroke, Er- es Neurologiai, Toxikologiai Osztaly","city":"Miskolc","zip":"3526","country":"Hungary","geoPoint":{"lat":48.1,"lon":20.78333}},{"facility":"Kanizsai Dorottya Korhaz Neurologiai Osztaly","city":"Nagykanizsa","zip":"8800","country":"Hungary","geoPoint":{"lat":46.45347,"lon":16.99104}},{"facility":"Josa Andras Oktatokorhaz Neurologiai Osztaly","city":"Nyiregyhaza","zip":"4400","country":"Hungary","geoPoint":{"lat":47.95539,"lon":21.71671}},{"facility":"Pecsi Tudomanyegyetem Klinikai Kozpont Neurologiai Klinika","city":"Pecs","zip":"7623","country":"Hungary","geoPoint":{"lat":46.08333,"lon":18.23333}},{"facility":"Soproni Erzsebet Oktato Korhaz Neurologiai Osztaly","city":"Sopron","zip":"9400","country":"Hungary","geoPoint":{"lat":47.68501,"lon":16.59049}},{"facility":"Szegedi Tudomanyegyetem Szent-Gyorgy Albert Klinikai Kozpont","city":"Szeged","zip":"6725","country":"Hungary","geoPoint":{"lat":46.253,"lon":20.14824}},{"facility":"Vito FAZZI U.O. semplice Stroke Unit","city":"Lecce","zip":"73100","country":"Italy","geoPoint":{"lat":40.35481,"lon":18.17244}},{"facility":"Ospedale San Giuseppe UOC di Neurologia e Stroke Unit","city":"Milano","zip":"20123","country":"Italy","geoPoint":{"lat":45.46427,"lon":9.18951}},{"facility":"Ospedale San Raffaele","city":"Milano","zip":"20132","country":"Italy","geoPoint":{"lat":45.46427,"lon":9.18951}},{"facility":"Ospedale Sacro Cuore Don Calabria Negrar NEUROLOGY DEPT","city":"Negrar","zip":"37020","country":"Italy","geoPoint":{"lat":45.52918,"lon":10.93899}},{"facility":"Istituto Neurologico mediterraneo NEUROMED Dipartimento di Medicina Riabilitativa e Specialistica Repar","city":"Pozzilli","zip":"86077","country":"Italy","geoPoint":{"lat":41.51142,"lon":14.06252}},{"facility":"Policlinico Umberto I Emergency Department Stroke Unit","city":"Rome","zip":"00161","country":"Italy","geoPoint":{"lat":41.89193,"lon":12.51133}},{"facility":"Inje University Busan Paik Hospital","city":"Busan","zip":"47392","country":"Korea, Republic of","geoPoint":{"lat":35.10278,"lon":129.04028}},{"facility":"Dong-A University Medical Center Department of Neurology","city":"Busan","zip":"49201","country":"Korea, Republic of","geoPoint":{"lat":35.10278,"lon":129.04028}},{"facility":"Kyungpook National University Hospital Department of Neurology","city":"Daegu","zip":"41944","country":"Korea, Republic of","geoPoint":{"lat":35.87028,"lon":128.59111}},{"facility":"Chonnam National University Hospital Department of Neurology","city":"Gwangju","zip":"61469","country":"Korea, Republic of","geoPoint":{"lat":35.15472,"lon":126.91556}},{"facility":"Seoul National University Bundang Hospital Department of Orthopaedic","city":"Seongnam","zip":"13620","country":"Korea, Republic of","geoPoint":{"lat":37.43861,"lon":127.13778}},{"facility":"Kyung Hee University Hospital","city":"Seoul","zip":"02447","country":"Korea, Republic of","geoPoint":{"lat":37.566,"lon":126.9784}},{"facility":"ASAN Medical Center Department of Neurology","city":"Seoul","zip":"05505","country":"Korea, Republic of","geoPoint":{"lat":37.566,"lon":126.9784}},{"facility":"Zuyderland Medisch Centrum Afdeling Neurologie","city":"Heerlen","zip":"6419 PC","country":"Netherlands","geoPoint":{"lat":50.88365,"lon":5.98154}},{"facility":"UMC St Radboud Afdeling Neurologie","city":"Nijmegen","zip":"6525 GA","country":"Netherlands","geoPoint":{"lat":51.8425,"lon":5.85278}},{"facility":"Canisius Wilhelmina Ziekenhuis Afdeling Neurologie","city":"Nijmegen","zip":"6532 SZ","country":"Netherlands","geoPoint":{"lat":51.8425,"lon":5.85278}},{"facility":"Erasmus MC Afdeling Neurologie","city":"Rotterdam","zip":"3015 GD","country":"Netherlands","geoPoint":{"lat":51.9225,"lon":4.47917}},{"facility":"Isala Klinieken Afdeling Neurologie","city":"Zwolle","zip":"8011 JW","country":"Netherlands","geoPoint":{"lat":52.5125,"lon":6.09444}},{"facility":"Samodzielny Publiczny Wojewodzki Szpital Specjalistyczny Oddzial Neurologiczny i Oddzial Udarowy","city":"Chelm","zip":"22-100","country":"Poland","geoPoint":{"lat":51.14312,"lon":23.4716}},{"facility":"M. Kopernika Provincial Specialist Hospital Dpt of Neurology","city":"Gdansk","zip":"80-803","country":"Poland","geoPoint":{"lat":54.35205,"lon":18.64637}},{"facility":"Samodzielny Publiczny Szpital Kliniczny nr7 SUM w Katowicach Oddzial Neurologii z Pododdzialem Udarowym","city":"Katowice","zip":"40-635","country":"Poland","geoPoint":{"lat":50.25841,"lon":19.02754}},{"facility":"Szpital Specjalistyczny sw. Lukasza Oddzial Neurologii i Oddzial Udarowy","city":"Konskie","zip":"26-200","country":"Poland","geoPoint":{"lat":51.19166,"lon":20.40607}},{"facility":"Miejskie Centrum Medyczne Jonscher Szpital Dr K. Jonschera","city":"Lodz","zip":"93-113","country":"Poland","geoPoint":{"lat":51.75,"lon":19.46667}},{"facility":"Samodzielny Publiczny Szpital Kliniczny nr 4 w Lublinie Oddzial Neurologii","city":"Lublin","zip":"20-954","country":"Poland","geoPoint":{"lat":51.25,"lon":22.56667}},{"facility":"Wojewodzki Szpital Specjalistyczny SPZOZ nr 3 w Rybniku","city":"Rybnik","zip":"44-200","country":"Poland","geoPoint":{"lat":50.09713,"lon":18.54179}},{"facility":"Szpital Specjalistyczny Ducha Swietego w Sandomierzu Oddzial Neurologii","city":"Sandomierz","zip":"27-600","country":"Poland","geoPoint":{"lat":50.68265,"lon":21.74898}},{"facility":"Instytut Psychiatrii i Neurologii II Klinika Neurologiczna","city":"Warszawa","zip":"02-957","country":"Poland","geoPoint":{"lat":52.22977,"lon":21.01178}},{"facility":"H. General de Albacete Servicio de Neurología","city":"Albacete","zip":"02006","country":"Spain","geoPoint":{"lat":38.99424,"lon":-1.85643}},{"facility":"H. Germans Trias I Pujol Servicio de Neurología","city":"Badalona","zip":"08916","country":"Spain","geoPoint":{"lat":41.45004,"lon":2.24741}},{"facility":"H. del Mar Neurología","city":"Barcelona","zip":"08003","country":"Spain","geoPoint":{"lat":41.38879,"lon":2.15899}},{"facility":"H. Valle de Hebrón Servicio de Neurología","city":"Barcelona","zip":"08035","country":"Spain","geoPoint":{"lat":41.38879,"lon":2.15899}},{"facility":"H. Clinic de Barcelona Comprehensive Stroke Center","city":"Barcelona","zip":"08036","country":"Spain","geoPoint":{"lat":41.38879,"lon":2.15899}},{"facility":"Hospital Universitari de Bellvitge Servicio de Neurología-Unidad de Ictus-Planta 9","city":"Barcelona","zip":"08907","country":"Spain","geoPoint":{"lat":41.38879,"lon":2.15899}},{"facility":"H. Josep Trueta Servicio de Neurología","city":"Girona","zip":"17007","country":"Spain","geoPoint":{"lat":41.98311,"lon":2.82493}},{"facility":"H. Universitario La Princesa Servicio de Neurología","city":"Madrid","zip":"28006","country":"Spain","geoPoint":{"lat":40.4165,"lon":-3.70256}},{"facility":"H. Ramón y Cajal Servicio de Neurología","city":"Madrid","zip":"28034","country":"Spain","geoPoint":{"lat":40.4165,"lon":-3.70256}},{"facility":"H. Universitario de Donosti Servicio de Neurología","city":"San Sebastian","zip":"20080","country":"Spain","geoPoint":{"lat":43.31283,"lon":-1.97499}},{"facility":"H. Virgen del Rocío Servicio de Neurología","city":"Sevilla","zip":"41013","country":"Spain","geoPoint":{"lat":37.38283,"lon":-5.97317}},{"facility":"Hospital Universitario La Fe Servicio de Neurología","city":"Valencia","zip":"46026","country":"Spain","geoPoint":{"lat":39.46975,"lon":-0.37739}},{"facility":"Hassleholms Sjukhus Stroke- och rehabiliteringsavdelningen 9","city":"Hassleholm","zip":"281 25","country":"Sweden","geoPoint":{"lat":56.15905,"lon":13.76638}},{"facility":"University Hospital Department of Neurology","city":"Linkoping","zip":"581 85","country":"Sweden","geoPoint":{"lat":58.41086,"lon":15.62157}},{"facility":"Skaraborgs Sjukhus Skovde Strokenheten","city":"Skovde","zip":"541 85","country":"Sweden","geoPoint":{"lat":58.39118,"lon":13.84506}},{"facility":"Danderyds Sjukhus Medicinmottagningen","city":"Stockholm","zip":"182 88","country":"Sweden","geoPoint":{"lat":59.33258,"lon":18.0649}},{"facility":"Akademiska Sjukhuset Strokeavdelningen 85B","city":"Uppsala","zip":"751 85","country":"Sweden","geoPoint":{"lat":59.85882,"lon":17.63889}},{"facility":"Royal United Hospital Older People's Unit","city":"Bath","zip":"BA1 3NG","country":"United Kingdom","geoPoint":{"lat":51.3751,"lon":-2.36172}},{"facility":"Queen Elizabeth University Hospital","city":"Glasgow","country":"United Kingdom","geoPoint":{"lat":55.86515,"lon":-4.25763}},{"facility":"Northwick Park Hospital Neurology","city":"Harrow","zip":"HA1 3UJ","country":"United Kingdom","geoPoint":{"lat":51.57142,"lon":-0.33371}},{"facility":"Leicester Royal Infirmary Dpt of Neurology","city":"Leicester","zip":"LE1 5WW","country":"United Kingdom","geoPoint":{"lat":52.6386,"lon":-1.13169}},{"facility":"St George's University Hospitals Stroke Research office","city":"London","zip":"SW17 0QT","country":"United Kingdom","geoPoint":{"lat":51.50853,"lon":-0.12574}},{"facility":"Nottingham City Hospital","city":"Nottingham","zip":"NG5 1PB","country":"United Kingdom","geoPoint":{"lat":52.9536,"lon":-1.15047}},{"facility":"Poole NHS Foundation Trust Stroke Unit","city":"Poole","zip":"BH15 2JB","country":"United Kingdom","geoPoint":{"lat":50.71429,"lon":-1.98458}},{"facility":"Sheffield Teaching Hospitals NHS Foundation Trust Royal Hallamshire Hospital","city":"Sheffield","zip":"S10 2JF","country":"United Kingdom","geoPoint":{"lat":53.38297,"lon":-1.4659}},{"facility":"Royal Stoke University Hospital Stroke Team Office","city":"Stoke on Trent","zip":"ST4 6QG","country":"United Kingdom","geoPoint":{"lat":53.00415,"lon":-2.18538}}]},"referencesModule":{"references":[{"pmid":"32014032","type":"BACKGROUND","citation":"Chabriat H, Bassetti CL, Marx U, Picarel-Blanchot F, Sors A, Gruget C, Saba B, Wattez M, Audoli ML, Hermann DM. Randomized Efficacy and Safety Trial with Oral S 44819 after Recent ischemic cerebral Event (RESTORE BRAIN study): a placebo controlled phase II study. Trials. 2020 Feb 3;21(1):136. doi: 10.1186/s13063-020-4072-2."},{"pmid":"32085836","type":"RESULT","citation":"Chabriat H, Bassetti CL, Marx U, Audoli-Inthavong ML, Sors A, Lambert E, Wattez M, Hermann DM; RESTORE BRAIN study investigators. Safety and efficacy of GABAA alpha5 antagonist S44819 in patients with ischaemic stroke: a multicentre, double-blind, randomised, placebo-controlled trial. Lancet Neurol. 2020 Mar;19(3):226-233. doi: 10.1016/S1474-4422(20)30004-1."}],"seeAlsoLinks":[{"label":"Results Summary","url":"https://clinicaltrials.servier.com/wp-content/uploads/CL2-44819-004-anonymised-synopsis.pdf"},{"label":"Lay Summary","url":"https://clinicaltrials.servier.com/wp-content/uploads/CL2-44819-004-laysummary-2020.02.27.pdf"},{"label":"Scientific publication","url":"https://www.ncbi.nlm.nih.gov/pubmed/32085836"},{"label":"Scientific publication","url":"https://www.ncbi.nlm.nih.gov/pubmed/32014032"}],"availIpds":[{"type":"Study Protocol","url":"https://clinicaltrials.servier.com/"},{"type":"Individual Participant Data Set","url":"https://clinicaltrials.servier.com/"},{"type":"Statistical Analysis Plan","url":"https://clinicaltrials.servier.com/"},{"type":"Informed Consent Form","url":"https://clinicaltrials.servier.com/"},{"type":"Clinical Study Report","url":"https://clinicaltrials.servier.com/"},{"type":"Study-level clinical trial data","url":"https://clinicaltrials.servier.com/"}]},"ipdSharingStatementModule":{"ipdSharing":"YES","description":"Qualified scientific and medical researchers can request access to anonymized patient-level and study-level clinical trial data.\n\nThey can ask all interventional clinical studies:\n\n* submitted for new medicines and new indications approved after 1 January 2014 in the European Economic Area (EEA) or the United States (US).\n* Where Servier or an affiliate are the Marketing Authorization Holders (MAH). The date of the first Marketing Authorization of the new medicine (or the new indication) in one of the EEA Member States will be considered within this scope.","infoTypes":["STUDY_PROTOCOL","SAP","ICF","CSR"],"timeFrame":"After Marketing Authorisation in EEA or US if the study is used for the approval.","accessCriteria":"Researchers should register on Servier Data Portal and fill in the research proposal form. This form in four parts should be fully documented. The Research Proposal Form will not be reviewed until all mandatory fields are completed.","url":"https://clinicaltrials.servier.com"}},"derivedSection":{"miscInfoModule":{"versionHolder":"2024-02-14","removedCountries":["Czech Republic"]},"conditionBrowseModule":{"browseLeaves":[{"id":"M21996","name":"Stroke","relevance":"LOW"},{"id":"M10233","name":"Ischemia","relevance":"LOW"}],"browseBranches":[{"abbrev":"BC10","name":"Nervous System Diseases"},{"abbrev":"BC14","name":"Heart and Blood Diseases"},{"abbrev":"All","name":"All Conditions"},{"abbrev":"BC23","name":"Symptoms and General Pathology"}]},"interventionBrowseModule":{"meshes":[{"id":"C000627332","term":"S44819"}],"ancestors":[{"id":"D000058787","term":"GABA-A Receptor Antagonists"},{"id":"D000018756","term":"GABA Antagonists"},{"id":"D000018682","term":"GABA Agents"},{"id":"D000018377","term":"Neurotransmitter Agents"},{"id":"D000045504","term":"Molecular Mechanisms of Pharmacological Action"},{"id":"D000045505","term":"Physiological Effects of Drugs"}],"browseLeaves":[{"id":"M262596","name":"S44819","asFound":"Tivozanib hydrochloride","relevance":"HIGH"},{"id":"M20194","name":"Neurotransmitter Agents","relevance":"LOW"}],"browseBranches":[{"abbrev":"All","name":"All Drugs and Chemicals"}]}},"hasResults":false}