{"protocolSection":{"identificationModule":{"nctId":"NCT01958957","orgStudyIdInfo":{"id":"201311BDY04V05"},"organization":{"fullName":"Jiangsu Kanion Pharmaceutical Co., Ltd","class":"INDUSTRY"},"briefTitle":"A Safety Study of Ginkgolides Meglumine Injection in the Treatment of Ischemic Stroke.","officialTitle":"A Multicenter Safety Clinical Trial of Ginkgolides Meglumine Injection in the Treatment of Ischemic Stroke With Syndrome of Intermingled Phlegm and Blood Stasis."},"statusModule":{"statusVerifiedDate":"2013-05","overallStatus":"COMPLETED","expandedAccessInfo":{"hasExpandedAccess":false},"startDateStruct":{"date":"2013-06"},"primaryCompletionDateStruct":{"date":"2014-10","type":"ACTUAL"},"completionDateStruct":{"date":"2014-10","type":"ACTUAL"},"studyFirstSubmitDate":"2013-09-29","studyFirstSubmitQcDate":"2013-10-07","studyFirstPostDateStruct":{"date":"2013-10-09","type":"ESTIMATED"},"lastUpdateSubmitDate":"2014-12-23","lastUpdatePostDateStruct":{"date":"2014-12-24","type":"ESTIMATED"}},"sponsorCollaboratorsModule":{"responsibleParty":{"type":"SPONSOR"},"leadSponsor":{"name":"Jiangsu Kanion Pharmaceutical Co., Ltd","class":"INDUSTRY"},"collaborators":[{"name":"Beijing Bionovo Medicine Development Co., Ltd.","class":"OTHER"}]},"oversightModule":{"oversightHasDmc":false},"descriptionModule":{"briefSummary":"The aim of this study is to evaluate the safety of Ginkgolides Meglumine Injection in the treatment of ischemic stroke with Syndrome of Intermingled Phlegm and Blood Stasis.","detailedDescription":"Ginkgolides Meglumine Injection was jointly developed by China Pharmaceutical University and Jiangsu Kanion Pharmaceutical Co., Ltd. Its pharmacal ingredients are ginkgo lactones , ginkgo lactone B, ginkgo lactone K, etc; Excipients for meglumine, citric acid, sodium chloride. It is used to treat stroke (mild-to-moderate cerebral infarction) in recovery phlegm and Syndrome of Intermingled Phlegm and Blood Stasis.\n\nThe aim of this study is to evaluate the safety of Ginkgolides Meglumine Injection in the treatment of ischemic stroke with Syndrome of Intermingled Phlegm and Blood Stasis."},"conditionsModule":{"conditions":["Ischemic Stroke"],"keywords":["ischemic stroke","safety","Ginkgolides Meglumine Injection"]},"designModule":{"studyType":"INTERVENTIONAL","phases":["PHASE4"],"designInfo":{"allocation":"NA","interventionModel":"SINGLE_GROUP","primaryPurpose":"TREATMENT","maskingInfo":{"masking":"NONE"}},"enrollmentInfo":{"count":6300,"type":"ACTUAL"}},"armsInterventionsModule":{"armGroups":[{"label":"Ginkgolides Meglumine Injection","type":"EXPERIMENTAL","description":"Intravenous drip slowly. A 1 (25 mg), will be taken slowly into the 0.9% sodium chloride injection diluted in 250 ml before use, then slow intravenous drip, once a day. The dripping speed must be strictly controlled. For the first time when using, dripping speed should be controlled for 10 \\~ 15 drops per minute. After 30 minutes treatment without discomfort, dripping speed can be appropriately increased, but no more than 30 drops per minute.","interventionNames":["Drug: Ginkgolides Meglumine Injection"]}],"interventions":[{"type":"DRUG","name":"Ginkgolides Meglumine Injection","description":"25mg, intravenous drip, once a day. Number of Cycles: 14 days.","armGroupLabels":["Ginkgolides Meglumine Injection"]}]},"outcomesModule":{"primaryOutcomes":[{"measure":"Adverse Events","timeFrame":"14 days"}],"secondaryOutcomes":[{"measure":"vital signs after 10 minutes of stasis.","timeFrame":"0，14 days"},{"measure":"Blood routine tests","timeFrame":"0, 14 days"},{"measure":"ECG","timeFrame":"0, 14 days"},{"measure":"Patient- reported outcomes,PRO","timeFrame":"0, 14 days"},{"measure":"liver function tests","timeFrame":"0, 14 days"},{"measure":"kidney function tests","timeFrame":"0, 14 days"},{"measure":"urine routine tests","timeFrame":"0, 14 days"},{"measure":"stool routine +occult blood tests","timeFrame":"0, 14 days"},{"measure":"Coagulation function tests","timeFrame":"0, 14 days"}],"otherOutcomes":[{"measure":"NIH Stroke Scale，NIHSS","timeFrame":"baseline"}]},"eligibilityModule":{"eligibilityCriteria":"Inclusion Criteria:\n\n* patients according to diagnostic standards on western medical ischemic stroke;\n* patients according to diagnostic standards on Chinese medical attack to meridians;\n* patients according to differentiation standards on syndrome of intermingled phlegm and blood stasis;\n* 2 weeks to 6 months after attack;\n* Age between 18-80 years;\n* patients must volunteer to participate in this study and sign the informed consent form.\n\nExclusion Criteria:\n\n* patients accompanying unconsciousness or severe dementia;\n* ALT, AST≥2 times of upper limit of normal;\n* patients with other severe diseases such as disease in circulatory system, hematopoietic system, digestive system, endocrine system etc;\n* patients allergic to Ginkgo biloba drugs，Meglumine and meglumine agents;\n* patients who are pregnant, lactating or planning for pregnancy;\n* patients with insanity;\n* patients who are not suitable for clinical trial under doctors' consideration;\n* patients with Merge bleeding after infarction or patients with hemorrhagic tendency;\n* patients with lower extremity venous thrombosis;\n* patients who have participated in other clinical trial within 1 month.","healthyVolunteers":false,"sex":"ALL","minimumAge":"18 Years","maximumAge":"80 Years","stdAges":["ADULT","OLDER_ADULT"]},"contactsLocationsModule":{"overallOfficials":[{"name":"Gao Ying, Doctor","affiliation":"Dongzhimen Hospital, Beijing","role":"PRINCIPAL_INVESTIGATOR"},{"name":"Zhou Li","affiliation":"Dongzhimen Hospital, Beijing","role":"PRINCIPAL_INVESTIGATOR"}],"locations":[{"facility":"CN051","city":"Anyang","zip":"455000","country":"China","geoPoint":{"lat":36.096,"lon":114.38278}},{"facility":"CN071","city":"Baoding","zip":"071000","country":"China","geoPoint":{"lat":38.85111,"lon":115.49028}},{"facility":"CN072","city":"Baoding","zip":"071000","country":"China","geoPoint":{"lat":38.85111,"lon":115.49028}},{"facility":"CN073","city":"Baoding","zip":"071000","country":"China","geoPoint":{"lat":38.85111,"lon":115.49028}},{"facility":"CN027","city":"Baotou","zip":"014016","country":"China","geoPoint":{"lat":40.65222,"lon":109.82222}},{"facility":"CN054","city":"Baotou","zip":"150200","country":"China","geoPoint":{"lat":40.65222,"lon":109.82222}},{"facility":"CN001","city":"Beijing","zip":"100007","country":"China","geoPoint":{"lat":39.9075,"lon":116.39723}},{"facility":"CN083","city":"Beijing","zip":"100029","country":"China","geoPoint":{"lat":39.9075,"lon":116.39723}},{"facility":"CN050","city":"Binzhou","zip":"256603","country":"China","geoPoint":{"lat":37.36667,"lon":118.01667}},{"facility":"CN080","city":"Cangzhou","zip":"06100","country":"China","geoPoint":{"lat":38.31667,"lon":116.86667}},{"facility":"CN041","city":"Changchun","zip":"130000","country":"China","geoPoint":{"lat":43.88,"lon":125.32278}},{"facility":"CN043","city":"Changchun","zip":"130022","country":"China","geoPoint":{"lat":43.88,"lon":125.32278}},{"facility":"CN029","city":"Changzhi","zip":"046011","country":"China","geoPoint":{"lat":35.20889,"lon":111.73861}},{"facility":"CN079","city":"Chenzhou","zip":"423000","country":"China","geoPoint":{"lat":25.8,"lon":113.03333}},{"facility":"CN007","city":"Dalian","zip":"116021","country":"China","geoPoint":{"lat":38.91222,"lon":121.60222}},{"facility":"CN044","city":"Daqing","zip":"163000","country":"China","geoPoint":{"lat":46.58333,"lon":125.0}},{"facility":"CN018","city":"Daqing","zip":"163001","country":"China","geoPoint":{"lat":46.58333,"lon":125.0}},{"facility":"CN063","city":"Ha'erbin","zip":"150001","country":"China","geoPoint":{"lat":31.8696,"lon":101.742}},{"facility":"CN045","city":"Ha'erbin","zip":"150040","country":"China","geoPoint":{"lat":31.8696,"lon":101.742}},{"facility":"CN059","city":"Ha'erbin","zip":"150056","country":"China","geoPoint":{"lat":31.8696,"lon":101.742}},{"facility":"CN046","city":"Ha'erbin","zip":"150076","country":"China","geoPoint":{"lat":31.8696,"lon":101.742}},{"facility":"CN076","city":"Ha'erbin","zip":"150080","country":"China","geoPoint":{"lat":31.8696,"lon":101.742}},{"facility":"CN078","city":"Handan","zip":"056001","country":"China","geoPoint":{"lat":36.60056,"lon":114.46778}},{"facility":"CN035","city":"Hefei","zip":"230022","country":"China","geoPoint":{"lat":31.86389,"lon":117.28083}},{"facility":"CN036","city":"Hefei","zip":"230061","country":"China","geoPoint":{"lat":31.86389,"lon":117.28083}},{"facility":"CN024","city":"Hegang","zip":"154100","country":"China","geoPoint":{"lat":47.35118,"lon":130.30012}},{"facility":"CN025","city":"Hegang","zip":"154100","country":"China","geoPoint":{"lat":47.35118,"lon":130.30012}},{"facility":"CN042","city":"Hegang","zip":"154211","country":"China","geoPoint":{"lat":47.35118,"lon":130.30012}},{"facility":"CN052","city":"Hengshui","zip":"053000","country":"China","geoPoint":{"lat":37.73222,"lon":115.70111}},{"facility":"CN002","city":"Hengyang","zip":"421001","country":"China","geoPoint":{"lat":26.88946,"lon":112.61888}},{"facility":"CN070","city":"Huaihua","zip":"418000","country":"China","geoPoint":{"lat":27.56337,"lon":110.00404}},{"facility":"CN084","city":"Huaihua","zip":"418000","country":"China","geoPoint":{"lat":27.56337,"lon":110.00404}},{"facility":"CN077","city":"Huanggang","zip":"438000","country":"China","geoPoint":{"lat":23.67704,"lon":116.99961}},{"facility":"CN026","city":"Huhehaote","zip":"010010","country":"China"},{"facility":"CN069","city":"Ji'an","zip":"343000","country":"China","geoPoint":{"lat":27.11716,"lon":114.97927}},{"facility":"CN085","city":"Ji'an","zip":"343000","country":"China","geoPoint":{"lat":27.11716,"lon":114.97927}},{"facility":"CN040","city":"Jiamusi","country":"China","geoPoint":{"lat":46.79927,"lon":130.31633}},{"facility":"CN062","city":"Jilin","zip":"132000","country":"China","geoPoint":{"lat":43.85083,"lon":126.56028}},{"facility":"CN022","city":"Jilin","zip":"132011","country":"China","geoPoint":{"lat":43.85083,"lon":126.56028}},{"facility":"CN058","city":"Jilin","zip":"132011","country":"China","geoPoint":{"lat":43.85083,"lon":126.56028}},{"facility":"CN030","city":"Jinan","zip":"250012","country":"China","geoPoint":{"lat":36.66833,"lon":116.99722}},{"facility":"CN021","city":"Jingdezhen","zip":"333003","country":"China","geoPoint":{"lat":29.2947,"lon":117.20789}},{"facility":"CN057","city":"Jinzhou","zip":"121000","country":"China","geoPoint":{"lat":41.10778,"lon":121.14167}},{"facility":"CN075","city":"Jiujiang","zip":"332000","country":"China","geoPoint":{"lat":29.70475,"lon":116.00206}},{"facility":"CN088","city":"Jiujiang","zip":"332000","country":"China","geoPoint":{"lat":29.70475,"lon":116.00206}},{"facility":"CN014","city":"Kaifeng","zip":"475099","country":"China","geoPoint":{"lat":34.7986,"lon":114.30742}},{"facility":"CN055","city":"Lianyungang","zip":"222002","country":"China","geoPoint":{"lat":34.59845,"lon":119.21556}},{"facility":"CN013","city":"Luohe","zip":"462099","country":"China","geoPoint":{"lat":33.56394,"lon":114.04272}},{"facility":"CN087","city":"Luoyang","zip":"471000","country":"China","geoPoint":{"lat":34.68361,"lon":112.45361}},{"facility":"CN074","city":"Luoyang","zip":"471003","country":"China","geoPoint":{"lat":34.68361,"lon":112.45361}},{"facility":"CN056","city":"Mudanjiang","zip":"157000","country":"China","geoPoint":{"lat":44.58333,"lon":129.6}},{"facility":"CN060","city":"Mudanjiang","zip":"157000","country":"China","geoPoint":{"lat":44.58333,"lon":129.6}},{"facility":"CN061","city":"Mudanjiang","zip":"157000","country":"China","geoPoint":{"lat":44.58333,"lon":129.6}},{"facility":"CN068","city":"Nanchang","zip":"330200","country":"China","geoPoint":{"lat":28.68396,"lon":115.85306}},{"facility":"CN003","city":"Nanjing","zip":"210005","country":"China","geoPoint":{"lat":32.06167,"lon":118.77778}},{"facility":"CN049","city":"Sanming","zip":"365000","country":"China","geoPoint":{"lat":26.24861,"lon":117.61861}},{"facility":"CN048","city":"Shenyang","zip":"110000","country":"China","geoPoint":{"lat":41.79222,"lon":123.43278}},{"facility":"CN008","city":"Shenyang","zip":"110032","country":"China","geoPoint":{"lat":41.79222,"lon":123.43278}},{"facility":"CN006","city":"Shenyang","zip":"110034","country":"China","geoPoint":{"lat":41.79222,"lon":123.43278}},{"facility":"CN017","city":"Shenyang","zip":"110091","country":"China","geoPoint":{"lat":41.79222,"lon":123.43278}},{"facility":"CN005","city":"Shenzhen","zip":"518034","country":"China","geoPoint":{"lat":22.54554,"lon":114.0683}},{"facility":"CN023","city":"Siping","zip":"136099","country":"China","geoPoint":{"lat":43.16143,"lon":124.37785}},{"facility":"CN016","city":"Suihua","zip":"151100","country":"China","geoPoint":{"lat":46.63954,"lon":126.99508}},{"facility":"CN028","city":"Taiyuan","zip":"030001","country":"China","geoPoint":{"lat":37.86944,"lon":112.56028}},{"facility":"CN020","city":"Tangshan","zip":"063001","country":"China","geoPoint":{"lat":39.63333,"lon":118.18333}},{"facility":"CN019","city":"Tangshan","zip":"063003","country":"China","geoPoint":{"lat":39.63333,"lon":118.18333}},{"facility":"CN034","city":"Tianjin","zip":"300100","country":"China","geoPoint":{"lat":39.14222,"lon":117.17667}},{"facility":"CN033","city":"Tianjin","zip":"300192","country":"China","geoPoint":{"lat":39.14222,"lon":117.17667}},{"facility":"CN082","city":"Wuhan","zip":"430060","country":"China","geoPoint":{"lat":30.58333,"lon":114.26667}},{"facility":"CN032","city":"Wuhan","zip":"430080","country":"China","geoPoint":{"lat":30.58333,"lon":114.26667}},{"facility":"CN012","city":"Xi'an","zip":"710001","country":"China","geoPoint":{"lat":34.25833,"lon":108.92861}},{"facility":"CN010","city":"Xi'an","zip":"710054","country":"China","geoPoint":{"lat":34.25833,"lon":108.92861}},{"facility":"CN031","city":"Xianning","zip":"437099","country":"China","geoPoint":{"lat":29.84347,"lon":114.32201}},{"facility":"CN011","city":"Xianyang","zip":"712021","country":"China","geoPoint":{"lat":34.33778,"lon":108.70261}},{"facility":"CN009","city":"Xianyang","zip":"712099","country":"China","geoPoint":{"lat":34.33778,"lon":108.70261}},{"facility":"CN064","city":"Xinyu","zip":"338000","country":"China","geoPoint":{"lat":27.80429,"lon":114.93335}},{"facility":"CN065","city":"Xinyu","zip":"338025","country":"China","geoPoint":{"lat":27.80429,"lon":114.93335}},{"facility":"CN004","city":"Yancheng","zip":"224001","country":"China","geoPoint":{"lat":33.3575,"lon":120.1573}},{"facility":"CN066","city":"Yichun","zip":"336000","country":"China","geoPoint":{"lat":47.72143,"lon":128.87529}},{"facility":"CN067","city":"Yichun","zip":"336000","country":"China","geoPoint":{"lat":47.72143,"lon":128.87529}},{"facility":"CN047","city":"Yiyang","zip":"413000","country":"China","geoPoint":{"lat":28.58917,"lon":112.32833}},{"facility":"CN038","city":"Yuncheng","zip":"044000","country":"China","geoPoint":{"lat":35.02306,"lon":110.99278}},{"facility":"CN039","city":"Zhenjiang","zip":"212001","country":"China","geoPoint":{"lat":32.21086,"lon":119.45508}},{"facility":"CN015","city":"Zhumadian","zip":"463000","country":"China","geoPoint":{"lat":32.97944,"lon":114.02944}},{"facility":"CN081","city":"Zhuozhou","zip":"072750","country":"China","geoPoint":{"lat":39.48111,"lon":115.96333}},{"facility":"CN053","city":"Zibo","zip":"255000","country":"China","geoPoint":{"lat":36.79056,"lon":118.06333}}]}},"derivedSection":{"miscInfoModule":{"versionHolder":"2024-02-14"},"conditionBrowseModule":{"meshes":[{"id":"D000020521","term":"Stroke"},{"id":"D000083242","term":"Ischemic Stroke"},{"id":"D000002544","term":"Cerebral Infarction"},{"id":"D000007511","term":"Ischemia"}],"ancestors":[{"id":"D000002561","term":"Cerebrovascular Disorders"},{"id":"D000001927","term":"Brain Diseases"},{"id":"D000002493","term":"Central Nervous System Diseases"},{"id":"D000009422","term":"Nervous System Diseases"},{"id":"D000014652","term":"Vascular Diseases"},{"id":"D000002318","term":"Cardiovascular Diseases"},{"id":"D000010335","term":"Pathologic Processes"},{"id":"D000020520","term":"Brain Infarction"},{"id":"D000002545","term":"Brain Ischemia"},{"id":"D000007238","term":"Infarction"},{"id":"D000009336","term":"Necrosis"}],"browseLeaves":[{"id":"M21996","name":"Stroke","asFound":"Stroke","relevance":"HIGH"},{"id":"M10233","name":"Ischemia","asFound":"Ischemic","relevance":"HIGH"},{"id":"M2401","name":"Ischemic Stroke","asFound":"Ischemic Stroke","relevance":"HIGH"},{"id":"M16045","name":"Syndrome","relevance":"LOW"},{"id":"M9972","name":"Infarction","relevance":"LOW"},{"id":"M5483","name":"Cerebral Infarction","asFound":"Ischemic Stroke","relevance":"HIGH"},{"id":"M5500","name":"Cerebrovascular Disorders","relevance":"LOW"},{"id":"M4894","name":"Brain Diseases","relevance":"LOW"},{"id":"M5432","name":"Central Nervous System Diseases","relevance":"LOW"},{"id":"M17090","name":"Vascular Diseases","relevance":"LOW"},{"id":"M21995","name":"Brain Infarction","relevance":"LOW"},{"id":"M5484","name":"Brain Ischemia","relevance":"LOW"},{"id":"M11974","name":"Necrosis","relevance":"LOW"}],"browseBranches":[{"abbrev":"BC10","name":"Nervous System Diseases"},{"abbrev":"BC14","name":"Heart and Blood Diseases"},{"abbrev":"All","name":"All Conditions"},{"abbrev":"BC23","name":"Symptoms and General Pathology"}]}},"hasResults":false}