{"protocolSection":{"identificationModule":{"nctId":"NCT03685578","nctIdAliases":["NCT05591183"],"orgStudyIdInfo":{"id":"CNV_2017_02"},"organization":{"fullName":"Cerenovus, Part of DePuy Synthes Products, Inc.","class":"INDUSTRY"},"briefTitle":"CERENOVUS Neurothrombectomy Devices Registry","officialTitle":"Embotrap eXtraction & Clot EvaLuation & Lesion Evaluation for NeuroThrombectomy","acronym":"EXCELLENT"},"statusModule":{"statusVerifiedDate":"2024-01","overallStatus":"RECRUITING","expandedAccessInfo":{"hasExpandedAccess":false},"startDateStruct":{"date":"2018-09-28","type":"ACTUAL"},"primaryCompletionDateStruct":{"date":"2024-07-01","type":"ESTIMATED"},"completionDateStruct":{"date":"2024-10-01","type":"ESTIMATED"},"studyFirstSubmitDate":"2018-09-07","studyFirstSubmitQcDate":"2018-09-25","studyFirstPostDateStruct":{"date":"2018-09-26","type":"ACTUAL"},"lastUpdateSubmitDate":"2024-01-02","lastUpdatePostDateStruct":{"date":"2024-01-03","type":"ACTUAL"}},"sponsorCollaboratorsModule":{"responsibleParty":{"type":"SPONSOR"},"leadSponsor":{"name":"Cerenovus, Part of DePuy Synthes Products, Inc.","class":"INDUSTRY"}},"oversightModule":{"oversightHasDmc":false,"isFdaRegulatedDrug":false,"isFdaRegulatedDevice":true},"descriptionModule":{"briefSummary":"A post-market registry evaluating the EmboTrap® Revascularization Device and CERENOVUS Large Bore Catheter/ EMBOVAC Aspiration Catheter in acute ischemic stroke patients with confirmed intracranial large vessel occlusion.","detailedDescription":"The objective of this study are to separately assess the effectiveness of the CERENOVUS neurothrombectomy devices (EmboTrap® Revascularization Device, and Large Bore Catheter/EMBOVAC Aspiration Catheter) in a real-world setting, as well as to explore correlations between patient comorbidities, clot characteristics, revascularization rates, and clinical outcomes.."},"conditionsModule":{"conditions":["Cerebral Stroke"],"keywords":["Mechanical thrombectomy, EmboTrap, Embovac"]},"designModule":{"studyType":"OBSERVATIONAL","patientRegistry":false,"designInfo":{"observationalModel":"CASE_ONLY","timePerspective":"PROSPECTIVE"},"bioSpec":{"retention":"SAMPLES_WITHOUT_DNA","description":"thrombus / clot"},"enrollmentInfo":{"count":2000,"type":"ESTIMATED"}},"armsInterventionsModule":{"armGroups":[{"label":"Mechanical Thrombectomy","description":"EmboTrap® Revascularization Device, CERENOVUS Large Bore Catheter/ EMBOVAC Aspiration Catheter","interventionNames":["Device: EmboTrap® Revascularization Device","Device: CERENOVUS Large Bore Catheter/ EMBOVAC Aspiration Catheter"]}],"interventions":[{"type":"DEVICE","name":"EmboTrap® Revascularization Device","description":"EmboTrap® Revascularization Device","armGroupLabels":["Mechanical Thrombectomy"]},{"type":"DEVICE","name":"CERENOVUS Large Bore Catheter/ EMBOVAC Aspiration Catheter","description":"CERENOVUS Large Bore Catheter/ EMBOVAC Aspiration Catheter","armGroupLabels":["Mechanical Thrombectomy"]}]},"outcomesModule":{"primaryOutcomes":[{"measure":"Successful Revascularization","description":"Assess cerebral revascularization using the modified Thrombolysis in Cerebral Infarction (mTICI) score at the end of the procedure.","timeFrame":"1 day"}],"secondaryOutcomes":[{"measure":"All-Cause Mortality","description":"Summary of all mortality regardless of cause at 90 days post-procedure.","timeFrame":"90 days"},{"measure":"Symptomatic Intracerebral Hemorrhage","description":"Rate of intracranial hemorrhage as detected by brain imaging (CT/MR) measured 24 hours after intervention","timeFrame":"24 hours"},{"measure":"Functional Independence","description":"Modified Rankin Scale (mRS) of ≤ 2\n\nModified Rankin Score (Scale from 0-6):\n\n0 - No symptoms.\n\n1. - No significant disability. Able to carry out all usual activities, despite some symptoms.\n2. - Slight disability. Able to look after own affairs without assistance, but unable to carry out all previous activities.\n3. - Moderate disability. Requires some help, but able to walk unassisted.\n4. - Moderately severe disability. Unable to attend to own bodily needs without assistance, and unable to walk unassisted.\n5. - Severe disability. Requires constant nursing care and attention, bedridden, incontinent.\n6. - Dead","timeFrame":"90 days"}]},"eligibilityModule":{"eligibilityCriteria":"Inclusion Criteria:\n\n1. Age ≥ 18\n2. The participant or the participant's legally authorized representative has signed and dated an Informed Consent Form. In the event that local regulations allow for alternative approaches of consent, these must be fulfilled as approved by the sponsor and site's ethics committee/regulatory authority (if applicable)\n3. Participants experiencing acute ischemic stroke with angiographic confirmation of Large Vessel Occlusion (LVO)\n4. A clinical decision has been made to use a CERENOVUS neurothrombectomy device (EmboTrap® Revascularization Device and/or Large Bore Catheter/EMBOVAC Aspiration Catheter) independently and prior to enrollment in the research study\n5. A CERENOVUS neurothrombectomy device is the first attempted primary device/technique for mechanical thrombectomy for the intracranial occlusion in the participant. The following primary devices/techniques are eligible for this study: a) EmboTrap® Revascularization Device alone b) EmboTrap® Revascularization Device + co-aspiration with the Large Bore Catheter/EMBOVAC Aspiration Catheter c) EmboTrap® Revascularization Device + co-aspiration with any other aspiration catheter d) Large Bore Catheter/EMBOVAC Aspiration Catheter alone (that is, direct aspiration with no stent retriever in the first attempted technique)\n\nExclusion Criteria:\n\n1. Currently participating in an investigational (drug, device, etc) clinical trial that may confound study endpoints. Patients in observational, natural history, and/or epidemiological studies not involving intervention are eligible\n2. Confirmation of positive pregnancy test according to site specific standard of care (example, test, verbal communication)","healthyVolunteers":false,"sex":"ALL","minimumAge":"18 Years","stdAges":["ADULT","OLDER_ADULT"],"studyPopulation":"Acute Ischemic Stroke patients with confirmed intracranial Large Vessel Occlusion.","samplingMethod":"NON_PROBABILITY_SAMPLE"},"contactsLocationsModule":{"centralContacts":[{"name":"Erin O'Carroll- Godinez","role":"CONTACT","phone":"+1 949-433-9824","email":"EOCarro3@its.jnj.com"}],"overallOfficials":[{"name":"Adnan Siddiqui, MD, PhD","affiliation":"University at Buffalo","role":"PRINCIPAL_INVESTIGATOR"},{"name":"Tommy Andersson, MD, PhD","affiliation":"AZ Groeninge/ Karolinska University Hospital","role":"PRINCIPAL_INVESTIGATOR"},{"name":"Raul G Nogueira, MD","affiliation":"Grady Health","role":"PRINCIPAL_INVESTIGATOR"}],"locations":[{"facility":"The University of Alabama at Birmingham","status":"RECRUITING","city":"Birmingham","state":"Alabama","zip":"35294","country":"United States","geoPoint":{"lat":33.52066,"lon":-86.80249}},{"facility":"Banner Desert Medical Center","status":"RECRUITING","city":"Mesa","state":"Arizona","zip":"85202","country":"United States","geoPoint":{"lat":33.42227,"lon":-111.82264}},{"facility":"Barrow Neurological Institute at St. Joseph's Hospital","status":"RECRUITING","city":"Phoenix","state":"Arizona","zip":"85013","country":"United States","geoPoint":{"lat":33.44838,"lon":-112.07404}},{"facility":"Vascular Neurology of Southern California: Dr. M. Asif Taqi","status":"RECRUITING","city":"Thousand Oaks","state":"California","zip":"91360","country":"United States","geoPoint":{"lat":34.17056,"lon":-118.83759}},{"facility":"Memorial Regional Hospital","status":"RECRUITING","city":"Hollywood","state":"Florida","zip":"33021","country":"United States","geoPoint":{"lat":26.0112,"lon":-80.14949}},{"facility":"Baptist Medical Center","status":"RECRUITING","city":"Jacksonville","state":"Florida","zip":"32207","country":"United States","geoPoint":{"lat":30.33218,"lon":-81.65565}},{"facility":"Lyerly Neurosurgery Baptist Health","status":"RECRUITING","city":"Jacksonville","state":"Florida","zip":"32207","country":"United States","contacts":[{"name":"Ricardo Hanel","role":"PRINCIPAL_INVESTIGATOR"}],"geoPoint":{"lat":30.33218,"lon":-81.65565}},{"facility":"University of Miami- Jackson Memorial Hospital","status":"RECRUITING","city":"Miami","state":"Florida","zip":"33133","country":"United States","geoPoint":{"lat":25.77427,"lon":-80.19366}},{"facility":"Advent Health Orlando","status":"RECRUITING","city":"Orlando","state":"Florida","zip":"32803","country":"United States","geoPoint":{"lat":28.53834,"lon":-81.37924}},{"facility":"Emory School of Medicine at Grady Memorial Hospital","status":"RECRUITING","city":"Atlanta","state":"Georgia","zip":"30303","country":"United States","geoPoint":{"lat":33.749,"lon":-84.38798}},{"facility":"WellStar Health System","status":"RECRUITING","city":"Marietta","state":"Georgia","zip":"30060","country":"United States","geoPoint":{"lat":33.9526,"lon":-84.54993}},{"facility":"Norton Neurology Institute","status":"RECRUITING","city":"Elizabethtown","state":"Kentucky","zip":"42701","country":"United States","contacts":[{"name":"Shervin Dashti","role":"PRINCIPAL_INVESTIGATOR"}],"geoPoint":{"lat":37.69395,"lon":-85.85913}},{"facility":"Norton Healthcare","status":"RECRUITING","city":"Louisville","state":"Kentucky","zip":"40241","country":"United States","geoPoint":{"lat":38.25424,"lon":-85.75941}},{"facility":"University of Massachusetts","status":"RECRUITING","city":"Worcester","state":"Massachusetts","zip":"30303","country":"United States","geoPoint":{"lat":42.26259,"lon":-71.80229}},{"facility":"Vanderbilt University Medical Center","status":"RECRUITING","city":"Nashville","state":"Missouri","zip":"37232","country":"United States","geoPoint":{"lat":37.3745,"lon":-94.49079}},{"facility":"Washington University in St. Louis","status":"RECRUITING","city":"Saint Louis","state":"Missouri","zip":"63110","country":"United States","geoPoint":{"lat":38.62727,"lon":-90.19789}},{"facility":"Jacobs Institute/UB Neurosurgery, Inc.","status":"RECRUITING","city":"Buffalo","state":"New York","zip":"14203","country":"United States","geoPoint":{"lat":42.88645,"lon":-78.87837}},{"facility":"Icahn School of Medicine at Mount Sinai","status":"RECRUITING","city":"New York","state":"New York","zip":"10029","country":"United States","geoPoint":{"lat":40.71427,"lon":-74.00597}},{"facility":"Cleveland Clinic","status":"RECRUITING","city":"Cleveland","state":"Ohio","zip":"44195","country":"United States","geoPoint":{"lat":41.4995,"lon":-81.69541}},{"facility":"Ohio Health","status":"RECRUITING","city":"Columbus","state":"Ohio","zip":"43214","country":"United States","geoPoint":{"lat":39.96118,"lon":-82.99879}},{"facility":"Mercy Health St Vincent Medical Center","status":"RECRUITING","city":"Toledo","state":"Ohio","zip":"43608","country":"United States","geoPoint":{"lat":41.66394,"lon":-83.55521}},{"facility":"Oregon Health & Science University","status":"RECRUITING","city":"Portland","state":"Oregon","zip":"97201","country":"United States","geoPoint":{"lat":45.52345,"lon":-122.67621}},{"facility":"Geisinger Clinic","status":"RECRUITING","city":"Danville","state":"Pennsylvania","zip":"17822","country":"United States","geoPoint":{"lat":40.96342,"lon":-76.61273}},{"facility":"Geisinger","status":"RECRUITING","city":"Danville","state":"Pennsylvania","zip":"17822","country":"United States","contacts":[{"name":"Chelsie Derr","role":"CONTACT","email":"cmderr1@geisinger.edu"},{"name":"Clemens Schirmer, MD, PhD","role":"PRINCIPAL_INVESTIGATOR"}],"geoPoint":{"lat":40.96342,"lon":-76.61273}},{"facility":"Thomas Jefferson University","status":"RECRUITING","city":"Philadelphia","state":"Pennsylvania","zip":"19107","country":"United States","geoPoint":{"lat":39.95233,"lon":-75.16379}},{"facility":"TNVI","status":"RECRUITING","city":"Knoxville","state":"Tennessee","zip":"37902","country":"United States","geoPoint":{"lat":35.96064,"lon":-83.92074}},{"facility":"University of Tennessee Medical Center","status":"RECRUITING","city":"Knoxville","state":"Tennessee","zip":"37920","country":"United States","geoPoint":{"lat":35.96064,"lon":-83.92074}},{"facility":"Semmes Murphey Foundation","status":"RECRUITING","city":"Memphis","state":"Tennessee","zip":"38120","country":"United States","geoPoint":{"lat":35.14953,"lon":-90.04898}},{"facility":"University of Texas Houston","status":"RECRUITING","city":"Houston","state":"Texas","zip":"77030","country":"United States","geoPoint":{"lat":29.76328,"lon":-95.36327}},{"facility":"Texas Stroke Institute","status":"RECRUITING","city":"Plano","state":"Texas","zip":"75075","country":"United States","geoPoint":{"lat":33.01984,"lon":-96.69889}},{"facility":"Az Groeninge","status":"RECRUITING","city":"Kortrijk","zip":"8500","country":"Belgium","geoPoint":{"lat":50.82803,"lon":3.26487}},{"facility":"Hopital Roger Salengro - CHU Lille","status":"RECRUITING","city":"Lille","zip":"59037","country":"France","geoPoint":{"lat":50.63297,"lon":3.05858}},{"facility":"Klinikum Dortmund gGmbH","status":"RECRUITING","city":"Dortmund","zip":"44137","country":"Germany","geoPoint":{"lat":51.51494,"lon":7.466}},{"facility":"Universitaetsklinikum Hamburg Eppendorf","status":"RECRUITING","city":"Hamburg","zip":"20246","country":"Germany","geoPoint":{"lat":53.57532,"lon":10.01534}},{"facility":"Universitaetsmedizin Mainz","status":"RECRUITING","city":"Mainz","zip":"55101","country":"Germany","geoPoint":{"lat":49.98419,"lon":8.2791}},{"facility":"Radprax MVZ Nordrhein GmbH","status":"RECRUITING","city":"Solingen","zip":"42651","country":"Germany","geoPoint":{"lat":51.17343,"lon":7.0845}},{"facility":"Hadassah Medical Center","status":"RECRUITING","city":"Jerusalem","zip":"91120","country":"Israel","geoPoint":{"lat":31.76904,"lon":35.21633}},{"facility":"Kantonsspital Aarau","status":"RECRUITING","city":"Aarau","zip":"5001","country":"Switzerland","geoPoint":{"lat":47.39254,"lon":8.04422}},{"facility":"Centre Hospitalier Universitaire Vaudois (CHUV)","status":"RECRUITING","city":"Lausanne","zip":"CH-1011","country":"Switzerland","geoPoint":{"lat":46.516,"lon":6.63282}},{"facility":"Charing Cross Hospital","status":"RECRUITING","city":"London","zip":"W6 8RF","country":"United Kingdom","geoPoint":{"lat":51.50853,"lon":-0.12574}}]},"referencesModule":{"references":[{"pmid":"34645704","type":"DERIVED","citation":"Siddiqui AH, Waqas M, Brinjikji W, De Meyer SF, Doyle K, Fiehler J, Hacke W, Hanel RA, Jovin TG, Liebeskind DS, Yoo AJ, Zaidat OO, Andersson T, Nogueira RG. Embotrap Extraction & Clot Evaluation & Lesion Evaluation for NeuroThrombectomy (EXCELLENT) Registry design and methods. J Neurointerv Surg. 2022 Aug;14(8):783-787. doi: 10.1136/neurintsurg-2021-017671. Epub 2021 Oct 13."}]}},"derivedSection":{"miscInfoModule":{"versionHolder":"2024-02-14"},"conditionBrowseModule":{"meshes":[{"id":"D000020521","term":"Stroke"}],"ancestors":[{"id":"D000002561","term":"Cerebrovascular Disorders"},{"id":"D000001927","term":"Brain Diseases"},{"id":"D000002493","term":"Central Nervous System Diseases"},{"id":"D000009422","term":"Nervous System Diseases"},{"id":"D000014652","term":"Vascular Diseases"},{"id":"D000002318","term":"Cardiovascular Diseases"}],"browseLeaves":[{"id":"M21996","name":"Stroke","asFound":"Cerebral Stroke","relevance":"HIGH"},{"id":"M5500","name":"Cerebrovascular Disorders","relevance":"LOW"},{"id":"M4894","name":"Brain Diseases","relevance":"LOW"},{"id":"M5432","name":"Central Nervous System Diseases","relevance":"LOW"},{"id":"M17090","name":"Vascular Diseases","relevance":"LOW"}],"browseBranches":[{"abbrev":"BC10","name":"Nervous System Diseases"},{"abbrev":"BC14","name":"Heart and Blood Diseases"},{"abbrev":"All","name":"All Conditions"}]}},"hasResults":false}