{"protocolSection":{"identificationModule":{"nctId":"NCT01671007","orgStudyIdInfo":{"id":"1160.136"},"organization":{"fullName":"Boehringer Ingelheim","class":"INDUSTRY"},"briefTitle":"GLORIA-AF Registry Program (Phase II/III - EU/EEA Member States)","officialTitle":"GLORIA - AF: Global Registry on Long-Term Oral Anti-thrombotic TReatment In PAtients With Atrial Fibrillation (Phase II/III - EU/EEA Member States)"},"statusModule":{"statusVerifiedDate":"2020-12","overallStatus":"COMPLETED","expandedAccessInfo":{"hasExpandedAccess":false},"startDateStruct":{"date":"2012-08-22","type":"ACTUAL"},"primaryCompletionDateStruct":{"date":"2019-12-13","type":"ACTUAL"},"completionDateStruct":{"date":"2019-12-13","type":"ACTUAL"},"studyFirstSubmitDate":"2012-08-20","studyFirstSubmitQcDate":"2012-08-22","studyFirstPostDateStruct":{"date":"2012-08-23","type":"ESTIMATED"},"resultsFirstSubmitDate":"2020-12-07","resultsFirstSubmitQcDate":"2020-12-07","resultsFirstPostDateStruct":{"date":"2020-12-31","type":"ACTUAL"},"lastUpdateSubmitDate":"2020-12-07","lastUpdatePostDateStruct":{"date":"2020-12-31","type":"ACTUAL"}},"sponsorCollaboratorsModule":{"responsibleParty":{"type":"SPONSOR"},"leadSponsor":{"name":"Boehringer Ingelheim","class":"INDUSTRY"}},"descriptionModule":{"briefSummary":"In this part of the Registry Program patients with non-valvular atrial fibrillation (AF) at risk for stroke are enrolled to characterize the target population and to collect real world data on important outcome events. For administrative purposes the study is divided into two protocol numbers: 1160.129 for non-EU (European Union) and non-EEA (European Economic Area) countries, and 1160.136 for EU and EEA countries. The total number of patients enrolled in both protocols is estimated to be 48,000 patients, and all these patients will be included in the data analysis for study 1160.129."},"conditionsModule":{"conditions":["Stroke","Atrial Fibrillation"]},"designModule":{"studyType":"OBSERVATIONAL","patientRegistry":false,"designInfo":{"observationalModel":"COHORT","timePerspective":"PROSPECTIVE"},"enrollmentInfo":{"count":10471,"type":"ACTUAL"}},"outcomesModule":{"primaryOutcomes":[{"measure":"Incidence Rate of Composite Outcome (Stroke, Systemic Embolism, Myocardial Infarction, Life-threatening Bleeding Events and Vascular Death)","description":"Incidence rate of composite outcome which includes events of Stroke, systemic embolism, myocardial infarction, life-threatening bleeding events and vascular death on restricted set that included Dabigatran etexilate (DE) and Vitamin K Antagonist (VKA) only. In case of multiple events for a patient, the first event was considered. Unknown death was imputed by multiple imputation. The average of the 20 incidence rates from the 20 imputed datasets were used to obtain the point estimate of the incidence rate that is reported here. The bootstrapping approach was used to obtain the 95% confidence interval of the incidence rate.","timeFrame":"From baseline visit until end of initial treatment regimen episode (minimum date of permanent stop of DE + 3 days/ VKA+ 6 days, start date of other treatments - 1 day, and date of study completion/discontinuation), up to 3 years."},{"measure":"Incidence Rate of Vascular Composite Outcome (Stroke, Systemic Embolism, Myocardial Infarction and Vascular Death)","description":"Incidence rate of vascular composite outcome including events of stroke, systemic embolism, myocardial infarction and vascular death on restricted set that included Dabigatran etexilate (DE) and Vitamin K Antagonist (VKA) only. In case of multiple events for a patient, the first event was considered. Unknown death was imputed by multiple imputation. The average of the 20 incidence rates from the 20 imputed datasets were used to obtain the point estimate of the incidence rate that is reported here. The bootstrapping approach was used to obtain the 95% confidence interval of the incidence rate.","timeFrame":"From baseline visit until end of initial treatment regimen episode (minimum date of permanent stop of DE + 3 days/ VKA+ 6 days, start date of other treatments - 1 day, and date of study completion/discontinuation), up to 3 years."},{"measure":"Incidence Rate of Stroke or Systemic Embolism","description":"Incidence rate of stroke or systemic embolism on restricted set that included Dabigatran etexilate (DE) and Vitamin K Antagonist (VKA) only.","timeFrame":"From baseline visit until end of initial treatment regimen episode (minimum date of permanent stop of DE + 3 days/ VKA+ 6 days, start date of other treatments - 1 day, and date of study completion/discontinuation), up to 3 years."},{"measure":"Incidence Rate of Stroke","description":"Incidence rate of stroke on restricted set that included Dabigatran etexilate (DE) and Vitamin K Antagonist (VKA) only. Stroke is an acute onset of a focal neurological deficit of presumed vascular origin lasting for 24 hours or more or resulting in death. The stroke included ischemic or hemorrhagic or uncertain classification.","timeFrame":"From baseline visit until end of initial treatment regimen episode (minimum date of permanent stop of DE + 3 days/ VKA+ 6 days, start date of other treatments - 1 day, and date of study completion/discontinuation), up to 3 years."},{"measure":"Incidence Rate of Transient Ischaemic Attack (TIA)","description":"Incidence rate of transient ischaemic attack (TIA) on restricted set that included Dabigatran etexilate (DE) and Vitamin K Antagonist (VKA) only.","timeFrame":"From baseline visit until end of initial treatment regimen episode (minimum date of permanent stop of DE + 3 days/ VKA+ 6 days, start date of other treatments - 1 day, and date of study completion/discontinuation), up to 3 years."},{"measure":"Incidence Rate of Systemic Embolism (SEE)","description":"Incidence rate of systemic embolism (SEE) on restricted set that included Dabigatran etexilate (DE) and Vitamin K Antagonist (VKA) only.","timeFrame":"From baseline visit until end of initial treatment regimen episode (minimum date of permanent stop of DE + 3 days/ VKA+ 6 days, start date of other treatments - 1 day, and date of study completion/discontinuation), up to 3 years."},{"measure":"Incidence Rate of Pulmonary Embolism (PE)","description":"Incidence rate of pulmonary embolism (PE) on restricted set that included Dabigatran etexilate (DE) and Vitamin K Antagonist (VKA) only.","timeFrame":"From baseline visit until end of initial treatment regimen episode (minimum date of permanent stop of DE + 3 days/ VKA+ 6 days, start date of other treatments - 1 day, and date of study completion/discontinuation), up to 3 years."},{"measure":"Incidence Rate of Major Bleeding Events","description":"Incidence rate of major bleeding events on restricted set that included Dabigatran etexilate (DE) and Vitamin K Antagonist (VKA) only. Major bleeding was defined as meeting one or more of the following criteria: Overt bleeding associated with a reduction in haemoglobin of at least 20 grams per liter or leading to a transfusion of at least 2 units of blood or packed cells; Symptomatic bleeding in a critical area or organ: Intraocular, intracranial, intraspinal or intramuscular with compartment syndrome, retroperitoneal bleeding, intra-articular bleeding or pericardial bleeding; Life-threatening bleeding.","timeFrame":"From baseline visit until end of initial treatment regimen episode (minimum date of permanent stop of DE + 3 days/ VKA+ 6 days, start date of other treatments - 1 day, and date of study completion/discontinuation), up to 3 years."},{"measure":"Incidence Rate of Life-threatening Bleeding Events","description":"Incidence rate of life-threatening bleeding events on restricted set that included Dabigatran etexilate (DE) and Vitamin K Antagonist (VKA) only. Life-threatening bleeding was defined as meeting one or more of the following criteria: Symptomatic intracranial bleed; Reduction in haemoglobin of at least 50 grams per liter; Transfusion of at least 4 units of blood or packed cells, associated with hypotension requiring the use of intravenous inotropic agents; Necessitated surgical intervention; Fatal bleeding.","timeFrame":"From baseline visit until end of initial treatment regimen episode (minimum date of permanent stop of DE + 3 days/ VKA+ 6 days, start date of other treatments - 1 day, and date of study completion/discontinuation), up to 3 years."},{"measure":"Incidence Rate of Vascular Death","description":"Incidence rate of vascular death on restricted set that included Dabigatran etexilate (DE) and Vitamin K Antagonist (VKA) only.","timeFrame":"From baseline visit until end of initial treatment regimen episode (minimum date of permanent stop of DE + 3 days/ VKA+ 6 days, start date of other treatments - 1 day, and date of study completion/discontinuation), up to 3 years."},{"measure":"Incidence Rate of Myocardial Infarction","description":"Incidence rate of myocardial infarction on restricted set that included Dabigatran etexilate (DE) and Vitamin K Antagonist (VKA) only.","timeFrame":"From baseline visit until end of initial treatment regimen episode (minimum date of permanent stop of DE + 3 days/ VKA+ 6 days, start date of other treatments - 1 day, and date of study completion/discontinuation), up to 3 years."},{"measure":"Incidence Rate of All-cause Death","description":"Incidence rate of all-cause death on restricted set that included Dabigatran etexilate (DE) and Vitamin K Antagonist (VKA) only.","timeFrame":"From baseline visit until end of initial treatment regimen episode (minimum date of permanent stop of DE + 3 days/ VKA+ 6 days, start date of other treatments - 1 day, and date of study completion/discontinuation), up to 3 years."}]},"eligibilityModule":{"eligibilityCriteria":"Inclusion criteria:\n\n1. Age =\\>18 years at enrollment\n2. Male or female patient (or legally acceptable representative) willing and able to provide written informed consent\n3. Patient newly diagnosed (\\< 3 months prior to baseline visit) with non-valvular AF and at risk for stroke.\n\nOther inclusion criteria apply.\n\nExclusion criteria:\n\n1. Presence of any mechanical heart valve, or valve disease that is expected to require valve replacement intervention;\n2. Patients who have received more than 60 days of vitamin K antagonist (VKA) treatment in their lifetime;\n3. AF with a generally reversible cause;\n4. Patients with a medical condition other than atrial fibrillation for which chronic use of an oral anticoagulant (for example, a VKA) is indicated Other exclusion criteria apply","healthyVolunteers":false,"sex":"ALL","minimumAge":"18 Years","stdAges":["ADULT","OLDER_ADULT"],"studyPopulation":"patients with non-valvular AF","samplingMethod":"NON_PROBABILITY_SAMPLE"},"contactsLocationsModule":{"overallOfficials":[{"name":"Boehringer Ingelheim","affiliation":"Boehringer Ingelheim","role":"STUDY_CHAIR"}],"locations":[{"facility":"Klinik Pirawarth, Therapie und Rehabilitation, Bad Pirawarth","city":"Bad Pirawarth","zip":"2222","country":"Austria","geoPoint":{"lat":48.45194,"lon":16.59833}},{"facility":"KH der Barmherzigen Schwestern Linz","city":"Linz","zip":"4010","country":"Austria","geoPoint":{"lat":48.30639,"lon":14.28611}},{"facility":"Kepler Univ. Klinikum Linz","city":"Linz","zip":"4021","country":"Austria","geoPoint":{"lat":48.30639,"lon":14.28611}},{"facility":"Ordination Dr. Martin Koschutnik, Oberwart","city":"Oberwart","zip":"7400","country":"Austria","geoPoint":{"lat":47.28971,"lon":16.20595}},{"facility":"KH d. Barmherzigen Brüder Wien, Neurologie","city":"Wien","zip":"1020","country":"Austria","geoPoint":{"lat":48.20849,"lon":16.37208}},{"facility":"AKH - Medical University of Vienna","city":"Wien","zip":"1090","country":"Austria","geoPoint":{"lat":48.20849,"lon":16.37208}},{"facility":"Namur - HOSP St-Luc de Bouge","city":"Bouge/Namur","zip":"5004","country":"Belgium"},{"facility":"AZ Sint-Lucas","city":"Brugge","zip":"8310","country":"Belgium","geoPoint":{"lat":51.20892,"lon":3.22424}},{"facility":"Brussels - HOSP St-Jan","city":"Brussel","zip":"1000","country":"Belgium","geoPoint":{"lat":50.85045,"lon":4.34878}},{"facility":"Brussels - HOSP Europe (Ste-Elisabeth)","city":"Brussel","zip":"1180","country":"Belgium","geoPoint":{"lat":50.85045,"lon":4.34878}},{"facility":"ULB Hopital Erasme","city":"Bruxelles","zip":"1070","country":"Belgium","geoPoint":{"lat":50.85045,"lon":4.34878}},{"facility":"Ziekenhuis Oost-Limburg - Campus Sint-Jan","city":"Genk","zip":"3600","country":"Belgium","geoPoint":{"lat":50.965,"lon":5.50082}},{"facility":"Liège - HOSP CHR de la Citadelle","city":"Liège","zip":"4000","country":"Belgium","geoPoint":{"lat":50.63373,"lon":5.56749}},{"facility":"Ottignies - HOSP St-Pierre","city":"Ottignies","zip":"1340","country":"Belgium","geoPoint":{"lat":50.66535,"lon":4.56679}},{"facility":"Tienen - PRAC De Wolf, Luc","city":"Tienen","zip":"3300","country":"Belgium","geoPoint":{"lat":50.80745,"lon":4.9378}},{"facility":"MHAT \"Deva Maria\", Dept. of Cardiology, Burgas","city":"Burgas","zip":"5800","country":"Bulgaria","geoPoint":{"lat":42.50606,"lon":27.46781}},{"facility":"MHAT \"Dr.Stambolski\", Cardiology&Intensiv Care Dept,Kazanlak","city":"Kazanlak","zip":"6100","country":"Bulgaria","geoPoint":{"lat":42.61667,"lon":25.4}},{"facility":"UMHAT Sv.Georgi EAD","city":"Plovdiv","zip":"4002","country":"Bulgaria","geoPoint":{"lat":42.15,"lon":24.75}},{"facility":"MHAT, Fourth Dept. of Internal Medicine, Rousse","city":"Rousse","zip":"7002","country":"Bulgaria","geoPoint":{"lat":43.85639,"lon":25.97083}},{"facility":"MHAT Akta Medika OOD, Sevlievo","city":"Sevlievo","zip":"5400","country":"Bulgaria","geoPoint":{"lat":43.02583,"lon":25.11361}},{"facility":"Multiprofile Hospital for Active Treatment, Sliven","city":"Sliven","zip":"8800","country":"Bulgaria","geoPoint":{"lat":42.68583,"lon":26.32917}},{"facility":"Diagnostic & Consultancy Center \"Ascendent\", Sofia","city":"Sofia","zip":"1202","country":"Bulgaria","geoPoint":{"lat":42.69751,"lon":23.32415}},{"facility":"MHAT \"National Cardiology Hosp.\" Cardiology Dept., Sofia","city":"Sofia","zip":"1309","country":"Bulgaria","geoPoint":{"lat":42.69751,"lon":23.32415}},{"facility":"University Multiprofile Hospital 'Alexandrovska', Sofia","city":"Sofia","zip":"1431","country":"Bulgaria","geoPoint":{"lat":42.69751,"lon":23.32415}},{"facility":"MHAT, \"Vita\" Surgery Department, Sofia","city":"Sofia","zip":"1505","country":"Bulgaria","geoPoint":{"lat":42.69751,"lon":23.32415}},{"facility":"MHAT \"Tsaritsa Yoanna-ISUL\" Clinic of Cardiology, Sofia","city":"Sofia","zip":"1527","country":"Bulgaria","geoPoint":{"lat":42.69751,"lon":23.32415}},{"facility":"UMHAT, Clinic of Cardiology, Stara Zagora","city":"Stara Zagora","zip":"6003","country":"Bulgaria","geoPoint":{"lat":42.43278,"lon":25.64194}},{"facility":"Medical Military Academy MHAT Varna","city":"Varna","zip":"9010","country":"Bulgaria","geoPoint":{"lat":43.21667,"lon":27.91667}},{"facility":"Specialized Hosp.f.Active Treatment, Cardiology Dept, Yambol","city":"Yambol","zip":"8600","country":"Bulgaria","geoPoint":{"lat":42.48333,"lon":26.5}},{"facility":"Magdalena-Special Hosp.f.Cardiovas.Surgery,Krapinske Toplice","city":"Krapinske Toplice","zip":"49217","country":"Croatia","geoPoint":{"lat":46.09333,"lon":15.84333}},{"facility":"Thalassoterapia,Rehab.of heart&lung,Cardiology Clin, Opatija","city":"Opatija","zip":"51410","country":"Croatia","geoPoint":{"lat":45.33773,"lon":14.30519}},{"facility":"Clinical Hospital Split","city":"Split","zip":"21000","country":"Croatia","geoPoint":{"lat":43.50891,"lon":16.43915}},{"facility":"General Hosp. Zadar, Clinic of Internal Med, Cardiology Dept","city":"Zadar","zip":"23 000","country":"Croatia","geoPoint":{"lat":44.11972,"lon":15.24222}},{"facility":"Clinical Hosp.Merkur,Clin.Internal Med,Cardiology Dep,Zagreb","city":"Zagreb","zip":"10 000","country":"Croatia","geoPoint":{"lat":45.81444,"lon":15.97798}},{"facility":"Polyclinic St. Luke, Cardiology Dept., Zagreb","city":"Zagreb","zip":"10 000","country":"Croatia","geoPoint":{"lat":45.81444,"lon":15.97798}},{"facility":"Univ. Hosp. Sisters of Mercy, Cardiology Dept., Zagreb","city":"Zagreb","zip":"10 000","country":"Croatia","geoPoint":{"lat":45.81444,"lon":15.97798}},{"facility":"University hospital center Zagreb","city":"Zagreb","zip":"10 000","country":"Croatia","geoPoint":{"lat":45.81444,"lon":15.97798}},{"facility":"Univ. Hosp. Sisters of Mercy, Neurology Clinic, Zagreb","city":"Zagreb","zip":"100 00","country":"Croatia","geoPoint":{"lat":45.81444,"lon":15.97798}},{"facility":"University hospital center Zagreb","city":"Zagreb","zip":"10000","country":"Croatia","geoPoint":{"lat":45.81444,"lon":15.97798}},{"facility":"Cardiology Private Practice, Brno","city":"Brno","zip":"61600","country":"Czechia","geoPoint":{"lat":49.19522,"lon":16.60796}},{"facility":"University Hospital Brno","city":"Brno","zip":"625 00","country":"Czechia","geoPoint":{"lat":49.19522,"lon":16.60796}},{"facility":"Cardiocentrum, Private Practice, Kladno","city":"Kladno","zip":"272 80","country":"Czechia","geoPoint":{"lat":50.14734,"lon":14.10285}},{"facility":"Cardiology Private Practice","city":"Litovel","zip":"784 01","country":"Czechia","geoPoint":{"lat":49.70121,"lon":17.07615}},{"facility":"Cardiology Private Practice, Praha","city":"Praha 5","zip":"15005","country":"Czechia","geoPoint":{"lat":50.08804,"lon":14.42076}},{"facility":"Cardiology Private Practice, Roznov pod Radhostem","city":"Roznov pod Radhostem","zip":"756 61","country":"Czechia","geoPoint":{"lat":49.45853,"lon":18.14302}},{"facility":"Forskningens Hus","city":"Aalborg","zip":"9000","country":"Denmark","geoPoint":{"lat":57.048,"lon":9.9187}},{"facility":"Sydvestjysk Sygehus Esbjerg, Hjertemedicinsk afd.","city":"Esbjerg","zip":"6700","country":"Denmark","geoPoint":{"lat":55.47028,"lon":8.45187}},{"facility":"Herlev and Gentofte Hospital","city":"Herlev","zip":"2730","country":"Denmark","geoPoint":{"lat":55.72366,"lon":12.43998}},{"facility":"Nordsjællands Hospital - Hillerød","city":"Hillerød","zip":"3400","country":"Denmark","geoPoint":{"lat":55.92791,"lon":12.30081}},{"facility":"Kolding Sygehus","city":"Kolding","zip":"6000","country":"Denmark","geoPoint":{"lat":55.4904,"lon":9.47216}},{"facility":"Odense University Hospital","city":"Odense","zip":"5000","country":"Denmark","geoPoint":{"lat":55.39594,"lon":10.38831}},{"facility":"North Estonia Med.Centre,Internal Med.Clin/Cardiology,Tallin","city":"Tallinn","zip":"134 19","country":"Estonia","geoPoint":{"lat":59.43696,"lon":24.75353}},{"facility":"East Tallinn Central Hospital","city":"Tallin","zip":"10138","country":"Estonia","geoPoint":{"lat":59.43696,"lon":24.75353}},{"facility":"HOP Général, Cardio, Abbeville","city":"Abbeville","zip":"80142","country":"France","geoPoint":{"lat":50.1,"lon":1.83333}},{"facility":"HOP d'Agen, Cardio, Agen","city":"Agen","zip":"47923","country":"France","geoPoint":{"lat":44.2,"lon":0.63333}},{"facility":"HOP d'Aix en Provence, cardio, Aix-en-Provence","city":"Aix en Provence","zip":"13616","country":"France","geoPoint":{"lat":43.5283,"lon":5.44973}},{"facility":"HOP Général, Cardio, Abbeville","city":"Aix en Provence","zip":"13616","country":"France","geoPoint":{"lat":43.5283,"lon":5.44973}},{"facility":"HOP Louis Pasteur, Cardio, Bagnols sur Ceze","city":"Bagnols sur Ceze","zip":"30205","country":"France","geoPoint":{"lat":44.1599,"lon":4.61776}},{"facility":"HOP Bar le Duc, Pneumo, Bar le Duc","city":"Bar le Duc","zip":"55012","country":"France","geoPoint":{"lat":48.78333,"lon":5.16667}},{"facility":"HOP de Bayonne","city":"Bayonne","zip":"64109","country":"France","geoPoint":{"lat":43.48333,"lon":-1.48333}},{"facility":"HOP Jean Minjoz","city":"Besancon","zip":"25030","country":"France","geoPoint":{"lat":47.24878,"lon":6.01815}},{"facility":"CAB Berdagué P, Cardio, Beziers","city":"Beziers","zip":"34500","country":"France","geoPoint":{"lat":43.34122,"lon":3.21402}},{"facility":"CAB Breton Dr Nicolas","city":"Beziers","zip":"34500","country":"France","geoPoint":{"lat":43.34122,"lon":3.21402}},{"facility":"CLI Tivoli","city":"Bordeaux","zip":"33000","country":"France","geoPoint":{"lat":44.84044,"lon":-0.5805}},{"facility":"HOP Saint-André","city":"Bordeaux","zip":"33075","country":"France","geoPoint":{"lat":44.84044,"lon":-0.5805}},{"facility":"HOP Ambroise Paré","city":"Boulogne-Billancourt","zip":"92104","country":"France","geoPoint":{"lat":48.83333,"lon":2.25}},{"facility":"HOP Fleyriat, GERIA, Bourg-en-Bresse","city":"Bour-en-Bresse","zip":"01012","country":"France"},{"facility":"HOP de la Cavale Blanche","city":"Brest","zip":"29609","country":"France","geoPoint":{"lat":48.3903,"lon":-4.48628}},{"facility":"CLI les Cedres, Cardio, Brive La Gaillarde","city":"Brive La Gaillarde","zip":"19100","country":"France","geoPoint":{"lat":45.15,"lon":1.53333}},{"facility":"CAB Cadinot Dr D, Broglie","city":"Broglie","zip":"27270","country":"France","geoPoint":{"lat":49.00911,"lon":0.52915}},{"facility":"CAB Frappé T, MG, BRUAY LA BUISSIERE","city":"Bruay la Buissière","zip":"62700","country":"France","geoPoint":{"lat":50.48333,"lon":2.55}},{"facility":"HOP de Béziers","city":"Béziers","zip":"34525","country":"France","geoPoint":{"lat":43.34122,"lon":3.21402}},{"facility":"HOP Saint Martin, cardio, Caen","city":"Caen","zip":"14000","country":"France","geoPoint":{"lat":49.18585,"lon":-0.35912}},{"facility":"HOP Côte de Nacre","city":"Caen","zip":"14033","country":"France","geoPoint":{"lat":49.18585,"lon":-0.35912}},{"facility":"CAB Brunschwig, Cardio, Cannes","city":"Cannes","zip":"06400","country":"France","geoPoint":{"lat":43.55135,"lon":7.01275}},{"facility":"HOP William Morey, Cardio, Chalon-Sur-Saône","city":"Chalon-Sur-Saône","zip":"71100","country":"France","geoPoint":{"lat":46.78333,"lon":4.85}},{"facility":"CAB Loiselet P","city":"Cherbourg","zip":"50100","country":"France","geoPoint":{"lat":49.63984,"lon":-1.61636}},{"facility":"HOP Gabriel-Montpied","city":"Clermont Ferrand","zip":"63000","country":"France","geoPoint":{"lat":45.77966,"lon":3.08628}},{"facility":"CAB Brunehaut M, Cardio, Clermont Ferrand","city":"Clermont Ferrand","zip":"63100","country":"France","geoPoint":{"lat":45.77966,"lon":3.08628}},{"facility":"HOP Sud Francilien","city":"Corbeil Essonnes","zip":"91106","country":"France","geoPoint":{"lat":48.60603,"lon":2.48757}},{"facility":"HOP Sud Francilien, Cardio, Corbeil-Essonnes","city":"Corbeil-Essonnes","zip":"91106","country":"France","geoPoint":{"lat":48.60603,"lon":2.48757}},{"facility":"HOP Henri Mondor","city":"Creteil","zip":"94000","country":"France","geoPoint":{"lat":48.78333,"lon":2.46667}},{"facility":"HOP Bocage","city":"Dijon","zip":"21079","country":"France","geoPoint":{"lat":47.31667,"lon":5.01667}},{"facility":"HOP Louis Pasteur, Cardio, Dole","city":"Dole","zip":"39108","country":"France","geoPoint":{"lat":47.1,"lon":5.5}},{"facility":"CTRE Evecquemont, Cardio, Evecquemont","city":"Evecquemont","zip":"78740","country":"France","geoPoint":{"lat":49.01439,"lon":1.94425}},{"facility":"HOP du Val d'Ariège, Cardio, Foix","city":"Foix","zip":"09107","country":"France","geoPoint":{"lat":42.96667,"lon":1.6}},{"facility":"HOP Michallon","city":"La Tronche","zip":"38700","country":"France","geoPoint":{"lat":45.20429,"lon":5.73645}},{"facility":"CAB Benhalima B, Cardio, Le bourget","city":"Le Bourget","zip":"93350","country":"France","geoPoint":{"lat":48.93405,"lon":2.43584}},{"facility":"HOP André Mignot","city":"Le Chesnay","zip":"78150","country":"France","geoPoint":{"lat":48.8222,"lon":2.12213}},{"facility":"HOP Louis Pasteur, Cardio, Le Coudray","city":"Le Coudray","zip":"28630","country":"France","geoPoint":{"lat":48.42115,"lon":1.50057}},{"facility":"HOP Le Mans","city":"Le Mans","zip":"72037","country":"France","geoPoint":{"lat":48.0,"lon":0.2}},{"facility":"CAB Phan Cao Phai, Cardio, Levallois Perret","city":"Levallois Perret","zip":"92300","country":"France","geoPoint":{"lat":48.89389,"lon":2.28864}},{"facility":"CLI Libournais, Cardio, Libourne","city":"Libourne","zip":"33500","country":"France","geoPoint":{"lat":44.91667,"lon":-0.23333}},{"facility":"HOP Robert Boulin, cardio, Libourne","city":"Libourne","zip":"33500","country":"France","geoPoint":{"lat":44.91667,"lon":-0.23333}},{"facility":"CLI de la Louviere","city":"Lille","zip":"59000","country":"France","geoPoint":{"lat":50.63297,"lon":3.05858}},{"facility":"CLI le Colombier, Cardio, Limoges","city":"Limoges","zip":"87100","country":"France","geoPoint":{"lat":45.83153,"lon":1.25781}},{"facility":"HOP St Joseph-St Luc, Cardio, Lyon","city":"Lyon cedex 7","zip":"69365","country":"France","geoPoint":{"lat":45.74848,"lon":4.84669}},{"facility":"CAB Gartenlaub O, Cardio, Maison Alfort","city":"Maisons Alfort","zip":"94700","country":"France","geoPoint":{"lat":48.81171,"lon":2.43945}},{"facility":"HOP Timone","city":"Marseille cedex 5","zip":"13385","country":"France","geoPoint":{"lat":43.29551,"lon":5.38958}},{"facility":"CAB, Salem A, Cardio, Marseille","city":"Marseille","zip":"13001","country":"France","geoPoint":{"lat":43.29551,"lon":5.38958}},{"facility":"HOP Européen","city":"Marseille","zip":"13003","country":"France","geoPoint":{"lat":43.29551,"lon":5.38958}},{"facility":"CAB Scala P-J","city":"Marseille","zip":"13008","country":"France","geoPoint":{"lat":43.29551,"lon":5.38958}},{"facility":"CAB Scemama J","city":"Marseille","zip":"13008","country":"France","geoPoint":{"lat":43.29551,"lon":5.38958}},{"facility":"CAB vial, Cardio, Marseille","city":"Marseille","zip":"13009","country":"France","geoPoint":{"lat":43.29551,"lon":5.38958}},{"facility":"HOP des Rayettes","city":"Martigues","zip":"13698","country":"France","geoPoint":{"lat":43.40735,"lon":5.05526}},{"facility":"HOP de la région d'Annecy, Cardio, Metz-Tessy","city":"Metz-Tessy","zip":"74370","country":"France","geoPoint":{"lat":45.93406,"lon":6.10826}},{"facility":"CAB Dillinger J, MG, Mondelange","city":"Mondelange","zip":"57300","country":"France","geoPoint":{"lat":49.26469,"lon":6.17087}},{"facility":"CLI de Montargis, Cardio, Montargis","city":"Montargis","zip":"45200","country":"France","geoPoint":{"lat":48.0,"lon":2.75}},{"facility":"CLI du Pont de Chaume","city":"Montauban","zip":"82000","country":"France","geoPoint":{"lat":44.01667,"lon":1.35}},{"facility":"HOP Raincy Montfermeil, Cardio, Montfermeil","city":"Montfermeil","zip":"93370","country":"France","geoPoint":{"lat":48.8982,"lon":2.57913}},{"facility":"HOP Arnaud de Villeneuve","city":"Montpellier","zip":"34295","country":"France","geoPoint":{"lat":43.61092,"lon":3.87723}},{"facility":"CAB Prunier L, Cardio, Montreuil","city":"Montreuil","zip":"93100","country":"France","geoPoint":{"lat":48.86415,"lon":2.44322}},{"facility":"HOP Central, Neuro, Nancy","city":"Nancy","zip":"54035","country":"France","geoPoint":{"lat":48.68439,"lon":6.18496}},{"facility":"HOP de Courbevoie, Spécialités Med, Neuilly sur Seine","city":"Neuilly sur Seine","zip":"92200","country":"France","geoPoint":{"lat":48.8846,"lon":2.26965}},{"facility":"CAB Jamon Y, Cardio, Nîmes","city":"Nimes","zip":"30000","country":"France","geoPoint":{"lat":43.83333,"lon":4.35}},{"facility":"HOP Carémeau","city":"Nîmes","zip":"3000","country":"France","geoPoint":{"lat":43.83333,"lon":4.35}},{"facility":"CLI Les Franciscaines, cardio, Nïmes","city":"Nïmes","zip":"30032","country":"France","geoPoint":{"lat":43.83333,"lon":4.35}},{"facility":"HOP Orléans, Cardio, Orléans","city":"Orléans","zip":"45100","country":"France","geoPoint":{"lat":47.90289,"lon":1.90389}},{"facility":"CAB Audouin P, Cardio, Paris","city":"Paris","zip":"75007","country":"France","geoPoint":{"lat":48.85341,"lon":2.3488}},{"facility":"CLI Turin, Cardio, Paris","city":"Paris","zip":"75008","country":"France","geoPoint":{"lat":48.85341,"lon":2.3488}},{"facility":"CAB Cohen S, Paris","city":"Paris","zip":"75012","country":"France","geoPoint":{"lat":48.85341,"lon":2.3488}},{"facility":"CAB Poulain F, Paris","city":"Paris","zip":"75014","country":"France","geoPoint":{"lat":48.85341,"lon":2.3488}},{"facility":"HOP Européen G. Pompidou","city":"Paris","zip":"75015","country":"France","geoPoint":{"lat":48.85341,"lon":2.3488}},{"facility":"HOP Pontchaillou","city":"Rennes Cedex","zip":"35033","country":"France","geoPoint":{"lat":48.11198,"lon":-1.67429}},{"facility":"CAB Duvilla N, Cardio, Rouen","city":"Rouen","zip":"76000","country":"France","geoPoint":{"lat":49.44313,"lon":1.09932}},{"facility":"CAB Dascotte O, Cardio, St André lez Lille","city":"Saint André lez Lille","zip":"59350","country":"France","geoPoint":{"lat":50.66667,"lon":3.05}},{"facility":"CAB Lequeux B, Cardio, Saint Benoit","city":"Saint Benoit","zip":"86280","country":"France","geoPoint":{"lat":46.55315,"lon":0.3419}},{"facility":"HOP Privé de la Loire, Cardio, Saint Etienne","city":"Saint Etienne","zip":"42000","country":"France","geoPoint":{"lat":45.43389,"lon":4.39}},{"facility":"CAB Dary P, Cardio, St-Yrieix-la-Perche","city":"Saint-Yrieix-la-Perche","zip":"87500","country":"France","geoPoint":{"lat":45.51604,"lon":1.20569}},{"facility":"CAB Tessier P, Cardio, St Raphael","city":"St Raphael","zip":"83700","country":"France","geoPoint":{"lat":43.42332,"lon":6.7735}},{"facility":"CAB Muller J-J, Cardio, Strasbourg","city":"Strasbourg","zip":"67000","country":"France","geoPoint":{"lat":48.58392,"lon":7.74553}},{"facility":"CLI de l'Ormeau, Cardio, Tarbes","city":"Tarbes","zip":"65000","country":"France","geoPoint":{"lat":43.23333,"lon":0.08333}},{"facility":"CAB Houppe Nousse MP, Cardio, Thionville","city":"Thionville","zip":"57100","country":"France","geoPoint":{"lat":49.36667,"lon":6.16667}},{"facility":"HOP du Léman","city":"Thonon-les-bains","zip":"74203","country":"France","geoPoint":{"lat":46.36667,"lon":6.48333}},{"facility":"HOP Sainte Musse","city":"Toulon","zip":"83100","country":"France","geoPoint":{"lat":43.12442,"lon":5.92836}},{"facility":"HOP Rangueil","city":"Toulouse","zip":"31059","country":"France","geoPoint":{"lat":43.60426,"lon":1.44367}},{"facility":"HOP Cardio, Tourcoing","city":"Tourcoing","zip":"59200","country":"France","geoPoint":{"lat":50.72391,"lon":3.16117}},{"facility":"CAB Leprince P, MG, Tours","city":"Tours","zip":"37000","country":"France","geoPoint":{"lat":47.38333,"lon":0.68333}},{"facility":"HOP Trousseau","city":"Tours","zip":"37044","country":"France","geoPoint":{"lat":47.38333,"lon":0.68333}},{"facility":"CLI Village de Santé, Cardio, Trélaze","city":"Trelaze","zip":"49804","country":"France","geoPoint":{"lat":47.44565,"lon":-0.4654}},{"facility":"HOP Valence, Cardio, Valence","city":"Valence","zip":"26000","country":"France","geoPoint":{"lat":44.93333,"lon":4.9}},{"facility":"HOP Bretagne Atlantique, Cardio, Vannes","city":"Vannes","zip":"56017","country":"France","geoPoint":{"lat":47.66667,"lon":-2.75}},{"facility":"CAB Lejay D, MG, Vieux Condé","city":"Vieux Condé","zip":"59690","country":"France","geoPoint":{"lat":50.45944,"lon":3.56738}},{"facility":"CAB Schaupp T, MG, Vihiers","city":"Vihiers","zip":"49310","country":"France","geoPoint":{"lat":47.14631,"lon":-0.53238}},{"facility":"Bezirkskrankenhaus, Ansbach","city":"Ansbach","zip":"91522","country":"Germany","geoPoint":{"lat":49.30481,"lon":10.5931}},{"facility":"Kerckhoff-Klinik, Bad Nauheim","city":"Bad Nauheim","zip":"61231","country":"Germany","geoPoint":{"lat":50.36463,"lon":8.73859}},{"facility":"Neurologische Klinik GmbH, Bad Neustadt","city":"Bad Neustadt/Saale","zip":"97616","country":"Germany"},{"facility":"Sozialstiftung Bamberg","city":"Bamberg","zip":"96046","country":"Germany","geoPoint":{"lat":49.89873,"lon":10.90067}},{"facility":"Evangelisches Elisabeth-Krankenhaus, Berlin Mitte","city":"Berlin","zip":"10785","country":"Germany","geoPoint":{"lat":52.52437,"lon":13.41053}},{"facility":"Praxis Dr. Rieker, Berlin","city":"Berlin","zip":"10789","country":"Germany","geoPoint":{"lat":52.52437,"lon":13.41053}},{"facility":"Vivantes Netzwerk für Gesundheit GmbH","city":"Berlin","zip":"10967","country":"Germany","geoPoint":{"lat":52.52437,"lon":13.41053}},{"facility":"Charité - Universitätsmedizin Berlin","city":"Berlin","zip":"12203","country":"Germany","geoPoint":{"lat":52.52437,"lon":13.41053}},{"facility":"Vivantes Netzwerk für Gesundheit GmbH","city":"Berlin","zip":"12351","country":"Germany","geoPoint":{"lat":52.52437,"lon":13.41053}},{"facility":"Praxis Dr. Altmann, Berlin","city":"Berlin","zip":"12489","country":"Germany","geoPoint":{"lat":52.52437,"lon":13.41053}},{"facility":"Praxisgemeinschaft Dres. Weinrich","city":"Berlin","zip":"12555","country":"Germany","geoPoint":{"lat":52.52437,"lon":13.41053}},{"facility":"Praxis Dr. Claus, 10969 Berlin","city":"Berlin","zip":"12559","country":"Germany","geoPoint":{"lat":52.52437,"lon":13.41053}},{"facility":"Kardiologische Praxis Dr. Jochen Bott","city":"Berlin","zip":"13405","country":"Germany","geoPoint":{"lat":52.52437,"lon":13.41053}},{"facility":"Vivantes Netzwerk für Gesundheit GmbH","city":"Berlin","zip":"13505","country":"Germany","geoPoint":{"lat":52.52437,"lon":13.41053}},{"facility":"Vivantes Netzwerk für Gesundheit GmbH","city":"Berlin","zip":"13509","country":"Germany","geoPoint":{"lat":52.52437,"lon":13.41053}},{"facility":"Vivantes Netzwerk für Gesundheit GmbH","city":"Berlin","zip":"13585","country":"Germany","geoPoint":{"lat":52.52437,"lon":13.41053}},{"facility":"Berufsgenossenschaftliches Universitätsklinikum Bergmannsheil gGmbH","city":"Bochum","zip":"44791","country":"Germany","geoPoint":{"lat":51.48165,"lon":7.21648}},{"facility":"Gesundheit Nord gGmbH | Klinikverbund Bremen","city":"Bremen","zip":"28177","country":"Germany","geoPoint":{"lat":53.07516,"lon":8.80777}},{"facility":"Klinikum Bremerhaven","city":"Bremerhaven","zip":"27574","country":"Germany","geoPoint":{"lat":53.55021,"lon":8.57673}},{"facility":"Herz- und Gefaesszentrum am Neumarkt","city":"Celle","zip":"29221","country":"Germany","geoPoint":{"lat":52.62264,"lon":10.08047}},{"facility":"Gemeinschaftspraxis Dr. med. J. Sek, Chemnitz","city":"Chemnitz","zip":"09116","country":"Germany","geoPoint":{"lat":50.8357,"lon":12.92922}},{"facility":"Klinikum Coburg gGmbH","city":"Coburg","zip":"96450","country":"Germany","geoPoint":{"lat":50.25937,"lon":10.96384}},{"facility":"HELIOS Amper Kliniken, Dachau","city":"Dachau","zip":"85221","country":"Germany","geoPoint":{"lat":48.26,"lon":11.43402}},{"facility":"Kardiologische Praxisgemeinschaft,Darmstadt","city":"Darmstadt","zip":"64287","country":"Germany","geoPoint":{"lat":49.87167,"lon":8.65027}},{"facility":"Praxis Dr. Rybak, Dessau","city":"Dessau-Roßlau","zip":"06847","country":"Germany"},{"facility":"Klinikum Lippe-Detmold GmbH","city":"Detmold","zip":"32756","country":"Germany","geoPoint":{"lat":51.93855,"lon":8.87318}},{"facility":"Kardiologischen Gemeinschaftspraxis Dinslaken","city":"Dinslaken","zip":"46535","country":"Germany","geoPoint":{"lat":51.56227,"lon":6.7434}},{"facility":"Praxis Dr. med. Bernhard-Paul Lodde","city":"Dortmund","zip":"44147","country":"Germany","geoPoint":{"lat":51.51494,"lon":7.466}},{"facility":"Praxisklinik Herz und Gefäße","city":"Dresden","zip":"01099","country":"Germany","geoPoint":{"lat":51.05089,"lon":13.73832}},{"facility":"Universitätsklinikum Carl Gustav Carus Dresden","city":"Dresden","zip":"01307","country":"Germany","geoPoint":{"lat":51.05089,"lon":13.73832}},{"facility":"Evangelisches Krankenhaus Düsseldorf","city":"Düsseldorf","zip":"40217","country":"Germany","geoPoint":{"lat":51.22172,"lon":6.77616}},{"facility":"Universitätsklinikum Erlangen","city":"Erlangen","zip":"91054","country":"Germany","geoPoint":{"lat":49.59099,"lon":11.00783}},{"facility":"Ruhrlandklinik, Westdeutsches Lungenzentrum am Universitätsklinikum Essen gGmbH","city":"Essen","zip":"45122","country":"Germany","geoPoint":{"lat":51.45657,"lon":7.01228}},{"facility":"Klinikum Esslingen GmbH","city":"Esslingen","zip":"73730","country":"Germany","geoPoint":{"lat":48.73961,"lon":9.30473}},{"facility":"Praxis für Herz-Kreislauf-Erkrankungen Zeulenroda-Greiz","city":"Greiz","zip":"07973","country":"Germany","geoPoint":{"lat":50.65778,"lon":12.19918}},{"facility":"Asklepios Klinik St. Geort","city":"Hamburg","zip":"20099","country":"Germany","geoPoint":{"lat":53.57532,"lon":10.01534}},{"facility":"Universitätsklinikum Hamburg-Eppendorf","city":"Hamburg","zip":"20246","country":"Germany","geoPoint":{"lat":53.57532,"lon":10.01534}},{"facility":"Asklepios Klinik Harburg","city":"Hamburg","zip":"21075","country":"Germany","geoPoint":{"lat":53.57532,"lon":10.01534}},{"facility":"Asklepios Klinik Barmbek","city":"Hamburg","zip":"22291","country":"Germany","geoPoint":{"lat":53.57532,"lon":10.01534}},{"facility":"Praxis Herz im Zentrum Laske","city":"Hannover","zip":"30159","country":"Germany","geoPoint":{"lat":52.37052,"lon":9.73322}},{"facility":"Universitätsklinikum Heidelberg","city":"Heidelberg","zip":"69120","country":"Germany","geoPoint":{"lat":49.40768,"lon":8.69079}},{"facility":"Klinikum Ingolstadt GmbH","city":"Ingolstadt","zip":"85049","country":"Germany","geoPoint":{"lat":48.76508,"lon":11.42372}},{"facility":"Praxis Dr. Mibach, Itzehoe","city":"Itzehoe","zip":"25524","country":"Germany","geoPoint":{"lat":53.92099,"lon":9.51529}},{"facility":"Universitätsklinikum Jena","city":"Jena","zip":"07740","country":"Germany","geoPoint":{"lat":50.92878,"lon":11.5899}},{"facility":"Kardiologische Gemeinschaftspraxis Kassel","city":"Kassel","zip":"34117","country":"Germany","geoPoint":{"lat":51.31667,"lon":9.5}},{"facility":"Praxis Dr. med. Frickel Siegfried","city":"Kempen","zip":"47906","country":"Germany","geoPoint":{"lat":51.36432,"lon":6.41858}},{"facility":"Praxis Dr. med. Matthias Gabelmann","city":"Kirchzarten","zip":"79199","country":"Germany","geoPoint":{"lat":47.96667,"lon":7.95}},{"facility":"St. Antonius-Hospital, Kleve","city":"Kleve","zip":"47533","country":"Germany","geoPoint":{"lat":51.78826,"lon":6.13865}},{"facility":"Praxis für Kardiologie, Köln","city":"Köln","zip":"51105","country":"Germany","geoPoint":{"lat":50.93333,"lon":6.95}},{"facility":"Universitätsklinikum Leipzig","city":"Leipzig","zip":"04103","country":"Germany","geoPoint":{"lat":51.33962,"lon":12.37129}},{"facility":"Herzzentrum Leipzig GmbH","city":"Leipzig","zip":"04289","country":"Germany","geoPoint":{"lat":51.33962,"lon":12.37129}},{"facility":"Klinikum Leverkusen gGmbH, Leverkusen","city":"Leverkusen","zip":"51375","country":"Germany","geoPoint":{"lat":51.0303,"lon":6.98432}},{"facility":"Cardio Centrum Ludwigsburg","city":"Ludwigsburg","zip":"71634","country":"Germany","geoPoint":{"lat":48.89731,"lon":9.19161}},{"facility":"Klinikum der Stadt Ludwigshafen am Rhein gGmbH","city":"Ludwigshafen","zip":"67063","country":"Germany","geoPoint":{"lat":49.48121,"lon":8.44641}},{"facility":"Universitätsklinikum Magdeburg A. ö. R.","city":"Magdeburg","zip":"39120","country":"Germany","geoPoint":{"lat":52.12773,"lon":11.62916}},{"facility":"Gemeinsachftspraxis Regner/Schmitt/Kros, Mainz","city":"Mainz","zip":"55116","country":"Germany","geoPoint":{"lat":49.98419,"lon":8.2791}},{"facility":"Praxis Dr.med. Jens Taggeselle, Markkleeberg","city":"Markkleeberg","zip":"04416","country":"Germany","geoPoint":{"lat":51.2755,"lon":12.36906}},{"facility":"Klinikum Memmingen","city":"Memmingen","zip":"87700","country":"Germany","geoPoint":{"lat":47.98372,"lon":10.18527}},{"facility":"Johannes Wesling Klinikum","city":"Minden","zip":"32429","country":"Germany","geoPoint":{"lat":52.28953,"lon":8.91455}},{"facility":"Kliniken Maria Hilf GmbH","city":"Moenchengladbach","zip":"41063","country":"Germany","geoPoint":{"lat":51.18539,"lon":6.44172}},{"facility":"Praxis Dr. med. Norbert Schön, Mühldorf","city":"Mühldorf","zip":"84453","country":"Germany","geoPoint":{"lat":48.2467,"lon":12.52155}},{"facility":"Herzzentrum ALTER HOF München","city":"München","zip":"80331","country":"Germany","geoPoint":{"lat":48.13743,"lon":11.57549}},{"facility":"Klinikum rechts der Isar der Technischen Universität München","city":"München","zip":"81675","country":"Germany","geoPoint":{"lat":48.13743,"lon":11.57549}},{"facility":"Universitätsklinikum Münster","city":"Münster","zip":"45129","country":"Germany","geoPoint":{"lat":51.96236,"lon":7.62571}},{"facility":"Praxis Dr. med. Joachim Gmehling","city":"Nürnberg","zip":"90402","country":"Germany","geoPoint":{"lat":49.45421,"lon":11.07752}},{"facility":"Klinikum Osnabrück GmbH","city":"Osnabrueck","zip":"49076","country":"Germany"},{"facility":"St. Vincenz-Krankenhaus GmbH","city":"Paderborn","zip":"33098","country":"Germany","geoPoint":{"lat":51.71905,"lon":8.75439}},{"facility":"Kardiologische Praxis Papenburg","city":"Papenburg","zip":"26871","country":"Germany","geoPoint":{"lat":53.07738,"lon":7.40444}},{"facility":"Kardiologisches Zentrum Peine","city":"Peine","zip":"31224","country":"Germany","geoPoint":{"lat":52.31928,"lon":10.2352}},{"facility":"Städt. Krankenhaus, Pforzheim","city":"Pforzheim","zip":"75175","country":"Germany","geoPoint":{"lat":48.88436,"lon":8.69892}},{"facility":"Kardiologische Gemeinschaftspraxis Potsdam","city":"Potsdam","zip":"14471","country":"Germany","geoPoint":{"lat":52.39886,"lon":13.06566}},{"facility":"Kardiologische Gemeinschaftspraxis Rostock","city":"Rostock","zip":"18057","country":"Germany","geoPoint":{"lat":54.0887,"lon":12.14049}},{"facility":"Kreisklinikum Siegen GmbH","city":"Siegen","zip":"57076","country":"Germany","geoPoint":{"lat":50.87481,"lon":8.02431}},{"facility":"Berufsausübungsgemeinschaft Klein /Kratochvil","city":"Stuttgart","zip":"70178","country":"Germany","geoPoint":{"lat":48.78232,"lon":9.17702}},{"facility":"Herzklinik Ulm Gemeinschaftspraxis","city":"Ulm","zip":"89077","country":"Germany","geoPoint":{"lat":48.39841,"lon":9.99155}},{"facility":"Schwarzwald-Baar Klinikum","city":"Villingen-Schwenningen","zip":"78011","country":"Germany","geoPoint":{"lat":48.06226,"lon":8.49358}},{"facility":"Kardiologische Praxis, Wermsdorf","city":"Wermsdorf","zip":"04779","country":"Germany","geoPoint":{"lat":51.28333,"lon":12.95}},{"facility":"MedKonsil, Wiesbaden","city":"Wiesbaden","zip":"65189","country":"Germany","geoPoint":{"lat":50.08258,"lon":8.24932}},{"facility":"Kardiologische Gemeinschaftspraxis Wittenberg","city":"Wittenberg","zip":"06886","country":"Germany"},{"facility":"Universitätsklinikum Würzburg","city":"Würzburg","zip":"97080","country":"Germany","geoPoint":{"lat":49.79391,"lon":9.95121}},{"facility":"University Hospital of Alexandroupolis","city":"Alexandroupoli","zip":"68100","country":"Greece","geoPoint":{"lat":40.84995,"lon":25.87644}},{"facility":"Euroclinic of Athens","city":"Athens","zip":"11521","country":"Greece","geoPoint":{"lat":37.97945,"lon":23.71622}},{"facility":"\"Korgialeneio-Benakeio\" Hellenic Red Cross Hospital","city":"Athens","zip":"11526","country":"Greece","geoPoint":{"lat":37.97945,"lon":23.71622}},{"facility":"Sotiria Hosp.,Hypertension Unit,3rd Clinic of Internal Med.","city":"Athens","zip":"11527","country":"Greece","geoPoint":{"lat":37.97945,"lon":23.71622}},{"facility":"Asclepion Voulas Hospital, Cardiological Clinic","city":"Athens","zip":"16673","country":"Greece","geoPoint":{"lat":37.97945,"lon":23.71622}},{"facility":"General Hospital of Chalkida","city":"Chalkida","zip":"34100","country":"Greece","geoPoint":{"lat":38.46354,"lon":23.60284}},{"facility":"General Hospital of Chania","city":"Chania","zip":"73100","country":"Greece","geoPoint":{"lat":35.51124,"lon":24.02921}},{"facility":"General Hospital of Edessa, Cardiology Clinic","city":"Edessa","zip":"58200","country":"Greece","geoPoint":{"lat":40.8026,"lon":22.04751}},{"facility":"Gen. Hosp. of Elefsina \"Thriassio\"","city":"Elefsina","zip":"19600","country":"Greece","geoPoint":{"lat":38.04135,"lon":23.54295}},{"facility":"University General Hospital of Heraklion","city":"Herakleion, Crete","zip":"71110","country":"Greece"},{"facility":"Univ. Gen. Hosp. of Ioannina","city":"Ioannina","zip":"45500","country":"Greece","geoPoint":{"lat":39.66486,"lon":20.85189}},{"facility":"General Hospital Komotinis","city":"Komotini","zip":"69100","country":"Greece","geoPoint":{"lat":41.11917,"lon":25.40535}},{"facility":"General University Hospital of Larissa","city":"Larissa","zip":"41110","country":"Greece","geoPoint":{"lat":39.63689,"lon":22.41761}},{"facility":"University of Patras Medical School","city":"Patras","zip":"26504","country":"Greece","geoPoint":{"lat":38.24444,"lon":21.73444}},{"facility":"General Hospital of Rhodes","city":"Rhodes","zip":"85100","country":"Greece","geoPoint":{"lat":36.43557,"lon":28.22199}},{"facility":"Gen. Hosp. of Thessaloniki \"Hippokation\", Cardiology Clinic","city":"Thessaloniki","zip":"54642","country":"Greece","geoPoint":{"lat":40.64361,"lon":22.93086}},{"facility":"\"Papageorgiou\" General Hospital of Thessaloniki, B' Cardiolo","city":"Thessaloniki","zip":"56429","country":"Greece","geoPoint":{"lat":40.64361,"lon":22.93086}},{"facility":"General Panarkadiko Hospital of Tripolis, Cardiology Clinic","city":"Tripoli","zip":"22100","country":"Greece","geoPoint":{"lat":37.50889,"lon":22.37944}},{"facility":"Portiuncula Hospital","city":"Ballinasloe","zip":"H53 T971","country":"Ireland","geoPoint":{"lat":53.3275,"lon":-8.21944}},{"facility":"St James's Hospital","city":"Dublin 8","zip":"Dublin 8","country":"Ireland","geoPoint":{"lat":53.33306,"lon":-6.24889}},{"facility":"Adelaide & Meath Hospital","city":"Dublin","zip":"24","country":"Ireland","geoPoint":{"lat":53.33306,"lon":-6.24889}},{"facility":"University Hospital Galway","city":"Galway","zip":"GALWAY","country":"Ireland","geoPoint":{"lat":53.27194,"lon":-9.04889}},{"facility":"The Redhouse Family Practice","city":"Mallow","country":"Ireland","geoPoint":{"lat":52.13333,"lon":-8.63333}},{"facility":"Ospedale Riuniti Albano Genzano","city":"Albano Laziale","zip":"00041","country":"Italy","geoPoint":{"lat":41.72748,"lon":12.659}},{"facility":"Az. Osp. S.M. di Misericordia","city":"Albenga","zip":"17031","country":"Italy","geoPoint":{"lat":44.04997,"lon":8.21829}},{"facility":"Az. Ospedaliere Umberto I di Ancona","city":"Ancona","zip":"60020","country":"Italy","geoPoint":{"lat":43.5942,"lon":13.50337}},{"facility":"Ospedale Reg Umberto Parini","city":"Aosta","zip":"11100","country":"Italy","geoPoint":{"lat":45.73764,"lon":7.31722}},{"facility":"Ospedale C. G. Mazzoni","city":"Ascoli Piceno","zip":"63100","country":"Italy","geoPoint":{"lat":42.85351,"lon":13.57395}},{"facility":"AZ. Osp. Assisi U.O.","city":"Assisi","zip":"06081","country":"Italy","geoPoint":{"lat":43.06671,"lon":12.62109}},{"facility":"Osp. SS Filippo Nicola","city":"Avezzano","zip":"67051","country":"Italy","geoPoint":{"lat":42.02896,"lon":13.42641}},{"facility":"Policlinico di Bari","city":"Bari","zip":"70124","country":"Italy","geoPoint":{"lat":41.11148,"lon":16.8554}},{"facility":"Policlinico Universitario di Bari","city":"Bari","zip":"70124","country":"Italy","geoPoint":{"lat":41.11148,"lon":16.8554}},{"facility":"Policlinico S. Orsola Malpighi","city":"Bologna","zip":"40138","country":"Italy","geoPoint":{"lat":44.49381,"lon":11.33875}},{"facility":"A. O. G. Brotzu","city":"Cagliari","zip":"09134","country":"Italy","geoPoint":{"lat":39.23054,"lon":9.11917}},{"facility":"Presidio Ospedaliero di Castrovillari","city":"Castrovillari (CS)","zip":"87012","country":"Italy"},{"facility":"P. O. \"Garibaldi\" - Nesima","city":"Catania","zip":"95122","country":"Italy","geoPoint":{"lat":37.49223,"lon":15.07041}},{"facility":"A.O. Univ. Vittorio Ferrarotto S. Bambino","city":"Catania","zip":"95124","country":"Italy","geoPoint":{"lat":37.49223,"lon":15.07041}},{"facility":"Policlinico Universitario Mater Domini, Universita di Catanzaro","city":"Catanzaro","zip":"88100","country":"Italy","geoPoint":{"lat":38.88247,"lon":16.60086}},{"facility":"Osp. Clin. SS. Anunziata","city":"Chieti","zip":"66013","country":"Italy","geoPoint":{"lat":42.34827,"lon":14.16494}},{"facility":"Azienda Ospedaliera Universitaria Arcispedale Sant'Anna","city":"Cona (FE)","zip":"44124","country":"Italy"},{"facility":"Osp.S.Salvatore","city":"Coppitto (AQ)","zip":"67100","country":"Italy"},{"facility":"AZ. Osped. Ospedale Maggiore di Crema","city":"Crema (CR)","zip":"26013","country":"Italy"},{"facility":"A. Istituti Osp. di Cremona","city":"Cremona","zip":"26100","country":"Italy","geoPoint":{"lat":45.13325,"lon":10.02129}},{"facility":"Ospedale S. Biagio","city":"Domodossola (VB)","zip":"28845","country":"Italy"},{"facility":"P. O. S. Maria Nuova","city":"Firenze","zip":"50122","country":"Italy","geoPoint":{"lat":43.77925,"lon":11.24626}},{"facility":"Azienda Ospedaliera Careggi","city":"Firenze","zip":"50134","country":"Italy","geoPoint":{"lat":43.77925,"lon":11.24626}},{"facility":"Azienda Ospedaliera Careggi","city":"Firenze","zip":"50139","country":"Italy","geoPoint":{"lat":43.77925,"lon":11.24626}},{"facility":"Az.Osp. Universitaria \"Ospedali Riuniti\"","city":"Foggia","zip":"71100","country":"Italy","geoPoint":{"lat":41.45845,"lon":15.55188}},{"facility":"Ospedale S. Cuore di Gesù","city":"Gallipoli","zip":"73014","country":"Italy","geoPoint":{"lat":40.05594,"lon":17.99088}},{"facility":"Policlinico San Martino","city":"Genova","zip":"16132","country":"Italy","geoPoint":{"lat":44.40478,"lon":8.94438}},{"facility":"Ospedale della Misericordia","city":"Grosseto","zip":"58100","country":"Italy","geoPoint":{"lat":42.76296,"lon":11.10941}},{"facility":"Ospedale F. Veneziale","city":"Isernia","zip":"86170","country":"Italy","geoPoint":{"lat":41.59603,"lon":14.23399}},{"facility":"Azienda Ospedaliera C. Poma","city":"Mantova","zip":"46100","country":"Italy","geoPoint":{"lat":45.16031,"lon":10.79784}},{"facility":"Osp. Pediatrico Aprano Pasquinucci","city":"Massa","zip":"54100","country":"Italy","geoPoint":{"lat":44.03541,"lon":10.13927}},{"facility":"Az Osp. Amico \" Gaetano Fucito\"","city":"Mercato San Severino (SA)","zip":"84085","country":"Italy"},{"facility":"Centro Cardiologico Monzino-IRCCS","city":"Milano","zip":"20138","country":"Italy","geoPoint":{"lat":45.46427,"lon":9.18951}},{"facility":"Nuovo Ospedale Civile S. Agostino-Estense","city":"Modena","zip":"46100","country":"Italy","geoPoint":{"lat":44.64783,"lon":10.92539}},{"facility":"Osp.Riun.Valdichiana Senese","city":"Montepulciano Senese (SI)","zip":"53045","country":"Italy"},{"facility":"A.O. San Gerardo di Monza","city":"Monza (MB)","zip":"20900","country":"Italy"},{"facility":"Ospedale Nuovo Pellegrini","city":"Napoli","zip":"80134","country":"Italy","geoPoint":{"lat":40.85216,"lon":14.26811}},{"facility":"Ospedale Cardarelli","city":"Napoli","zip":"80135","country":"Italy","geoPoint":{"lat":40.85216,"lon":14.26811}},{"facility":"Osp.Sacro Cuore-Don Calabria","city":"Negrar (VR)","zip":"37024","country":"Italy"},{"facility":"Az. Osp. San Giacomo","city":"Novi Ligure","zip":"15067","country":"Italy","geoPoint":{"lat":44.76246,"lon":8.787}},{"facility":"Az. Osp. San Francesco","city":"Nuoro","zip":"08100","country":"Italy","geoPoint":{"lat":40.31991,"lon":9.32568}},{"facility":"Azienda Sanitaria Ospedale S. Luigi Gonzaga","city":"Orbassano (TO)","zip":"10043","country":"Italy","geoPoint":{"lat":45.00547,"lon":7.53813}},{"facility":"Azienda Ospedaliera Universitaria di Padova","city":"Padova","zip":"35128","country":"Italy","geoPoint":{"lat":45.40797,"lon":11.88586}},{"facility":"A.O. Univ. Policlinico Giaccone","city":"Palermo","zip":"90129","country":"Italy","geoPoint":{"lat":38.13205,"lon":13.33561}},{"facility":"Fondazione IRCCS Policlinico S. Matteo","city":"Pavia","zip":"27100","country":"Italy","geoPoint":{"lat":45.19205,"lon":9.15917}},{"facility":"Ospedale S.Maria della Misericordia, AO di Perugia","city":"Perugia","zip":"06156","country":"Italy","geoPoint":{"lat":43.1122,"lon":12.38878}},{"facility":"Ospedale San Salvatore","city":"Pesaro","zip":"6121","country":"Italy","geoPoint":{"lat":43.90921,"lon":12.9164}},{"facility":"Osp. Guglielmo da Saliceto AUSL di Piacenza","city":"Piacenza","zip":"29121","country":"Italy","geoPoint":{"lat":45.05242,"lon":9.69342}},{"facility":"Ospedale Santa Corona Azienda Sanitaria Locale n.2 Savonese","city":"Pietra Ligure","zip":"17027","country":"Italy","geoPoint":{"lat":44.1492,"lon":8.28206}},{"facility":"Ospedale di Cisanello","city":"Pisa","zip":"56124","country":"Italy","geoPoint":{"lat":43.70853,"lon":10.4036}},{"facility":"Ospedale S.Tommaso dei Battuti","city":"Portogruaro (VE)","zip":"30026","country":"Italy"},{"facility":"P.O.S. Maria Grazie","city":"Pozzuoli","zip":"80078","country":"Italy","geoPoint":{"lat":40.84394,"lon":14.0952}},{"facility":"Azienda Unità Sanitaria Locale di Reggio Emilia","city":"Reggio Emilia","zip":"12100","country":"Italy","geoPoint":{"lat":44.69825,"lon":10.63125}},{"facility":"Ospedale \"Giambattista Grassi","city":"Roma","zip":"00122","country":"Italy","geoPoint":{"lat":41.89193,"lon":12.51133}},{"facility":"Pol. Universitario Tor Vergata","city":"Roma","zip":"00133","country":"Italy","geoPoint":{"lat":41.89193,"lon":12.51133}},{"facility":"Azienda Complessa Ospedaliera Ospedale San Fiippo Neri","city":"Roma","zip":"00135","country":"Italy","geoPoint":{"lat":41.89193,"lon":12.51133}},{"facility":"Ospedale \"S. Eugenio\"","city":"Roma","zip":"00144","country":"Italy","geoPoint":{"lat":41.89193,"lon":12.51133}},{"facility":"A.O. San Camillo Forlanini","city":"Roma","zip":"00151","country":"Italy","geoPoint":{"lat":41.89193,"lon":12.51133}},{"facility":"Umberto I Pol. di Roma-Università di Roma La Sapienza","city":"Roma","zip":"00161","country":"Italy","geoPoint":{"lat":41.89193,"lon":12.51133}},{"facility":"Policlinico Gemelli","city":"Roma","zip":"00168","country":"Italy","geoPoint":{"lat":41.89193,"lon":12.51133}},{"facility":"Policlinico Casilino U.O. Cardiologia","city":"Roma","zip":"00169","country":"Italy","geoPoint":{"lat":41.89193,"lon":12.51133}},{"facility":"Az. Osp.Madre Giuseppina Vannini-","city":"Roma","zip":"00177","country":"Italy","geoPoint":{"lat":41.89193,"lon":12.51133}},{"facility":"Az. Osp. S.Giovanni-Addolorata","city":"Roma","zip":"00184","country":"Italy","geoPoint":{"lat":41.89193,"lon":12.51133}},{"facility":"Ospedale S. Spirito","city":"Roma","zip":"00193","country":"Italy","geoPoint":{"lat":41.89193,"lon":12.51133}},{"facility":"Nuovo Ospedale Civile di Sassuolo","city":"Sassuolo","zip":"41049","country":"Italy","geoPoint":{"lat":44.5432,"lon":10.7848}},{"facility":"IRCCS Gruppo Multimedica","city":"Sesto S.Giovanni (MI)","zip":"20090","country":"Italy"},{"facility":"A.O.U. Senese Policlinico Santa Maria alle Scotte","city":"Siena","zip":"53100","country":"Italy","geoPoint":{"lat":43.31822,"lon":11.33064}},{"facility":"AO Città della Salute e della","city":"Torino","zip":"10126","country":"Italy","geoPoint":{"lat":45.07049,"lon":7.68682}},{"facility":"Ospedale Mauriziano di Torino","city":"Torino","zip":"10128","country":"Italy","geoPoint":{"lat":45.07049,"lon":7.68682}},{"facility":"Ospedale S. Maria di Ca' Foncello Azienda ULSS9 TREVISO","city":"Treviso","zip":"31100","country":"Italy","geoPoint":{"lat":45.66673,"lon":12.2416}},{"facility":"A. O. S. Maria della Misericordia","city":"Udine","zip":"33100","country":"Italy","geoPoint":{"lat":46.0693,"lon":13.23715}},{"facility":"A. O. Ospedale Circolo Fond. Macchi","city":"Varese","zip":"21100","country":"Italy","geoPoint":{"lat":45.82058,"lon":8.82511}},{"facility":"Ospedale San Bortolo","city":"Vicenza","zip":"36100","country":"Italy","geoPoint":{"lat":45.54672,"lon":11.5475}},{"facility":"Liepaja Regional Hospital, Therapy Department","city":"Liepaja","zip":"3414","country":"Latvia","geoPoint":{"lat":56.51667,"lon":21.01667}},{"facility":"P.Stradins Clin.Univ.Hosp,Cardio.Diagnos&Outpatient Dep,Riga","city":"Riga","zip":"1002","country":"Latvia","geoPoint":{"lat":56.946,"lon":24.10589}},{"facility":"Riga East University Hospital","city":"Riga","zip":"1038","country":"Latvia","geoPoint":{"lat":56.946,"lon":24.10589}},{"facility":"Jeroen Bosch Ziekenhuis-Hertogenbosch","city":"'s HERTOGENBOSCH","zip":"5223 GZ","country":"Netherlands","geoPoint":{"lat":51.69917,"lon":5.30417}},{"facility":"Amsterdam UMC, Locatie AMC","city":"Amsterdam","zip":"1105 AZ","country":"Netherlands","geoPoint":{"lat":52.37403,"lon":4.88969}},{"facility":"Rijnstate Hospital","city":"Arnhem","zip":"6815 AD","country":"Netherlands","geoPoint":{"lat":51.98,"lon":5.91111}},{"facility":"IJsselland Ziekenhuis","city":"Capelle Aan Den Ijssel","zip":"2906 ZC","country":"Netherlands","geoPoint":{"lat":51.92917,"lon":4.57778}},{"facility":"Reinier de Graaf Groep","city":"Delft","zip":"2625 AD","country":"Netherlands","geoPoint":{"lat":52.00667,"lon":4.35556}},{"facility":"Noordwest Ziekenhuisgroep","city":"Den Helder","zip":"1782 GZ","country":"Netherlands","geoPoint":{"lat":52.95988,"lon":4.75933}},{"facility":"Deventer Ziekenhuis","city":"Deventer","zip":"7416 SE","country":"Netherlands","geoPoint":{"lat":52.255,"lon":6.16389}},{"facility":"Van Weel-Bethesda Ziekenhuis","city":"Dirksland","zip":"3247 BW","country":"Netherlands","geoPoint":{"lat":51.74917,"lon":4.1}},{"facility":"Catharina Ziekenhuis","city":"Eindhoven","zip":"5623 EJ","country":"Netherlands","geoPoint":{"lat":51.44083,"lon":5.47778}},{"facility":"Medisch Spectrum Twente","city":"Enschede","zip":"7512KZ","country":"Netherlands","geoPoint":{"lat":52.21833,"lon":6.89583}},{"facility":"Zuyderland Medisch Centrum","city":"Heerlen","zip":"6419 PC","country":"Netherlands","geoPoint":{"lat":50.88365,"lon":5.98154}},{"facility":"TREANT zorggroep","city":"Hoogeveen","zip":"7909 AA","country":"Netherlands","geoPoint":{"lat":52.7225,"lon":6.47639}},{"facility":"Westfries Gasthuis","city":"Hoorn","zip":"1624 NP","country":"Netherlands","geoPoint":{"lat":52.6425,"lon":5.05978}},{"facility":"METC Academisch Ziekenhuis Maastricht/Universiteit van Maastricht","city":"Maastricht","zip":"6229 HX","country":"Netherlands","geoPoint":{"lat":50.84833,"lon":5.68889}},{"facility":"St. Antonius ziekenhuis, locatie Nieuwegein","city":"Nieuwegein","zip":"3435 CM","country":"Netherlands","geoPoint":{"lat":52.02917,"lon":5.08056}},{"facility":"Havenziekenhuis","city":"Rotterdam","zip":"3011 TD","country":"Netherlands","geoPoint":{"lat":51.9225,"lon":4.47917}},{"facility":"Zuyderland Medisch Centrum","city":"Sittard - Geleen","zip":"6162 BG","country":"Netherlands"},{"facility":"Antonius Ziekenhuis","city":"Sneek","zip":"8601 ZK","country":"Netherlands","geoPoint":{"lat":53.03297,"lon":5.6589}},{"facility":"Ziekenhuis Rivierenland","city":"Tiel","zip":"4002 WP","country":"Netherlands","geoPoint":{"lat":51.88667,"lon":5.42917}},{"facility":"VieCuri Medisch Centrum, locatie Venray","city":"Venray","zip":"5801 CE","country":"Netherlands","geoPoint":{"lat":51.525,"lon":5.975}},{"facility":"Isala Zwolle","city":"Zwolle","zip":"8011 JW","country":"Netherlands","geoPoint":{"lat":52.5125,"lon":6.09444}},{"facility":"Legegruppen Arendal","city":"Arendal","zip":"N-4836","country":"Norway","geoPoint":{"lat":58.46151,"lon":8.77253}},{"facility":"Vestre Viken HF, Bærum sykehus","city":"Drammen","zip":"N-3004","country":"Norway","geoPoint":{"lat":59.74389,"lon":10.20449}},{"facility":"Medisinsk Senter Fornebu DA","city":"Fornebu","zip":"N-1364","country":"Norway","geoPoint":{"lat":59.89951,"lon":10.62869}},{"facility":"Vestre Viken, Ringerike Sykehus HF","city":"Hønefoss","zip":"N-3511","country":"Norway","geoPoint":{"lat":60.16804,"lon":10.25647}},{"facility":"Sykehuset Innlandet HF, Kongsvinger","city":"Kongsvinger","zip":"N-2212","country":"Norway","geoPoint":{"lat":60.19049,"lon":11.99772}},{"facility":"Sykehuset Innlandet HF, Avd. Lillehammer","city":"Lillehammer","zip":"N-2629","country":"Norway","geoPoint":{"lat":61.11514,"lon":10.46628}},{"facility":"Volvat Medisinske senter, Oslo","city":"Oslo","zip":"N-0370","country":"Norway","geoPoint":{"lat":59.91273,"lon":10.74609}},{"facility":"Universitetssykehuset Nord-Norge, Tromsø","city":"Tromsø","zip":"N-9038","country":"Norway","geoPoint":{"lat":69.6489,"lon":18.95508}},{"facility":"Univ. Clinic Hosp, Bialystok","city":"Bialystok","zip":"15276","country":"Poland","geoPoint":{"lat":53.13333,"lon":23.16433}},{"facility":"Private Practice Jacek Kowalczyk, Bytom","city":"Bytom","zip":"41902","country":"Poland","geoPoint":{"lat":50.34802,"lon":18.93282}},{"facility":"Specialist Out-patient Clinics 'Na Gornej',Cieszyn","city":"Cieszyn","zip":"43400","country":"Poland","geoPoint":{"lat":49.75133,"lon":18.63213}},{"facility":"Specialistic Cardiology&Hypertension Out-patient Clin,Kielce","city":"Kielce","zip":"25525","country":"Poland","geoPoint":{"lat":50.87033,"lon":20.62752}},{"facility":"Private Practice of Heart Diseases Malgorzata Lelonek,Lodz","city":"Lodz","zip":"90727","country":"Poland","geoPoint":{"lat":51.75,"lon":19.46667}},{"facility":"Allmedica Sp. z.o.o, prac. Nowy Targ","city":"Nowy Targ","zip":"34400","country":"Poland","geoPoint":{"lat":49.47783,"lon":20.03228}},{"facility":"Private Specialistic Practices, Nysa","city":"Nysa","zip":"48300","country":"Poland","geoPoint":{"lat":50.47379,"lon":17.33437}},{"facility":"Reg.Hosp, Intern.Med.Ward w/ Intensive Cardiol.Care, Opoczno","city":"Opoczno","zip":"26300","country":"Poland","geoPoint":{"lat":51.37569,"lon":20.27827}},{"facility":"Szpital Specjalistyczny w Pulawach","city":"Pulawy","zip":"24-100","country":"Poland","geoPoint":{"lat":51.41655,"lon":21.96939}},{"facility":"Cardiology Out-patient Clinic \"Cardio-Plus\", Radlin","city":"Radlin","zip":"44144","country":"Poland","geoPoint":{"lat":50.0502,"lon":18.47626}},{"facility":"Internal Medicine,Cardiol.practiceWanda&Jerzy Sudnik,Sokolka","city":"Sokolka","zip":"16100","country":"Poland","geoPoint":{"lat":53.40715,"lon":23.50228}},{"facility":"Individual Specialist.Private Practice Dr.W.Krysiak,Szczecin","city":"Szczecin","country":"Poland","geoPoint":{"lat":53.42894,"lon":14.55302}},{"facility":"Individual Specialistic Private Practice,Dr.A.Tomasik,Zabrze","city":"Zabrze","zip":"41800","country":"Poland","geoPoint":{"lat":50.32492,"lon":18.78576}},{"facility":"Slaskie Center Heart Disease SUM,Cardiol.&Electr.Clin.Zabrze","city":"Zabrze","zip":"41800","country":"Poland","geoPoint":{"lat":50.32492,"lon":18.78576}},{"facility":"Hospital Garcia de Orta, EPE","city":"Almada","zip":"2805-267","country":"Portugal","geoPoint":{"lat":38.67902,"lon":-9.1569}},{"facility":"CHLO, EPE - Hospital de Santa Cruz","city":"Carnaxide","zip":"2799-523","country":"Portugal","geoPoint":{"lat":38.72706,"lon":-9.24671}},{"facility":"Centro Hospitalar da Cova da Beira Hospital Pêro da Covilhã","city":"Covilhã","zip":"6200-251","country":"Portugal","geoPoint":{"lat":40.28601,"lon":-7.50396}},{"facility":"Centro Hospitalar Algarve, EPE","city":"Faro","zip":"8000-386","country":"Portugal","geoPoint":{"lat":37.01937,"lon":-7.93223}},{"facility":"CHULN, EPE - Hospital de Santa Maria","city":"Lisboa","zip":"1064-035","country":"Portugal","geoPoint":{"lat":38.71667,"lon":-9.13333}},{"facility":"CHLO, EPE - Hospital S. Francisco Xavier","city":"Lisboa","zip":"1449-005","country":"Portugal","geoPoint":{"lat":38.71667,"lon":-9.13333}},{"facility":"Hospital da Luz","city":"Lisboa","zip":"1500-650","country":"Portugal","geoPoint":{"lat":38.71667,"lon":-9.13333}},{"facility":"CHULN, EPE - Hospital de Santa Maria","city":"Lisboa","zip":"1649-035","country":"Portugal","geoPoint":{"lat":38.71667,"lon":-9.13333}},{"facility":"Centro Hospitalar Universitário São João,EPE","city":"Porto","zip":"4202-451","country":"Portugal","geoPoint":{"lat":41.14961,"lon":-8.61099}},{"facility":"Hospital de Santiago","city":"Setúbal","zip":"2900-722","country":"Portugal","geoPoint":{"lat":38.5244,"lon":-8.8882}},{"facility":"Hospital do Espírito Santo, EPE","city":"Évora","zip":"7000-811","country":"Portugal","geoPoint":{"lat":38.56667,"lon":-7.9}},{"facility":"CMI Dr. Bogdan Minescu, Braila","city":"Braila","zip":"810262","country":"Romania","geoPoint":{"lat":45.26667,"lon":27.98333}},{"facility":"Emergency University Hospital, Bucharest","city":"Bucharest","zip":"050098","country":"Romania","geoPoint":{"lat":44.43225,"lon":26.10626}},{"facility":"ILRO Medical SRL, Bucharest","city":"Bucharest","zip":"10628","country":"Romania","geoPoint":{"lat":44.43225,"lon":26.10626}},{"facility":"Med.Centre Diagnosis,Treatm&Prev Med.Cardiol.Dept, Bucharest","city":"Bucharest","zip":"11792","country":"Romania","geoPoint":{"lat":44.43225,"lon":26.10626}},{"facility":"SC Titan Medical SRL, Bucharest","city":"Bucharest","zip":"21323","country":"Romania","geoPoint":{"lat":44.43225,"lon":26.10626}},{"facility":"Humanitas Medical Center, Bucharest","city":"Bucharest","zip":"62272","country":"Romania","geoPoint":{"lat":44.43225,"lon":26.10626}},{"facility":"SC Cardiomed SRL, Cluj Napoca","city":"Cluj Napoca","zip":"400015","country":"Romania","geoPoint":{"lat":46.76667,"lon":23.6}},{"facility":"SC Cardiomed SRL, Constanta","city":"Constanta","zip":"900704","country":"Romania","geoPoint":{"lat":44.18073,"lon":28.63432}},{"facility":"S.C Cardiomed S.R.L","city":"Craiova","zip":"200147","country":"Romania","geoPoint":{"lat":44.31667,"lon":23.8}},{"facility":"SC Cardiomed SRL, Iasi","city":"Iasi","zip":"700034","country":"Romania","geoPoint":{"lat":47.16667,"lon":27.6}},{"facility":"Galenus Medical Center, Targu Mures","city":"Targu Mures","zip":"540099","country":"Romania","geoPoint":{"lat":46.54245,"lon":24.55747}},{"facility":"Medicorclinics, Timisoara","city":"Timisoara","zip":"300014","country":"Romania","geoPoint":{"lat":45.75372,"lon":21.22571}},{"facility":"General Hospital Celje","city":"Celje","zip":"3000","country":"Slovenia","geoPoint":{"lat":46.23092,"lon":15.26044}},{"facility":"Univ. Medical Centre Ljubljana, Dept. of Vascular Diseases","city":"Ljubljana","zip":"1000","country":"Slovenia","geoPoint":{"lat":46.05108,"lon":14.50513}},{"facility":"Hospital A Coruña","city":"A Coruña","zip":"15006","country":"Spain","geoPoint":{"lat":43.37135,"lon":-8.396}},{"facility":"Hospital del Mar","city":"Barcelona","zip":"08003","country":"Spain","geoPoint":{"lat":41.38879,"lon":2.15899}},{"facility":"Hospital Vall d'Hebron","city":"Barcelona","zip":"08035","country":"Spain","geoPoint":{"lat":41.38879,"lon":2.15899}},{"facility":"Hospital Clínic de Barcelona","city":"Barcelona","zip":"08036","country":"Spain","geoPoint":{"lat":41.38879,"lon":2.15899}},{"facility":"CAP Passeig de Maragall","city":"Barcelona","zip":"08041","country":"Spain","geoPoint":{"lat":41.38879,"lon":2.15899}},{"facility":"Hospital Santa Lucía","city":"Cartagena (Murcia)","zip":"30202","country":"Spain"},{"facility":"Consultorio Cañaveral","city":"Cañaveral (Cáceres)","zip":"10820","country":"Spain"},{"facility":"Hospital La Princesa","city":"Cáceres","zip":"10820","country":"Spain","geoPoint":{"lat":39.47649,"lon":-6.37224}},{"facility":"Hospital Universitario Reina Sofía","city":"Córdoba","zip":"14004","country":"Spain","geoPoint":{"lat":37.89155,"lon":-4.77275}},{"facility":"Hospital Universitario Virgen de la Arrixaca","city":"El Palmar - Murcia","zip":"30120","country":"Spain"},{"facility":"Hospital Universitario San Cecilio","city":"Granada","zip":"18012","country":"Spain","geoPoint":{"lat":37.18817,"lon":-3.60667}},{"facility":"Hospital Jerez de la Frontera","city":"Jerez De La Frontera - Cádiz","zip":"11407","country":"Spain"},{"facility":"Hospital de Gran Canaria Dr. Negrín","city":"Las Palmas de Gran Canaria","zip":"35010","country":"Spain","geoPoint":{"lat":28.09973,"lon":-15.41343}},{"facility":"Hospital Severo Ochoa","city":"Leganes - Madrid","zip":"28911","country":"Spain"},{"facility":"Hospital de León","city":"Leon","zip":"24071","country":"Spain","geoPoint":{"lat":42.60003,"lon":-5.57032}},{"facility":"Hospital de León","city":"León","zip":"24071","country":"Spain","geoPoint":{"lat":42.60003,"lon":-5.57032}},{"facility":"Hospital Universitario Lucus Augusti","city":"Lugo","zip":"27004","country":"Spain","geoPoint":{"lat":43.00992,"lon":-7.55602}},{"facility":"Hospital Ramón y Cajal","city":"Madrid","zip":"28031","country":"Spain","geoPoint":{"lat":40.4165,"lon":-3.70256}},{"facility":"Centro de Salud Jazmin","city":"Madrid","zip":"28033","country":"Spain","geoPoint":{"lat":40.4165,"lon":-3.70256}},{"facility":"Centro de Salud Isla de Oza","city":"Madrid","zip":"28035","country":"Spain","geoPoint":{"lat":40.4165,"lon":-3.70256}},{"facility":"Fundación Jiménez Díaz","city":"Madrid","zip":"28040","country":"Spain","geoPoint":{"lat":40.4165,"lon":-3.70256}},{"facility":"Hospital Regional Universitario de Málaga","city":"Madrid","zip":"28040","country":"Spain","geoPoint":{"lat":40.4165,"lon":-3.70256}},{"facility":"Hospital Universitario 12 de Octubre","city":"Madrid","zip":"28041","country":"Spain","geoPoint":{"lat":40.4165,"lon":-3.70256}},{"facility":"Hospital La Paz","city":"Madrid","zip":"28046","country":"Spain","geoPoint":{"lat":40.4165,"lon":-3.70256}},{"facility":"Hospital Virgen de la Victoria","city":"Malaga","zip":"29010","country":"Spain","geoPoint":{"lat":36.72016,"lon":-4.42034}},{"facility":"Hospital Costa del Sol","city":"Marbella . Málaga","zip":"29603","country":"Spain"},{"facility":"Hospital de Son Llàtzer","city":"Palma de Mallorca","zip":"07198","country":"Spain","geoPoint":{"lat":39.56939,"lon":2.65024}},{"facility":"Complejo Hospitalario de Navarra","city":"Pamplona","zip":"31009","country":"Spain","geoPoint":{"lat":42.81687,"lon":-1.64323}},{"facility":"Hospital General Universitario de Alicante","city":"San Juan de Alicante","zip":"03550","country":"Spain","geoPoint":{"lat":38.40148,"lon":-0.43623}},{"facility":"Hospital Moises Broggi","city":"Sant Joan Despi","zip":"08970","country":"Spain","geoPoint":{"lat":41.36718,"lon":2.0574}},{"facility":"Hospital Universitario Marqués de Valdecilla","city":"Santander","zip":"39008","country":"Spain","geoPoint":{"lat":43.46472,"lon":-3.80444}},{"facility":"Hospital Clínico de Santiago","city":"Santiago de Compostela","zip":"15706","country":"Spain","geoPoint":{"lat":42.88052,"lon":-8.54569}},{"facility":"Hospital San Juan de Dios","city":"Sevilla","zip":"41005","country":"Spain","geoPoint":{"lat":37.38283,"lon":-5.97317}},{"facility":"Hospital Virgen del Rocío","city":"Sevilla","zip":"41012","country":"Spain","geoPoint":{"lat":37.38283,"lon":-5.97317}},{"facility":"ABP Salud Sevilla","city":"Sevilla","zip":"41013","country":"Spain","geoPoint":{"lat":37.38283,"lon":-5.97317}},{"facility":"Hospital Nuestra Señora de Valme","city":"Sevilla","zip":"41014","country":"Spain","geoPoint":{"lat":37.38283,"lon":-5.97317}},{"facility":"CS Ingeniero Joaquin Benlloch","city":"Valencia","zip":"46006","country":"Spain","geoPoint":{"lat":39.46975,"lon":-0.37739}},{"facility":"Hospital Univ La Fe","city":"Valencia","zip":"46009","country":"Spain","geoPoint":{"lat":39.46975,"lon":-0.37739}},{"facility":"Hospital General Universitario de Valencia","city":"Valencia","zip":"46014","country":"Spain","geoPoint":{"lat":39.46975,"lon":-0.37739}},{"facility":"Hospital Arnau de Vilanova","city":"Valencia","zip":"46015","country":"Spain","geoPoint":{"lat":39.46975,"lon":-0.37739}},{"facility":"Hospital Dr. Peset","city":"Valencia","zip":"46017","country":"Spain","geoPoint":{"lat":39.46975,"lon":-0.37739}},{"facility":"Hospital Meixoeiro","city":"Vigo","zip":"36200","country":"Spain","geoPoint":{"lat":42.23282,"lon":-8.72264}},{"facility":"Hospital Povisa","city":"Vigo","zip":"36211","country":"Spain","geoPoint":{"lat":42.23282,"lon":-8.72264}},{"facility":"Hospital Comarcal Axarquía","city":"Vélez-Málaga","zip":"29700","country":"Spain","geoPoint":{"lat":36.78107,"lon":-4.10266}},{"facility":"Falu lasarett","city":"Falun","zip":"791 82","country":"Sweden","geoPoint":{"lat":60.60357,"lon":15.62597}},{"facility":"Sahlgrenska Universitetssjukhuset, Östra","city":"Göteborg","zip":"416 85","country":"Sweden","geoPoint":{"lat":57.70716,"lon":11.96679}},{"facility":"Skånes universitetssjukhus, Malmö","city":"Malmö","zip":"205 02","country":"Sweden","geoPoint":{"lat":55.60587,"lon":13.00073}},{"facility":"Stockholm Heart Center AB","city":"Stockholm","zip":"111 35","country":"Sweden","geoPoint":{"lat":59.33258,"lon":18.0649}},{"facility":"Danderyds Sjukhus","city":"Stockholm","zip":"182 88","country":"Sweden","geoPoint":{"lat":59.33258,"lon":18.0649}},{"facility":"Norrlands Universitetssjukhus","city":"Umeå","zip":"901 85","country":"Sweden","geoPoint":{"lat":63.82842,"lon":20.25972}},{"facility":"Centrallasarettet, Västerås","city":"Västerås","zip":"721 89","country":"Sweden","geoPoint":{"lat":59.61617,"lon":16.55276}},{"facility":"Gale Farm Surgery","city":"Acomb","zip":"YO24 3BU","country":"United Kingdom","geoPoint":{"lat":54.99229,"lon":-2.11229}},{"facility":"William Harvey Hospital","city":"Ashford","zip":"TN24 0LZ","country":"United Kingdom","geoPoint":{"lat":51.14648,"lon":0.87376}},{"facility":"Axbridge and Wedmore Medical Practice","city":"Axbridge","zip":"BS26 2BJ","country":"United Kingdom","geoPoint":{"lat":51.28466,"lon":-2.82078}},{"facility":"Basildon University Hospital","city":"Basildon","zip":"SS16 5NL","country":"United Kingdom","geoPoint":{"lat":51.56844,"lon":0.45782}},{"facility":"North Hampshire Hospital","city":"Basingstoke","zip":"RG24 9NA","country":"United Kingdom","geoPoint":{"lat":51.26249,"lon":-1.08708}},{"facility":"Royal United Hospital","city":"Bath","zip":"BA1 3NG","country":"United Kingdom","geoPoint":{"lat":51.3751,"lon":-2.36172}},{"facility":"Beehive Surgery","city":"Bath","zip":"BA2 1NH","country":"United Kingdom","geoPoint":{"lat":51.3751,"lon":-2.36172}},{"facility":"Birmingham City Hospital","city":"Birmingham","zip":"B18 7QH","country":"United Kingdom","geoPoint":{"lat":52.48142,"lon":-1.89983}},{"facility":"Royal Bournemouth and Christchurch Hospital","city":"Bournemouth","zip":"BH7 7DW","country":"United Kingdom","geoPoint":{"lat":50.72048,"lon":-1.8795}},{"facility":"Bradford on Avon Health Centre","city":"Bradford on Avon","zip":"BA15 1DQ","country":"United Kingdom","geoPoint":{"lat":51.34772,"lon":-2.25065}},{"facility":"Southmead Hospital","city":"Bristol","zip":"BS10 5NB","country":"United Kingdom","geoPoint":{"lat":51.45523,"lon":-2.59665}},{"facility":"Bradgate Surgery","city":"Bristol","zip":"BS10 6SP","country":"United Kingdom","geoPoint":{"lat":51.45523,"lon":-2.59665}},{"facility":"Bristol Royal Infirmary","city":"Bristol","zip":"BS2 8HW","country":"United Kingdom","geoPoint":{"lat":51.45523,"lon":-2.59665}},{"facility":"Clevedon Riverside Group","city":"Bristol","zip":"BS21 6DG","country":"United Kingdom","geoPoint":{"lat":51.45523,"lon":-2.59665}},{"facility":"Burbage Surgery","city":"Burbage, Hinkley","zip":"LE10 2SE","country":"United Kingdom"},{"facility":"West Suffolk Hospital","city":"Bury St Edmunds","zip":"IP33 2QZ","country":"United Kingdom","geoPoint":{"lat":52.2463,"lon":0.71111}},{"facility":"Cumberland Infirmary","city":"Carlisle","zip":"CA2 7HY","country":"United Kingdom","geoPoint":{"lat":54.8951,"lon":-2.9382}},{"facility":"Countess of Chester Hospital","city":"Chester","zip":"CH2 1UL","country":"United Kingdom","geoPoint":{"lat":53.1905,"lon":-2.89189}},{"facility":"Castle Hill Hopsital","city":"Cottingham","zip":"HU16 5JQ","country":"United Kingdom","geoPoint":{"lat":52.50243,"lon":-0.7554}},{"facility":"Pound Hill Medical Group","city":"Crawley","zip":"RH10 7DX","country":"United Kingdom","geoPoint":{"lat":51.11303,"lon":-0.18312}},{"facility":"Dorset County Hospital","city":"Dorchester","zip":"DT1 2JY","country":"United Kingdom","geoPoint":{"lat":50.71667,"lon":-2.43333}},{"facility":"Russells Hall Hospital","city":"Dudley","zip":"DY1 2HQ","country":"United Kingdom","geoPoint":{"lat":52.5,"lon":-2.08333}},{"facility":"Ninewells Hospital & Medical School","city":"Dundee","zip":"DD1 9SY","country":"United Kingdom","geoPoint":{"lat":56.46913,"lon":-2.97489}},{"facility":"University Hospital of North Durham","city":"Durham","zip":"DH1 5TW","country":"United Kingdom","geoPoint":{"lat":54.77676,"lon":-1.57566}},{"facility":"Royal Devon and Exeter Hospital","city":"Exeter","zip":"EX2 5DW","country":"United Kingdom","geoPoint":{"lat":50.7236,"lon":-3.52751}},{"facility":"Gloucestershire Royal Hospital","city":"Gloucester","zip":"GL1 3NN","country":"United Kingdom","geoPoint":{"lat":51.86568,"lon":-2.2431}},{"facility":"The County Hospital","city":"Hereford","zip":"HR1 2ER","country":"United Kingdom","geoPoint":{"lat":52.05684,"lon":-2.71482}},{"facility":"Wycombe General Hospital","city":"High Wycombe","zip":"HP11 2TT","country":"United Kingdom","geoPoint":{"lat":51.62907,"lon":-0.74934}},{"facility":"Honiton Surgery Group - Seamark","city":"Honiton","zip":"EX14 2NY","country":"United Kingdom","geoPoint":{"lat":50.7996,"lon":-3.18899}},{"facility":"Hedon Group Practice","city":"Hull","zip":"HU12 8JD","country":"United Kingdom","geoPoint":{"lat":53.7446,"lon":-0.33525}},{"facility":"Airedale General Hospital","city":"Keighley","zip":"BD20 6TD","country":"United Kingdom","geoPoint":{"lat":53.86791,"lon":-1.90664}},{"facility":"Westmorland General Hospital","city":"Kendal","zip":"LA9 7RG","country":"United Kingdom","geoPoint":{"lat":54.32681,"lon":-2.74757}},{"facility":"Sherbourne Medical Centre","city":"Leamington Spa","zip":"CV32 4RA","country":"United Kingdom","geoPoint":{"lat":52.3,"lon":-1.53333}},{"facility":"Leeds General Infirmary","city":"Leeds","zip":"LS1 3EX","country":"United Kingdom","geoPoint":{"lat":53.79648,"lon":-1.54785}},{"facility":"Research Unit, Liverpool Heart and Chest Hospital","city":"Liverpool","zip":"L14 3PE","country":"United Kingdom","geoPoint":{"lat":53.41058,"lon":-2.97794}},{"facility":"Aintree University Hospital","city":"Liverpool","zip":"L9 7AL","country":"United Kingdom","geoPoint":{"lat":53.41058,"lon":-2.97794}},{"facility":"Altnagelvin Area Hospital","city":"Londonderry","zip":"BT47 6SB","country":"United Kingdom","geoPoint":{"lat":54.9981,"lon":-7.30934}},{"facility":"University Hospital Lewisham","city":"London","zip":"SE13 6LH","country":"United Kingdom","geoPoint":{"lat":51.50853,"lon":-0.12574}},{"facility":"St George's Hospital","city":"London","zip":"SW17 0RE","country":"United Kingdom","geoPoint":{"lat":51.50853,"lon":-0.12574}},{"facility":"Luton and Dunstable University Hospital","city":"Luton","zip":"LU4 0DZ","country":"United Kingdom","geoPoint":{"lat":51.87967,"lon":-0.41748}},{"facility":"St Chad's Surgery","city":"Midsomer Norton","zip":"BA3 2UH","country":"United Kingdom","geoPoint":{"lat":51.28567,"lon":-2.48591}},{"facility":"Northampton General Hospital","city":"Northampton","zip":"NN1 5BD","country":"United Kingdom","geoPoint":{"lat":52.25,"lon":-0.88333}},{"facility":"Norfolk and Norwich University Hospital","city":"Norwich","zip":"NR4 7UY","country":"United Kingdom","geoPoint":{"lat":52.62783,"lon":1.29834}},{"facility":"George Eliot Hospital","city":"Nuneaton","zip":"CV10 7DJ","country":"United Kingdom","geoPoint":{"lat":52.52323,"lon":-1.46523}},{"facility":"Royal Oldham Hospital","city":"Oldham","zip":"OL1 2JH","country":"United Kingdom","geoPoint":{"lat":53.54051,"lon":-2.1183}},{"facility":"Perth Royal Infirmary","city":"Perth","zip":"PH1 1NX","country":"United Kingdom","geoPoint":{"lat":56.39522,"lon":-3.43139}},{"facility":"Peterborough City Hospital","city":"Peterborough","zip":"PE3 9GZ","country":"United Kingdom","geoPoint":{"lat":52.57364,"lon":-0.24777}},{"facility":"Derriford Hospital","city":"Plymouth","zip":"PL6 8DH","country":"United Kingdom","geoPoint":{"lat":50.37153,"lon":-4.14305}},{"facility":"Poole Hospital","city":"Poole","zip":"BH15 2JB","country":"United Kingdom","geoPoint":{"lat":50.71429,"lon":-1.98458}},{"facility":"Craigavon Area Hospital","city":"Portadown, County Atrim","zip":"BT63 5QQ","country":"United Kingdom"},{"facility":"Royal Preston Hospital","city":"Preston","zip":"PR2 9HT","country":"United Kingdom","geoPoint":{"lat":53.76282,"lon":-2.70452}},{"facility":"Royal Berkshire Hospital","city":"Reading","zip":"RG1 5AN","country":"United Kingdom","geoPoint":{"lat":51.45625,"lon":-0.97113}},{"facility":"Alexandra Hospital","city":"Redditch","zip":"B98 7UB","country":"United Kingdom","geoPoint":{"lat":52.3065,"lon":-1.94569}},{"facility":"Cape Cornwall Surgery","city":"Saint Just, Penzance","zip":"TR19 7HX","country":"United Kingdom"},{"facility":"Salisbury District Hospital","city":"Salisbury","zip":"SP2 8BJ","country":"United Kingdom","geoPoint":{"lat":51.06931,"lon":-1.79569}},{"facility":"Royal Shrewsbury Hospital","city":"Shrewsbury","zip":"SY3 8XQ","country":"United Kingdom","geoPoint":{"lat":52.71009,"lon":-2.75208}},{"facility":"Wexham Park Hospital","city":"Slough","zip":"SL2 4HL","country":"United Kingdom","geoPoint":{"lat":51.50949,"lon":-0.59541}},{"facility":"The Conquest Hospital","city":"St Leonards on Sea","zip":"TN37 7RD","country":"United Kingdom","geoPoint":{"lat":50.85565,"lon":0.5452}},{"facility":"County Hospital","city":"Stafford","zip":"ST16 3SA","country":"United Kingdom","geoPoint":{"lat":52.80521,"lon":-2.11636}},{"facility":"Branch End Surgery","city":"Stocksfield","zip":"NE43 7LL","country":"United Kingdom","geoPoint":{"lat":54.94048,"lon":-1.90447}},{"facility":"Royal Stoke University Hospital","city":"Stoke-on-Trent","zip":"ST4 6QG","country":"United Kingdom","geoPoint":{"lat":53.00415,"lon":-2.18538}},{"facility":"Sunderland Royal Hospital","city":"Sunderland","zip":"SR4 7TP","country":"United Kingdom","geoPoint":{"lat":54.90465,"lon":-1.38222}},{"facility":"King's Mill Hospital","city":"Sutton in Ashfield","zip":"NG17 4JL","country":"United Kingdom","geoPoint":{"lat":53.12542,"lon":-1.26135}},{"facility":"Singleton Hospital","city":"Swansea","zip":"SA2 8QA","country":"United Kingdom","geoPoint":{"lat":51.62079,"lon":-3.94323}},{"facility":"Musgrove Park Hospital","city":"Taunton","zip":"TA1 5DA","country":"United Kingdom","geoPoint":{"lat":51.01494,"lon":-3.10293}},{"facility":"Torbay Hospital","city":"Torquay","zip":"TQ2 7AA","country":"United Kingdom","geoPoint":{"lat":50.46198,"lon":-3.5252}},{"facility":"South Tyneside District Hospital","city":"Tyne-and-Wear","zip":"NE34 0PL","country":"United Kingdom"},{"facility":"Hillingdon Hospital","city":"Uxbridge","zip":"UB8 3NN","country":"United Kingdom","geoPoint":{"lat":51.5489,"lon":-0.48211}},{"facility":"Wansford Surgery","city":"Wansford, Peterborough","zip":"PE8 6PL","country":"United Kingdom"},{"facility":"The Avenue Surgery","city":"Warminster","zip":"BA12 9AA","country":"United Kingdom","geoPoint":{"lat":51.20434,"lon":-2.17873}},{"facility":"Warwick Hospital","city":"Warwick","zip":"CV34 5BJ","country":"United Kingdom","geoPoint":{"lat":52.28333,"lon":-1.58333}},{"facility":"Queen Elizabeth II Hospital","city":"Welwyn Garden City","zip":"AL7 4HQ","country":"United Kingdom","geoPoint":{"lat":51.80174,"lon":-0.20691}},{"facility":"Westbury Group Practice","city":"Westbury","zip":"BA13 3FQ","country":"United Kingdom","geoPoint":{"lat":51.26,"lon":-2.1875}},{"facility":"Southend General Hospital","city":"Westcliffe-on-Sea","zip":"SS0 0RY","country":"United Kingdom"},{"facility":"Whitby Group Practice","city":"Whitby","zip":"YO21 1SD","country":"United Kingdom","geoPoint":{"lat":54.48774,"lon":-0.61498}},{"facility":"Arrowe Park Hospital","city":"Wirral","zip":"CH49 5PE","country":"United Kingdom","geoPoint":{"lat":53.37616,"lon":-3.10501}},{"facility":"New Cross Hospital","city":"Wolverhampton","zip":"WV10 0QP","country":"United Kingdom","geoPoint":{"lat":52.58547,"lon":-2.12296}},{"facility":"Jorvik Medical Practice","city":"York","zip":"YO1 7NP","country":"United Kingdom","geoPoint":{"lat":53.95763,"lon":-1.08271}},{"facility":"York Medical Group","city":"York","zip":"YO24 4HD","country":"United Kingdom","geoPoint":{"lat":53.95763,"lon":-1.08271}},{"facility":"The York Hospital","city":"York","zip":"YO31 8HE","country":"United Kingdom","geoPoint":{"lat":53.95763,"lon":-1.08271}},{"facility":"MyHealth, Strensall Health Care Centre","city":"York","zip":"YO32 5UA","country":"United Kingdom","geoPoint":{"lat":53.95763,"lon":-1.08271}}]},"referencesModule":{"references":[{"pmid":"35876418","type":"DERIVED","citation":"Ding WY, Lane DA, Gupta D, Huisman MV, Lip GYH; GLORIA-AF Investigators. Incidence and Risk Factors for Residual Adverse Events Despite Anticoagulation in Atrial Fibrillation: Results From Phase II/III of the GLORIA-AF Registry. J Am Heart Assoc. 2022 Aug 2;11(15):e026410. doi: 10.1161/JAHA.122.026410. Epub 2022 Jul 25."},{"pmid":"35488127","type":"DERIVED","citation":"Ding WY, Calvert P, Gupta D, Huisman MV, Lip GYH; GLORIA-AF Investigators. Impact of early ablation of atrial fibrillation on long-term outcomes: results from phase II/III of the GLORIA-AF registry. Clin Res Cardiol. 2022 Sep;111(9):1057-1068. doi: 10.1007/s00392-022-02022-1. Epub 2022 Apr 29."},{"pmid":"35294625","type":"DERIVED","citation":"Lip GYH, Kotalczyk A, Teutsch C, Diener HC, Dubner SJ, Halperin JL, Ma CS, Rothman KJ, Marler S, Gurusamy VK, Huisman MV; GLORIA-AF Investigators. Comparative effectiveness and safety of non-vitamin K antagonists for atrial fibrillation in clinical practice: GLORIA-AF Registry. Clin Res Cardiol. 2022 May;111(5):560-573. doi: 10.1007/s00392-022-01996-2. Epub 2022 Mar 16. Erratum In: Clin Res Cardiol. 2022 Apr 6;:"},{"pmid":"35294623","type":"DERIVED","citation":"Huisman MV, Teutsch C, Lu S, Diener HC, Dubner SJ, Halperin JL, Ma CS, Rothman KJ, Lohmann R, Gurusamy VK, Bartels DB, Lip GYH; GLORIA-AF Investigators. Dabigatran versus vitamin K antagonists for atrial fibrillation in clinical practice: final outcomes from Phase III of the GLORIA-AF registry. Clin Res Cardiol. 2022 May;111(5):548-559. doi: 10.1007/s00392-021-01957-1. Epub 2022 Mar 16."},{"pmid":"35243870","type":"DERIVED","citation":"Bayer V, Kotalczyk A, Kea B, Teutsch C, Larsen P, Button D, Huisman MV, Lip GYH, Olshansky B. Global Oral Anticoagulation Use Varies by Region in Patients With Recent Diagnosis of Atrial Fibrillation: The GLORIA-AF Phase III Registry. J Am Heart Assoc. 2022 Mar 15;11(6):e023907. doi: 10.1161/JAHA.121.023907. Epub 2022 Mar 4."},{"pmid":"33338644","type":"DERIVED","citation":"Ntaios G, Huisman MV, Diener HC, Halperin JL, Teutsch C, Marler S, Gurusamy VK, Thompson M, Lip GYH, Olshansky B; GLORIA-AF Investigators. Anticoagulant selection in relation to the SAMe-TT2R2 score in patients with atrial fibrillation: The GLORIA-AF registry. Hellenic J Cardiol. 2021 Mar-Apr;62(2):152-157. doi: 10.1016/j.hjc.2020.11.009. Epub 2020 Dec 15."},{"pmid":"29653649","type":"DERIVED","citation":"Huisman MV, Rothman KJ, Paquette M, Teutsch C, Diener HC, Dubner SJ, Halperin JL, Ma CS, Zint K, Elsaesser A, Lu S, Bartels DB, Lip GYH; GLORIA-AF Investigators. Two-year follow-up of patients treated with dabigatran for stroke prevention in atrial fibrillation: Global Registry on Long-Term Antithrombotic Treatment in Patients with Atrial Fibrillation (GLORIA-AF) registry. Am Heart J. 2018 Apr;198:55-63. doi: 10.1016/j.ahj.2017.08.018. Epub 2017 Aug 31."},{"pmid":"24576516","type":"DERIVED","citation":"Huisman MV, Lip GY, Diener HC, Dubner SJ, Halperin JL, Ma CS, Rothman KJ, Teutsch C, Zint K, Ackermann D, Clemens A, Bartels DB. Design and rationale of Global Registry on Long-Term Oral Antithrombotic Treatment in Patients with Atrial Fibrillation: a global registry program on long-term oral antithrombotic treatment in patients with atrial fibrillation. Am Heart J. 2014 Mar;167(3):329-34. doi: 10.1016/j.ahj.2013.12.006. Epub 2013 Dec 19."}],"seeAlsoLinks":[{"label":"Related Info","url":"https://trials.boehringer-ingelheim.com/"}]}},"resultsSection":{"participantFlowModule":{"preAssignmentDetails":"All subjects were screened for eligibility prior to participation in the study. Subjects attended a participating site which ensured that they (the subjects) strictly met all inclusion and none of the exclusion criteria.","recruitmentDetails":"This study investigated characteristics of patients with non-valvular atrial fibrillation influencing the choice of antithrombotic treatment for the prevention of stroke, and the safety and effectiveness of dabigatran versus Vitamin K Antagonist for up to 3-year follow-up period.","groups":[{"id":"FG000","title":"Dabigatran Etexilate - Baseline","description":"Patients who were prescribed Dabigatran etexilate at baseline were included in this group. Patients can take other Antithrombotic treatments later during the study.\n\nPatients who were newly diagnosed non-valvular Atrial Fibrillation (AF) less than 3 months before the baseline visits (less than 4.5 months before baseline visit for Latin America) and who were at risk for stroke in a real-life setting. Antithrombotic treatments were used according to local practice for stroke prevention. The choice of antithrombotic agent and dosing was at the discretion of the treating physician."},{"id":"FG001","title":"Vitamin K Antagonist (VKA) - Baseline","description":"Patients who were prescribed Vitamin K Antagonist (VKA) at baseline were included in this group. Patients can take other Antithrombotic treatments later during the study.\n\nPatients who were newly diagnosed non-valvular Atrial Fibrillation (AF) less than 3 months before the baseline visits (less than 4.5 months before baseline visit for Latin America) and who were at risk for stroke in a real-life setting. Antithrombotic treatments were used according to local practice for stroke prevention. The choice of antithrombotic agent and dosing was at the discretion of the treating physician."},{"id":"FG002","title":"Rivaroxaban - Baseline","description":"Patients who were prescribed Rivaroxaban at baseline were included in this group. Patients can take other Antithrombotic treatments later during the study.\n\nPatients who were newly diagnosed non-valvular Atrial Fibrillation (AF) less than 3 months before the baseline visits (less than 4.5 months before baseline visit for Latin America) and who were at risk for stroke in a real-life setting. Antithrombotic treatments were used according to local practice for stroke prevention. The choice of antithrombotic agent and dosing was at the discretion of the treating physician."},{"id":"FG003","title":"Apixaban - Baseline","description":"Patients who were prescribed Apixaban at baseline were included in this group. Patients can take other Antithrombotic treatments later during the study.\n\nPatients who were newly diagnosed non-valvular Atrial Fibrillation (AF) less than 3 months before the baseline visits (less than 4.5 months before baseline visit for Latin America) and who were at risk for stroke in a real-life setting. Antithrombotic treatments were used according to local practice for stroke prevention. The choice of antithrombotic agent and dosing was at the discretion of the treating physician."},{"id":"FG004","title":"Edoxaban - Baseline","description":"Patients who were prescribed Edoxaban at baseline were included in this group. Patients can take other Antithrombotic treatments later during the study.\n\nPatients who were newly diagnosed non-valvular Atrial Fibrillation (AF) less than 3 months before the baseline visits (less than 4.5 months before baseline visit for Latin America) and who were at risk for stroke in a real-life setting. Antithrombotic treatments were used according to local practice for stroke prevention. The choice of antithrombotic agent and dosing was at the discretion of the treating physician."},{"id":"FG005","title":"Acetylsalicylic Acid (ASA) - Baseline","description":"Patients who were prescribed Acetylsalicylic acid (ASA) at baseline were included in this group. Patients can take other Antithrombotic treatments later during the study.\n\nPatients who were newly diagnosed non-valvular Atrial Fibrillation (AF) less than 3 months before the baseline visits (less than 4.5 months before baseline visit for Latin America) and who were at risk for stroke in a real-life setting. Antithrombotic treatments were used according to local practice for stroke prevention. The choice of antithrombotic agent and dosing was at the discretion of the treating physician."},{"id":"FG006","title":"Antiplts Other Than ASA - Baseline","description":"Patients who were prescribed Antiplts other than Acetylsalicylic acid (ASA) at baseline were included in this group. Patients can take other Antithrombotic treatments later during the study.\n\nPatients who were newly diagnosed non-valvular Atrial Fibrillation (AF) less than 3 months before the baseline visits (less than 4.5 months before baseline visit for Latin America) and who were at risk for stroke in a real-life setting. Antithrombotic treatments were used according to local practice for stroke prevention. The choice of antithrombotic agent and dosing was at the discretion of the treating physician."},{"id":"FG007","title":"No Treatment - Baseline","description":"Patients who were prescribed no treatment at baseline were included in this group. Patients can take other Antithrombotic treatments later during the study.\n\nPatients who were newly diagnosed non-valvular Atrial Fibrillation (AF) less than 3 months before the baseline visits (less than 4.5 months before baseline visit for Latin America) and who were at risk for stroke in a real-life setting. Antithrombotic treatments were used according to local practice for stroke prevention. The choice of antithrombotic agent and dosing was at the discretion of the treating physician."},{"id":"FG008","title":"Combinations With Oral Anticoagulants - Baseline","description":"Patients who were prescribed the treatments with combinations with oral anticoagulants at baseline were included in this group. This group of patients were not included in the safety analysis as no specific treatment can be defined.\n\nPatients who were newly diagnosed non-valvular Atrial Fibrillation (AF) less than 3 months before the baseline visits (less than 4.5 months before baseline visit for Latin America) and who were at risk for stroke in a real-life setting. Antithrombotic treatments were used according to local practice for stroke prevention. The choice of antithrombotic agent and dosing was at the discretion of the treating physician."}],"periods":[{"title":"Overall Study","milestones":[{"type":"STARTED","achievements":[{"groupId":"FG000","numSubjects":"2089"},{"groupId":"FG001","numSubjects":"2834"},{"groupId":"FG002","numSubjects":"2033"},{"groupId":"FG003","numSubjects":"2214"},{"groupId":"FG004","numSubjects":"180"},{"groupId":"FG005","numSubjects":"513"},{"groupId":"FG006","numSubjects":"80"},{"groupId":"FG007","numSubjects":"526"},{"groupId":"FG008","numSubjects":"2"}]},{"type":"All Eligible","achievements":[{"groupId":"FG000","numSubjects":"2066"},{"groupId":"FG001","numSubjects":"2758"},{"groupId":"FG002","numSubjects":"2008"},{"groupId":"FG003","numSubjects":"2197"},{"groupId":"FG004","numSubjects":"180"},{"groupId":"FG005","numSubjects":"507"},{"groupId":"FG006","numSubjects":"79"},{"groupId":"FG007","numSubjects":"507"},{"groupId":"FG008","numSubjects":"2"}]},{"type":"COMPLETED","achievements":[{"groupId":"FG000","numSubjects":"1768"},{"groupId":"FG001","numSubjects":"2183"},{"groupId":"FG002","numSubjects":"1667"},{"groupId":"FG003","numSubjects":"1846"},{"groupId":"FG004","numSubjects":"155"},{"groupId":"FG005","numSubjects":"401"},{"groupId":"FG006","numSubjects":"59"},{"groupId":"FG007","numSubjects":"394"},{"groupId":"FG008","numSubjects":"2"}]},{"type":"NOT COMPLETED","achievements":[{"groupId":"FG000","numSubjects":"321"},{"groupId":"FG001","numSubjects":"651"},{"groupId":"FG002","numSubjects":"366"},{"groupId":"FG003","numSubjects":"368"},{"groupId":"FG004","numSubjects":"25"},{"groupId":"FG005","numSubjects":"112"},{"groupId":"FG006","numSubjects":"21"},{"groupId":"FG007","numSubjects":"132"},{"groupId":"FG008","numSubjects":"0"}]}],"dropWithdraws":[{"type":"Other reasons than listed","reasons":[{"groupId":"FG000","numSubjects":"166"},{"groupId":"FG001","numSubjects":"373"},{"groupId":"FG002","numSubjects":"197"},{"groupId":"FG003","numSubjects":"228"},{"groupId":"FG004","numSubjects":"14"},{"groupId":"FG005","numSubjects":"71"},{"groupId":"FG006","numSubjects":"17"},{"groupId":"FG007","numSubjects":"66"},{"groupId":"FG008","numSubjects":"0"}]},{"type":"Withdrawal by Subject","reasons":[{"groupId":"FG000","numSubjects":"36"},{"groupId":"FG001","numSubjects":"59"},{"groupId":"FG002","numSubjects":"53"},{"groupId":"FG003","numSubjects":"58"},{"groupId":"FG004","numSubjects":"4"},{"groupId":"FG005","numSubjects":"15"},{"groupId":"FG006","numSubjects":"1"},{"groupId":"FG007","numSubjects":"19"},{"groupId":"FG008","numSubjects":"0"}]},{"type":"Lost to Follow-up","reasons":[{"groupId":"FG000","numSubjects":"93"},{"groupId":"FG001","numSubjects":"142"},{"groupId":"FG002","numSubjects":"91"},{"groupId":"FG003","numSubjects":"63"},{"groupId":"FG004","numSubjects":"7"},{"groupId":"FG005","numSubjects":"20"},{"groupId":"FG006","numSubjects":"2"},{"groupId":"FG007","numSubjects":"28"},{"groupId":"FG008","numSubjects":"0"}]},{"type":"No end of study case report form","reasons":[{"groupId":"FG000","numSubjects":"3"},{"groupId":"FG001","numSubjects":"1"},{"groupId":"FG002","numSubjects":"0"},{"groupId":"FG003","numSubjects":"2"},{"groupId":"FG004","numSubjects":"0"},{"groupId":"FG005","numSubjects":"0"},{"groupId":"FG006","numSubjects":"0"},{"groupId":"FG007","numSubjects":"0"},{"groupId":"FG008","numSubjects":"0"}]},{"type":"Not eligible","reasons":[{"groupId":"FG000","numSubjects":"23"},{"groupId":"FG001","numSubjects":"76"},{"groupId":"FG002","numSubjects":"25"},{"groupId":"FG003","numSubjects":"17"},{"groupId":"FG004","numSubjects":"0"},{"groupId":"FG005","numSubjects":"6"},{"groupId":"FG006","numSubjects":"1"},{"groupId":"FG007","numSubjects":"19"},{"groupId":"FG008","numSubjects":"0"}]}]}]},"baselineCharacteristicsModule":{"populationDescription":"All eligible: All patients who were enrolled and eligible (i.e. did not have any important. protocol violation(s) and who met certain data cleaning requirements).","groups":[{"id":"BG000","title":"Dabigatran Etexilate - Baseline","description":"Patients who were prescribed Dabigatran etexilate at baseline were included in this group. Patients can take other Antithrombotic treatments later during the study.\n\nPatients who were newly diagnosed non-valvular Atrial Fibrillation (AF) less than 3 months before the baseline visits (less than 4.5 months before baseline visit for Latin America) and who were at risk for stroke in a real-life setting. Antithrombotic treatments were used according to local practice for stroke prevention. The choice of antithrombotic agent and dosing was at the discretion of the treating physician."},{"id":"BG001","title":"Vitamin K Antagonist (VKA) - Baseline","description":"Patients who were prescribed Vitamin K Antagonist (VKA) at baseline were included in this group. Patients can take other Antithrombotic treatments later during the study.\n\nPatients who were newly diagnosed non-valvular Atrial Fibrillation (AF) less than 3 months before the baseline visits (less than 4.5 months before baseline visit for Latin America) and who were at risk for stroke in a real-life setting. Antithrombotic treatments were used according to local practice for stroke prevention. The choice of antithrombotic agent and dosing was at the discretion of the treating physician."},