{"protocolSection":{"identificationModule":{"nctId":"NCT00548223","orgStudyIdInfo":{"id":"2006BAI04A02"},"secondaryIdInfos":[{"id":"2006BAI04A02","type":"OTHER_GRANT","domain":"\"Eleventh Five\" program of China"}],"organization":{"fullName":"Guangzhou University of Traditional Chinese Medicine","class":"OTHER"},"briefTitle":"The Secondary Prevention Trial for Ischemic Stroke With DengzhanShengmai Capsule","officialTitle":"Model Study on the Comprehensive Treating Protocol and Effect Evaluation of Ischemic Stroke With Traditional Chinese Medicine","acronym":"SPIRITDZSM1"},"statusModule":{"statusVerifiedDate":"2013-08","overallStatus":"COMPLETED","expandedAccessInfo":{"hasExpandedAccess":false},"startDateStruct":{"date":"2007-12"},"primaryCompletionDateStruct":{"date":"2011-01","type":"ACTUAL"},"completionDateStruct":{"date":"2011-01","type":"ACTUAL"},"studyFirstSubmitDate":"2007-10-11","studyFirstSubmitQcDate":"2007-10-22","studyFirstPostDateStruct":{"date":"2007-10-23","type":"ESTIMATED"},"lastUpdateSubmitDate":"2013-08-05","lastUpdatePostDateStruct":{"date":"2013-08-07","type":"ESTIMATED"}},"sponsorCollaboratorsModule":{"responsibleParty":{"type":"PRINCIPAL_INVESTIGATOR","investigatorFullName":"jianwen guo, MD","investigatorTitle":"Professor","investigatorAffiliation":"Guangzhou University of Traditional Chinese Medicine"},"leadSponsor":{"name":"Guangzhou University of Traditional Chinese Medicine","class":"OTHER"},"collaborators":[{"name":"Second Affiliated Hospital, School of Medicine, Zhejiang University","class":"OTHER"},{"name":"Nanhai Hospital of Traditional Chinese Medicine","class":"OTHER"},{"name":"People's hospital of Huizhou city","class":"UNKNOWN"},{"name":"Taishan city hospital of TCM","class":"UNKNOWN"},{"name":"Ruijin Hospital","class":"OTHER"},{"name":"First Affiliated Hospital of Fujian Medical University","class":"OTHER"},{"name":"Yangjiang City Hospital of TCM in Guangdong Province","class":"UNKNOWN"},{"name":"Xinxing county hospital of TCM","class":"UNKNOWN"},{"name":"Southern branch of yuexiu district hospital of TCM","class":"UNKNOWN"},{"name":"Xinhui hospital of TCM of Jiangmen","class":"UNKNOWN"},{"name":"Shanghai Pudong New Area People's Hospital","class":"OTHER"},{"name":"People's hospital of Jianyang city","class":"UNKNOWN"},{"name":"Luzhou Medical College","class":"OTHER"},{"name":"Mianyang city hospital of TCM","class":"UNKNOWN"},{"name":"Guangyuan city hospital of TCM of Sichuan Province","class":"UNKNOWN"},{"name":"The Third Affiliated Hospital of Guangzhou Medical University","class":"OTHER"},{"name":"Shunde district hospital of TCM","class":"UNKNOWN"},{"name":"Shenzhen People's Hospital","class":"OTHER"},{"name":"Anyue County Hospital of Traditional Chinese","class":"OTHER"},{"name":"Chengdu Integrated TCM&Western Medicine Hospital","class":"UNKNOWN"},{"name":"Guangzhou Red Cross Hospital","class":"OTHER"},{"name":"Jiangsu Provincial People's Hospital","class":"OTHER"},{"name":"Ankang Hospital of Traditional Chinese Medicine","class":"OTHER"},{"name":"Qishan county hospital of shaanxi province","class":"UNKNOWN"},{"name":"Zongrui Hospital","class":"OTHER"},{"name":"First Affiliated Hospital of Xinjiang Medical University","class":"OTHER"},{"name":"Lianyungang Chinese Medicine Hospital","class":"UNKNOWN"},{"name":"Yufu City Hospital of TCM in Guangdong Province","class":"UNKNOWN"},{"name":"169 Military Hospital of China","class":"OTHER"},{"name":"First Affiliated Hospital of Liaoning University of Traditional Chinese Medicine","class":"OTHER"},{"name":"The second affiliated hospital of shanxi college of TCM","class":"UNKNOWN"},{"name":"URUMQI Hospital of Traditional Chinese Medicine","class":"UNKNOWN"},{"name":"Hubei General Hospital","class":"UNKNOWN"},{"name":"The People's Hospital of Leshan","class":"OTHER"},{"name":"Guagnzhou Liwan district Hospital of TCM","class":"UNKNOWN"},{"name":"Longhua Hospital","class":"OTHER"},{"name":"Shanghai Jiao Tong University School of Medicine","class":"OTHER"},{"name":"Hangzhou City Hospital of TCM","class":"UNKNOWN"},{"name":"Dongguan city hospital of TCM","class":"UNKNOWN"},{"name":"Liuzhou City hospital of TCM","class":"UNKNOWN"},{"name":"Maoming city hospital of TCM","class":"UNKNOWN"},{"name":"Beijing Tiantan Hospital","class":"OTHER"},{"name":"Affiliated Hospital of Nantong University","class":"OTHER"},{"name":"Xi'an city hospital of TCM","class":"UNKNOWN"},{"name":"Jiangsu province hospital of TCM","class":"UNKNOWN"},{"name":"The Third People's Hospital of Chengdu","class":"OTHER"},{"name":"Huizhou Municipal Central Hospital","class":"OTHER"},{"name":"Zhejiang Provincial Hospital of TCM","class":"OTHER"},{"name":"The Second People's Hospital of Yibin","class":"OTHER"},{"name":"Shanxi Provincial People's Hospital","class":"OTHER_GOV"},{"name":"The First Affiliated Hospital of Guangzhou Medical University","class":"OTHER"},{"name":"Guangxi Ruikang Hospital","class":"OTHER"},{"name":"Third Affiliated Hospital, Sun Yat-Sen University","class":"OTHER"},{"name":"First Teaching Hospital of Tianjin University of Traditional Chinese Medicine","class":"OTHER"},{"name":"Afﬁliated Hospital of North Sichuan Medical College","class":"OTHER"},{"name":"The Third Affiliated Hospital of Henan University of Traditional Chinese Medicine","class":"OTHER"},{"name":"ZhuHai Hospital","class":"OTHER"},{"name":"Nanfang Hospital, Southern Medical University","class":"OTHER"},{"name":"West China Hospital","class":"OTHER"},{"name":"Guangdong Second Provincial Traditional Chinese Medicine Hospital","class":"INDUSTRY"},{"name":"Handan First Hospital","class":"OTHER"},{"name":"The First Affiliated Hospital of Anhui University of Traditional Chinese Medicine","class":"OTHER"},{"name":"Conghua city hospital of TCM","class":"UNKNOWN"},{"name":"The First Affiliated Hospital of Guangxi University of Chinese Medicine","class":"UNKNOWN"},{"name":"Hubei Hospital of Traditional Chinese Medicine","class":"OTHER"},{"name":"Jinan city hospital of TCM","class":"UNKNOWN"},{"name":"Shaanxi Hospital of Traditional Chinese Medicine","class":"OTHER"},{"name":"Suining People's Hospital","class":"UNKNOWN"},{"name":"Wuzhou Red Cross Hospital","class":"OTHER"},{"name":"Wuhan Interated ＆Western Hospital","class":"UNKNOWN"},{"name":"Second Affiliated Hospital of Xi'an Jiaotong University","class":"OTHER"},{"name":"Xi'an Central Hospital","class":"OTHER"},{"name":"Zhengzhou City Hospital of Traditional Chinese Medicine","class":"OTHER"},{"name":"Xiangya Hospital of Central South University","class":"OTHER"},{"name":"Second Affiliated Hospital, Sun Yat-Sen University","class":"OTHER"},{"name":"The First Affiliated Hospital of Henan University of Traditional Chinese Medicine","class":"OTHER"},{"name":"ShuGuang Hospital","class":"OTHER"},{"name":"Zhongshan Hospital Of Traditional Chinese Medicine","class":"OTHER"},{"name":"Foshan Hospital of Traditional Chinese Medicine","class":"OTHER"},{"name":"Teaching Hospital of Chengdu University of TCM","class":"UNKNOWN"},{"name":"Jiangmen Wuyi Hospital of Traditional Chinese Medicine","class":"OTHER"},{"name":"Guangdong Provincial Hospital of Traditional Chinese Medicine","class":"OTHER"}]},"oversightModule":{"oversightHasDmc":true},"descriptionModule":{"briefSummary":"In order to observe the secondary preventive effect of the Dengzhanshengmai capsule on ischemic stroke, the investigators hold the large randomized control trial (RCT). 3143 subjects are included in 83 clinical research centers all over China. The subjects are randomly grouped into two groups. The basic therapy included antiplatelet aggregation, stroke health education, management of blood pressure, blood lipid and blood glucose, etc. The treating group will take the compound Chinese Medicine Deng Zhan Sheng Mai capsule and the contrast group will take the placebo for twelve months. Then all of the subjects are visited on the 30th, 90th, 180th, 360th day after inclusion. The recurrence of stroke, cardiovascular events, and peripheral arterial events are observed.","detailedDescription":"Objective:To observe the secondary clinical effect of the Deng Zhan Sheng Mai capsule on ischemic stroke patients.\n\nMethods:3143 subjects suffering from acute ischemic stroke are included in 83 clinical research centers all over China. The subjects are randomly divided into two groups:The treating group and the placebo group.Both groups accept the basic therapy and test drug.The basic therapy included antiplatelet aggregation,stroke health education,management of blood pressure,blood lipid and blood glucose,etc.The patients in Dengzhan Shengmaigroup take Deng Zhan Sheng Mai capsule and the placebo group take the placebo drug for twelve months.Then all of the subjects are visited on the 30th,90th,180th,360th day after inclusion. Primary endpoints(cerebral infarction,intracerebral hemorrhage,subarachnoid hemorrhage) and secondary endpoints(cardiovascular events,peripheral arterial disease),functional disability are observed at each follow up."},"conditionsModule":{"conditions":["Stroke"],"keywords":["recurrence of stroke","Dengzhan Shengmai Capsule","Traditional Chinese Medicine"]},"designModule":{"studyType":"INTERVENTIONAL","phases":["PHASE4"],"designInfo":{"allocation":"RANDOMIZED","interventionModel":"PARALLEL","primaryPurpose":"PREVENTION","maskingInfo":{"masking":"QUADRUPLE","whoMasked":["PARTICIPANT","CARE_PROVIDER","INVESTIGATOR","OUTCOMES_ASSESSOR"]}},"enrollmentInfo":{"count":3143,"type":"ACTUAL"}},"armsInterventionsModule":{"armGroups":[{"label":"Dengzhan Shengmai capsule","type":"EXPERIMENTAL","description":"Dengzhan Shengmai capsule 0.18g by mouth twice a day for 1year","interventionNames":["Drug: Dengzhan Shengmai capsule"]},{"label":"Placebo","type":"PLACEBO_COMPARATOR","description":"Placebo 0.18g by mouth twice a day for 1year","interventionNames":["Drug: placebo"]}],"interventions":[{"type":"DRUG","name":"Dengzhan Shengmai capsule","description":"Capsule, 0.18g, 2#, Bid\\*1year","armGroupLabels":["Dengzhan Shengmai capsule"],"otherNames":["DZSM"]},{"type":"DRUG","name":"placebo","description":"Capsule, 0.18g, 2#, Bid\\*1year","armGroupLabels":["Placebo"],"otherNames":["DZSMP"]}]},"outcomesModule":{"primaryOutcomes":[{"measure":"recurrence of stroke","timeFrame":"1 year"}],"secondaryOutcomes":[{"measure":"incidence rate of cardiovascular events, and peripheral arterial events","timeFrame":"1 year"}]},"eligibilityModule":{"eligibilityCriteria":"Inclusion Criteria:\n\n* 40-75 years old\n* Ischemic stroke diagnosed by CT/MRI scan\n* Patient presenting from 14 days to 6 months of first onset of ischemic stroke\n* Presence of at least one risk factor of stroke (such as hypertension, diabetes mellitus, coronary heart disease, hyperlipidemia, and smoking, etc.) that can be interfered in\n* Informed consent\n\nExclusion Criteria:\n\n* Silent cerebral infarction\n* Cerebral infarction due to other causes except artery scleroses (i.e. cardiogenic embolism, hypercoagulable state, endangium stripping, vasculitis)\n* Presence of serious heart disease, heart, liver, lung, and kidney functional failure; malignancy; alimentary tract hemorrhage mental disorder and noncooperation with physician\n* Females during pregnancy or lactation\n* Already attend other clinical trial","healthyVolunteers":false,"sex":"ALL","minimumAge":"40 Years","maximumAge":"75 Years","stdAges":["ADULT","OLDER_ADULT"]},"contactsLocationsModule":{"overallOfficials":[{"name":"Yan Huang, Bachelor","affiliation":"Guangdong Provincial Hospital of Tradtional Chinese Medicine","role":"PRINCIPAL_INVESTIGATOR"}],"locations":[{"facility":"Anhui College of Traditional Chinese Medicine First Affiliated Hospital","city":"Hefei","state":"Anhui","zip":"230031","country":"China","geoPoint":{"lat":31.86389,"lon":117.28083}},{"facility":"Xuanwu Hospital of Capital University of Medical Sciences","city":"Beijing","state":"Beijing","zip":"10053","country":"China","geoPoint":{"lat":39.9075,"lon":116.39723}},{"facility":"First Affiliated Hospital of Fujian Medical University","city":"Fuzhou","state":"Fujian","zip":"350005","country":"China","geoPoint":{"lat":26.06139,"lon":119.30611}},{"facility":"Chinese medicine hospital Conghua City","city":"Conghua","state":"Guangdong","zip":"5109000","country":"China"},{"facility":"Dongguan City Chinese medicine hospital","city":"Dongguan","state":"Guangdong","zip":"523005","country":"China","geoPoint":{"lat":23.01797,"lon":113.74866}},{"facility":"Chinese medicine hospital in Foshan city","city":"Foshan","state":"Guangdong","zip":"528000","country":"China","geoPoint":{"lat":23.02677,"lon":113.13148}},{"facility":"Foshan First People's Hospital","city":"Foshan","state":"Guangdong","zip":"528000","country":"China","geoPoint":{"lat":23.02677,"lon":113.13148}},{"facility":"Integrated Hospital in Guangdong Province","city":"Foshan","state":"Guangdong","zip":"528200","country":"China","geoPoint":{"lat":23.02677,"lon":113.13148}},{"facility":"Foshan Shunde Area Integrated Hospital in Guangdong Province","city":"Foshan","state":"Guangdong","zip":"528333","country":"China","geoPoint":{"lat":23.02677,"lon":113.13148}},{"facility":"The second Chinese medicine hospital in Guangdong Province","city":"Guangzhou","state":"Guangdong","zip":"510095","country":"China","geoPoint":{"lat":23.11667,"lon":113.25}},{"facility":"Guangdong Province Hospital of Tradtional Chinese Medicine","city":"Guangzhou","state":"Guangdong","zip":"510120","country":"China","geoPoint":{"lat":23.11667,"lon":113.25}},{"facility":"Second Affiliated Hospital of Zhongshan University","city":"Guangzhou","state":"Guangdong","zip":"510120","country":"China","geoPoint":{"lat":23.11667,"lon":113.25}},{"facility":"The First Affiliated Hospital of Guangzhou Medical College","city":"Guangzhou","state":"Guangdong","zip":"510120","country":"China","geoPoint":{"lat":23.11667,"lon":113.25}},{"facility":"Yuexiu area Hospital of TCM in Guangzhou","city":"Guangzhou","state":"Guangdong","zip":"510120","country":"China","geoPoint":{"lat":23.11667,"lon":113.25}},{"facility":"Chinese medicine hospital in Liwan District of Guangzhou City","city":"Guangzhou","state":"Guangdong","zip":"510140","country":"China","geoPoint":{"lat":23.11667,"lon":113.25}},{"facility":"Third Affiliated Hospital of Guangzhou Medical College","city":"Guangzhou","state":"Guangdong","zip":"510150","country":"China","geoPoint":{"lat":23.11667,"lon":113.25}},{"facility":"Guangzhou Red Cross Hospital","city":"Guangzhou","state":"Guangdong","zip":"510220","country":"China","geoPoint":{"lat":23.11667,"lon":113.25}},{"facility":"Nanfang Hospital, Southern Medical University","city":"Guangzhou","state":"Guangdong","zip":"510515","country":"China","geoPoint":{"lat":23.11667,"lon":113.25}},{"facility":"Third Affiliated Hospital of Zhongshan University","city":"Guangzhou","state":"Guangdong","zip":"510630","country":"China","geoPoint":{"lat":23.11667,"lon":113.25}},{"facility":"People's Hospital of Huizhou City Center","city":"Huizhou","state":"Guangdong","zip":"516001","country":"China","geoPoint":{"lat":23.11147,"lon":114.41523}},{"facility":"Huizhou People Hospital in Guangdong Province","city":"Huizhou","state":"Guangdong","zip":"516002","country":"China","geoPoint":{"lat":23.11147,"lon":114.41523}},{"facility":"Jiangmen Wuyi Chinese medicine hospital","city":"Jiangmen","state":"Guangdong","zip":"529000","country":"China","geoPoint":{"lat":22.58333,"lon":113.08333}},{"facility":"Chinese medicine hospital in Maoming City","city":"Maoming","state":"Guangdong","zip":"525000","country":"China","geoPoint":{"lat":21.65,"lon":110.9}},{"facility":"Shenzhen City People's Hospital","city":"Shenzhen","state":"Guangdong","country":"China","geoPoint":{"lat":22.54554,"lon":114.0683}},{"facility":"Taishan Hospital of TCM in Guangdong Province","city":"Taishan","state":"Guangdong","zip":"529200","country":"China","geoPoint":{"lat":22.25135,"lon":112.7799}},{"facility":"Xinhui Hospital of TCM in Guangdong Province","city":"Xinhui","state":"Guangdong","zip":"529100","country":"China","geoPoint":{"lat":22.456,"lon":113.0482}},{"facility":"Yangjiang Hospital of TCM in Guangdong Province","city":"Yangjiang","state":"Guangdong","zip":"529500","country":"China","geoPoint":{"lat":21.85563,"lon":111.96272}},{"facility":"Xinxing Hospitla of TCM in Guangdong Province","city":"Yunfu","state":"Guangdong","zip":"527400","country":"China","geoPoint":{"lat":22.92833,"lon":112.03954}},{"facility":"Chinese medicine hospital in Zhongshan City, Guangdong Province","city":"Zhongshan","state":"Guangdong","zip":"528400","country":"China","geoPoint":{"lat":21.31992,"lon":110.5723}},{"facility":"Chinese medicine hospital in Zhuhai, Guangdong Province Hospital","city":"Zhuhai","state":"Guangdong","zip":"519015","country":"China","geoPoint":{"lat":22.27694,"lon":113.56778}},{"facility":"Liuzhou Hospital of TCM in Guangxi","city":"Liuzhou","state":"Guangxi","zip":"545001","country":"China"},{"facility":"Ruikang Hospital Guangxi College of Traditional Chinese Medicine","city":"Nanning","state":"Guangxi","zip":"530011","country":"China","geoPoint":{"lat":22.81667,"lon":108.31667}},{"facility":"First Affiliated Hospital of Guangxi College of Traditional Chinese Medicine","city":"Nanning","state":"Guangxi","zip":"530023","country":"China","geoPoint":{"lat":22.81667,"lon":108.31667}},{"facility":"Guangxi Wuzhou Red Cross Hospital","city":"Wuzhou","state":"Guangxi","zip":"543002","country":"China","geoPoint":{"lat":23.48333,"lon":111.31667}},{"facility":"First Hospital of Handan City, Hebei Province","city":"Handan","state":"Hebei","zip":"56002","country":"China","geoPoint":{"lat":36.60056,"lon":114.46778}},{"facility":"The First Affiliated Hospital of Henan College of Traditional Chinese Medicine","city":"Zhengzhou","state":"Henan","zip":"450000","country":"China","geoPoint":{"lat":34.75778,"lon":113.64861}},{"facility":"Chinese medicine hospital in Zhengzhou City in Henan Province","city":"Zhengzhou","state":"Henan","zip":"450007","country":"China","geoPoint":{"lat":34.75778,"lon":113.64861}},{"facility":"Henan Province, the Third Affiliated Hospital of College of Traditional Chinese Medicine","city":"Zhengzhou","state":"Henan","zip":"450008","country":"China","geoPoint":{"lat":34.75778,"lon":113.64861}},{"facility":"Chinese medicine hospital in Hubei Province","city":"Wuhan","state":"Hubei","zip":"430006","country":"China","geoPoint":{"lat":30.58333,"lon":114.26667}},{"facility":"First Hospital of Wuhan City","city":"Wuhan","state":"Hubei","zip":"430022","country":"China","geoPoint":{"lat":30.58333,"lon":114.26667}},{"facility":"Wuhan University People's Hospital","city":"Wuhan","state":"Hubei","zip":"430060","country":"China","geoPoint":{"lat":30.58333,"lon":114.26667}},{"facility":"Xiangya Hospital Central South University","city":"Changsha","state":"Hunan","zip":"410008","country":"China","geoPoint":{"lat":28.19874,"lon":112.97087}},{"facility":"Hengyang Central Hospital","city":"Hengyang","state":"Hunan","zip":"421001","country":"China","geoPoint":{"lat":26.88946,"lon":112.61888}},{"facility":"The 169th Hospital of PLA","city":"Hengyang","state":"Hunan","zip":"421002","country":"China","geoPoint":{"lat":26.88946,"lon":112.61888}},{"facility":"Lianyungang Hospital of TCM in Jiangsu Province","city":"Lianyungang","state":"Jiangsu","zip":"222004","country":"China","geoPoint":{"lat":34.59845,"lon":119.21556}},{"facility":"Chinese medicine hospital in Jiangsu Province","city":"Nanjing","state":"Jiangsu","zip":"210029","country":"China","geoPoint":{"lat":32.06167,"lon":118.77778}},{"facility":"Jiangsu Provincial People's Hospital","city":"Nanjing","state":"Jiangsu","zip":"210029","country":"China","geoPoint":{"lat":32.06167,"lon":118.77778}},{"facility":"Affiliated Hospital of Nantong University","city":"Nantong","state":"Jiangxi","zip":"226001","country":"China","geoPoint":{"lat":32.03028,"lon":120.87472}},{"facility":"Liaoning University of Traditional Chinese Medicine Affiliated Hospital","city":"Shenyang","state":"Liaoning","zip":"110032","country":"China","geoPoint":{"lat":41.79222,"lon":123.43278}},{"facility":"Chinese Medicine Hospital of Jinan City","city":"Jinan","state":"Shandong","zip":"250011","country":"China","geoPoint":{"lat":36.66833,"lon":116.99722}},{"facility":"Subsidiary of Shanghai University of Traditional Chinese Medicine, Longhua Hospital","city":"Shanghai","state":"Shanghai","zip":"200032","country":"China","geoPoint":{"lat":31.22222,"lon":121.45806}},{"facility":"Pudong New Area People Hospital in Shanghai","city":"Shanghai","state":"Shanghai","zip":"201200","country":"China","geoPoint":{"lat":31.22222,"lon":121.45806}},{"facility":"Ankang Hospital of TCM in Shanxi Province","city":"Ankang","state":"Shanxi","zip":"725000","country":"China","geoPoint":{"lat":32.68,"lon":109.01722}},{"facility":"Qishan Hospital in Shanxi Province","city":"Qishan","state":"Shanxi","zip":"722400","country":"China"},{"facility":"The 2nd affiliated Hospital fo Shanxi college of TCM","city":"Taiyuan","state":"Shanxi","zip":"030024","country":"China","geoPoint":{"lat":37.86944,"lon":112.56028}},{"facility":"Chinese medicine hospital in Xi'an","city":"Xi'an","state":"Shanxi","zip":"710001","country":"China","geoPoint":{"lat":34.25833,"lon":108.92861}},{"facility":"Xi'an Central Hospital","city":"Xi'an","state":"Shanxi","zip":"710001","country":"China","geoPoint":{"lat":34.25833,"lon":108.92861}},{"facility":"Shaanxi Provincial People's Hospital","city":"Xi'an","state":"Shanxi","zip":"710068","country":"China","geoPoint":{"lat":34.25833,"lon":108.92861}},{"facility":"The Second Affiliated Hospital of Xi'an Jiaotong University Medical College","city":"Xi'an","state":"Shanxi","country":"China","geoPoint":{"lat":34.25833,"lon":108.92861}},{"facility":"Affiliated Hospital of Shaanxi College of Traditional Chinese Medicine","city":"Xianyang","state":"Shanxi","zip":"712000","country":"China","geoPoint":{"lat":34.33778,"lon":108.70261}},{"facility":"Anyue Hospital of TCM in Sichuan Province","city":"Anyue","state":"Sichuan","zip":"642350","country":"China"},{"facility":"Chengdu Integrated Hospital","city":"Chengdu","state":"Sichuan","zip":"610016","country":"China","geoPoint":{"lat":30.66667,"lon":104.06667}},{"facility":"The Affiliated Hospital of Chengdu University of Traditional Chinese Medicine","city":"Chengdu","state":"Sichuan","zip":"610036","country":"China","geoPoint":{"lat":30.66667,"lon":104.06667}},{"facility":"West China Hospital of Sichuan University","city":"Chengdu","state":"Sichuan","zip":"610041","country":"China","geoPoint":{"lat":30.66667,"lon":104.06667}},{"facility":"People's Hospital of Sichuan Province","city":"Chengdu","state":"Sichuan","zip":"610072","country":"China","geoPoint":{"lat":30.66667,"lon":104.06667}},{"facility":"The 2nd People Hospital of Chengdu City","city":"Chengdu","state":"Sichuan","zip":"621000","country":"China","geoPoint":{"lat":30.66667,"lon":104.06667}},{"facility":"Guangyuan Hospital of TCM in Sichuan Province","city":"Guangyuan","state":"Sichuan","zip":"628000","country":"China","geoPoint":{"lat":32.44201,"lon":105.823}},{"facility":"Jianyang Hospital of TCM in Sichuang Province","city":"Jianyang","state":"Sichuan","zip":"641400","country":"China"},{"facility":"Leshan City People's Hospital","city":"Leshan","state":"Sichuan","zip":"614000","country":"China","geoPoint":{"lat":29.56227,"lon":103.76386}},{"facility":"Affiliated Hospital of Luzhou Medical College","city":"Luzhou","state":"Sichuan","zip":"646000","country":"China"},{"facility":"The Affiliated Hospital of TCM of Luzhou Medical School","city":"Luzhou","state":"Sichuan","zip":"646000","country":"China"},{"facility":"Mianyang Hospital of TCM in Sichuan Province","city":"Mianyang","state":"Sichuan","zip":"621000","country":"China","geoPoint":{"lat":31.46784,"lon":104.68168}},{"facility":"Affiliated Hospital of North Sichuan Medical College","city":"Nanchong","state":"Sichuan","zip":"637000","country":"China","geoPoint":{"lat":30.79508,"lon":106.08473}},{"facility":"Wulumuqi Hospital of TCM","city":"Wulumuqi","state":"Xinjiang","zip":"830000","country":"China"},{"facility":"Xinjiang Medical University Affiliated Hospital of First Clinical","city":"Wulumuqi","state":"Xinjiang","zip":"830054","country":"China"},{"facility":"The First Affiliated Hospital of Zhejiang University of Traditional Chinese Medicine","city":"Hangzhou","state":"Zhejiang","zip":"310006","country":"China","geoPoint":{"lat":30.29365,"lon":120.16142}},{"facility":"Zhejiang University School of Medicine Second Affiliated Hospital","city":"Hangzhou","state":"Zhejiang","zip":"313000","country":"China","geoPoint":{"lat":30.29365,"lon":120.16142}},{"facility":"Chinese medicine hospital in Hangzhou","city":"Hangzhou","state":"Zhejiang","country":"China","geoPoint":{"lat":30.29365,"lon":120.16142}},{"facility":"Ningbo City, Zhejiang Province zhongRui hospital","city":"Ningbo","state":"Zhejiang","zip":"315806","country":"China","geoPoint":{"lat":29.87819,"lon":121.54945}},{"facility":"Tiantan Hospital Capital University of Medical Sciences","city":"Beijing","zip":"100050","country":"China","geoPoint":{"lat":39.9075,"lon":116.39723}},{"facility":"The Second Affiliated Hospital of Chongqing Third Military Medical University","city":"Chongqing","zip":"400037","country":"China","geoPoint":{"lat":29.56278,"lon":106.55278}},{"facility":"Medical College of Shanghai Jiaotong University Yan Chai Hospital","city":"Shanghai","zip":"200001","country":"China","geoPoint":{"lat":31.22222,"lon":121.45806}},{"facility":"Shanghai Jiaotong University Medical College Ruijin Hospital","city":"Shanghai","zip":"200025","country":"China","geoPoint":{"lat":31.22222,"lon":121.45806}},{"facility":"Subsidiary of Shanghai University of Traditional Chinese Medicine ,Shuguang Hospital","city":"Shanghai","zip":"200032","country":"China","geoPoint":{"lat":31.22222,"lon":121.45806}}]}},"derivedSection":{"miscInfoModule":{"versionHolder":"2024-02-14"},"conditionBrowseModule":{"meshes":[{"id":"D000020521","term":"Stroke"},{"id":"D000083242","term":"Ischemic Stroke"}],"ancestors":[{"id":"D000002561","term":"Cerebrovascular Disorders"},{"id":"D000001927","term":"Brain Diseases"},{"id":"D000002493","term":"Central Nervous System Diseases"},{"id":"D000009422","term":"Nervous System Diseases"},{"id":"D000014652","term":"Vascular Diseases"},{"id":"D000002318","term":"Cardiovascular Diseases"}],"browseLeaves":[{"id":"M21996","name":"Stroke","asFound":"Stroke","relevance":"HIGH"},{"id":"M11997","name":"Neoplasm Metastasis","relevance":"LOW"},{"id":"M14540","name":"Recurrence","relevance":"LOW"},{"id":"M10233","name":"Ischemia","relevance":"LOW"},{"id":"M2401","name":"Ischemic Stroke","asFound":"Ischemic Stroke","relevance":"HIGH"},{"id":"M5500","name":"Cerebrovascular Disorders","relevance":"LOW"},{"id":"M4894","name":"Brain Diseases","relevance":"LOW"},{"id":"M5432","name":"Central Nervous System Diseases","relevance":"LOW"},{"id":"M17090","name":"Vascular Diseases","relevance":"LOW"}],"browseBranches":[{"abbrev":"BC10","name":"Nervous System Diseases"},{"abbrev":"BC14","name":"Heart and Blood Diseases"},{"abbrev":"All","name":"All Conditions"},{"abbrev":"BC04","name":"Neoplasms"},{"abbrev":"BC23","name":"Symptoms and General Pathology"}]}},"hasResults":false}