{"protocolSection":{"identificationModule":{"nctId":"NCT03735979","orgStudyIdInfo":{"id":"2018-1464"},"secondaryIdInfos":[{"id":"1U01NS100699-01A1","type":"NIH","link":"https://reporter.nih.gov/quickSearch/1U01NS100699-01A1"}],"organization":{"fullName":"Washington University School of Medicine","class":"OTHER"},"briefTitle":"Multi-arm Optimization of Stroke Thrombolysis","officialTitle":"Multi-arm Optimization of Stroke Thrombolysis (MOST): a Single Blinded, Randomized Controlled Adaptive, Multi-arm, Adjunctive-thrombolysis Efficacy Trial in Ischemic Stroke","acronym":"MOST"},"statusModule":{"statusVerifiedDate":"2023-12","overallStatus":"ACTIVE_NOT_RECRUITING","expandedAccessInfo":{"hasExpandedAccess":false},"startDateStruct":{"date":"2019-10-15","type":"ACTUAL"},"primaryCompletionDateStruct":{"date":"2023-12-01","type":"ACTUAL"},"completionDateStruct":{"date":"2025-04","type":"ESTIMATED"},"studyFirstSubmitDate":"2018-11-07","studyFirstSubmitQcDate":"2018-11-07","studyFirstPostDateStruct":{"date":"2018-11-08","type":"ACTUAL"},"lastUpdateSubmitDate":"2023-12-04","lastUpdatePostDateStruct":{"date":"2023-12-05","type":"ACTUAL"}},"sponsorCollaboratorsModule":{"responsibleParty":{"type":"PRINCIPAL_INVESTIGATOR","investigatorFullName":"Opeolu Makanju Adeoye","investigatorTitle":"Professor and Chair, Department of Emergency Medicine","investigatorAffiliation":"Washington University School of Medicine"},"leadSponsor":{"name":"Washington University School of Medicine","class":"OTHER"},"collaborators":[{"name":"National Institute of Neurological Disorders and Stroke (NINDS)","class":"NIH"}]},"oversightModule":{"oversightHasDmc":true,"isFdaRegulatedDrug":true,"isFdaRegulatedDevice":false},"descriptionModule":{"briefSummary":"The primary efficacy objective of the MOST trial is to determine if argatroban (100µg/kg bolus followed by 3µg/kg per minute for 12 hours) or eptifibatide (135µg/kg bolus followed by 0.75µg/kg/min infusion for two hours) results in improved 90-day modified Rankin scores (mRS) as compared with placebo in acute ischemic stroke (AIS) patients treated with standard of care thrombolysis (0.9mg/kg IV rt-PA or 0.25mg/kg IV tenecteplase or TNK) within three hours of symptom onset. Patients may also receive endovascular thrombectomy (ET) per usual care. Time of onset is defined as the last time the patient was last known to be well."},"conditionsModule":{"conditions":["Acute Ischemic Stroke"]},"designModule":{"studyType":"INTERVENTIONAL","phases":["PHASE3"],"designInfo":{"allocation":"RANDOMIZED","interventionModel":"PARALLEL","primaryPurpose":"TREATMENT","maskingInfo":{"masking":"DOUBLE","whoMasked":["PARTICIPANT","OUTCOMES_ASSESSOR"]}},"enrollmentInfo":{"count":514,"type":"ACTUAL"}},"armsInterventionsModule":{"armGroups":[{"label":"Argatroban","type":"EXPERIMENTAL","description":"100µg/kg bolus followed by 3µg/kg per minute for 12 hours","interventionNames":["Drug: Argatroban"]},{"label":"Eptifibatide","type":"EXPERIMENTAL","description":"135µg/kg bolus followed by 0.75µg/kg/min infusion for two hours","interventionNames":["Drug: Eptifibatide"]},{"label":"Placebo","type":"PLACEBO_COMPARATOR","interventionNames":["Drug: Placebo"]}],"interventions":[{"type":"DRUG","name":"Argatroban","description":"Direct Thrombin Inhibitor - Argatroban is a derivative of arginine that competitively binds to the active site of thrombin thereby preventing fibrin deposition. With a half-life of 30 minutes, argatroban has an immediate anticoagulant effect after IV administration which is rapidly reversed with discontinuation of the drug.","armGroupLabels":["Argatroban"]},{"type":"DRUG","name":"Eptifibatide","description":"GP 2b/3a Receptor Inhibitor - The final step of platelet aggregation is mediated via the GP2b/3a receptor. Eptifibatide was specifically developed to ensure rapid inhibition of platelet aggregation (within 15 minutes), a short half-life (\\~2 hours) and rapid dissociation from platelets with 50% restoration of platelet function within 2-4 hours of discontinuation.","armGroupLabels":["Eptifibatide"]},{"type":"DRUG","name":"Placebo","description":"IV placebo solution","armGroupLabels":["Placebo"]}]},"outcomesModule":{"primaryOutcomes":[{"measure":"90-day modified Rankin scores (mRS)","timeFrame":"90 days after randomization"}],"secondaryOutcomes":[{"measure":"proportion of participants with NIHSS less than or equal to 2 at 24 hours","timeFrame":"2 at 24 hours after randomization"},{"measure":"change from baseline to 24-hour NIHSS","timeFrame":"24 hours after randomization"},{"measure":"proportion of participants with 90-day mRS 0-1 (or return to their historical mRS)","timeFrame":"90 days after randomization"},{"measure":"proportion of participants with 90-day mRS 0-2 (or return to their historical mRS)","timeFrame":"90 days after randomization"},{"measure":"90-day ordinal analysis of the mRS","timeFrame":"90 days after randomization"},{"measure":"90-day EQ-5D","timeFrame":"90 days after randomization"},{"measure":"proportion of participants who have thrombectomy","timeFrame":"baseline"}]},"eligibilityModule":{"eligibilityCriteria":"Inclusion Criteria:\n\n1. Acute ischemic stroke patients\n2. Treated with 0.9mg/kg IV rt-PA or 0.25mg/kg IV TNK within 3 hours of stroke onset or time last known well\n3. Age ≥ 18\n4. NIHSS score ≥ 6 prior to IV thrombolysis\n5. Able to receive assigned study drug within 60 minutes but no later than 75 minutes of initiation of IV thrombolysis\n\nExclusion Criteria:\n\n1. Known allergy or hypersensitivity to argatroban or eptifibatide\n2. Previous stroke in the past 90 days\n3. Previous intracranial hemorrhage, neoplasm, subarachnoid hemorrhage, or arterial venous malformation\n4. Clinical presentation suggested a subarachnoid hemorrhage, even if initial CT scan was normal\n5. Any surgery, or biopsy of parenchymal organ in the past 30 days\n6. Trauma with internal injuries or ulcerative wounds in the past 30 days\n7. Severe head trauma in the past 90 days\n8. Systolic blood pressure persistently \\>180mmHg post-IV thrombolysis despite antihypertensive intervention\n9. Diastolic blood pressure persistently \\>105mmHg post-IV thrombolysis despite antihypertensive intervention\n10. Serious systemic hemorrhage in the past 30 days\n11. Known hereditary or acquired hemorrhagic diathesis, coagulation factor deficiency, or oral anticoagulant therapy with INR \\>1.5\n12. Positive urine or serum pregnancy test for women of child bearing potential\n13. Glucose \\<50 or \\>400 mg/dl\n14. Platelets \\<100,000/mm3\n15. Hematocrit \\<25 %\n16. Elevated pre-thrombolysis PTT above laboratory upper limit of normal\n17. Creatinine \\> 4 mg/dl\n18. Ongoing renal dialysis, regardless of creatinine\n19. Received Low Molecular Weight heparins (such as Dalteparin, Enoxaparin, Tinzaparin) in full dose within the previous 24 hours\n20. Abnormal PTT within 48 hours prior to randomization after receiving heparin or a direct thrombin inhibitor (such as bivalirudin, argatroban, dabigatran or lepirudin)\n21. Received Factor Xa inhibitors (such as Fondaparinaux, apixaban or rivaroxaban) within the past 48 hours\n22. Received glycoprotein IIb/IIIa inhibitors within the past 14 days\n23. Pre-existing neurological or psychiatric disease which confounded the neurological or functional evaluations e.g., baseline modified Rankin score \\>3\n24. Other serious, advanced, or terminal illness or any other condition that the investigator felt would pose a significant hazard to the patient if rt-PA, TNK, eptifibatide or argatroban therapy was initiated\n\n    a. Example: known cirrhosis or clinically significant hepatic disease\n25. Current participation in another research drug treatment or interventional device trial - Subjects could not start another experimental agent until after 90 days\n26. Informed consent from the patient or the legally authorized representative was not or could not be obtained\n27. High density lesion consistent with hemorrhage of any degree\n28. Large (more than 1/3 of the middle cerebral artery) regions of clear hypodensity on the baseline CT Scan. Sulcal effacement and/or loss of grey-white differentiation alone are not contraindications for treatment","healthyVolunteers":false,"sex":"ALL","minimumAge":"18 Years","stdAges":["ADULT","OLDER_ADULT"]},"contactsLocationsModule":{"overallOfficials":[{"name":"Opeolu Adeoye, MD","affiliation":"Washington University School of Medicine","role":"PRINCIPAL_INVESTIGATOR"}],"locations":[{"facility":"University of Alabama Hospital","city":"Birmingham","state":"Alabama","zip":"35233","country":"United States","geoPoint":{"lat":33.52066,"lon":-86.80249}},{"facility":"St. Jude Medical Center","city":"Fullerton","state":"California","zip":"92835","country":"United States","geoPoint":{"lat":33.87029,"lon":-117.92534}},{"facility":"UCSD Health La Jolla","city":"La Jolla","state":"California","zip":"92037","country":"United States","geoPoint":{"lat":32.84727,"lon":-117.2742}},{"facility":"Kaiser Permanente Los Angeles Medical Center","city":"Los Angeles","state":"California","zip":"90027","country":"United States","geoPoint":{"lat":34.05223,"lon":-118.24368}},{"facility":"Cedars-Sinai Medical Center","city":"Los Angeles","state":"California","zip":"90048","country":"United States","geoPoint":{"lat":34.05223,"lon":-118.24368}},{"facility":"UC Irvine Medical Center","city":"Orange","state":"California","zip":"92868","country":"United States","geoPoint":{"lat":33.78779,"lon":-117.85311}},{"facility":"UCSD Medical Center - Hillcrest Hospital","city":"San Diego","state":"California","zip":"92103","country":"United States","geoPoint":{"lat":32.71533,"lon":-117.15726}},{"facility":"San Francisco General Hospital","city":"San Francisco","state":"California","zip":"94110","country":"United States","geoPoint":{"lat":37.77493,"lon":-122.41942}},{"facility":"UCSF Medical Center","city":"San Francisco","state":"California","zip":"94143","country":"United States","geoPoint":{"lat":37.77493,"lon":-122.41942}},{"facility":"Santa Barbara Cottage Hospital","city":"Santa Barbara","state":"California","zip":"93105","country":"United States","geoPoint":{"lat":34.42083,"lon":-119.69819}},{"facility":"Yale New Haven Hospital","city":"New Haven","state":"Connecticut","zip":"06510","country":"United States","geoPoint":{"lat":41.30815,"lon":-72.92816}},{"facility":"Baptist Medical Center Jacksonville","city":"Jacksonville","state":"Florida","zip":"32207","country":"United States","geoPoint":{"lat":30.33218,"lon":-81.65565}},{"facility":"Mayo Clinic Hospital","city":"Jacksonville","state":"Florida","zip":"32224","country":"United States","geoPoint":{"lat":30.33218,"lon":-81.65565}},{"facility":"Jackson Memorial Hospital","city":"Miami","state":"Florida","zip":"33136","country":"United States","geoPoint":{"lat":25.77427,"lon":-80.19366}},{"facility":"Sarasota Memorial Hospital","city":"Sarasota","state":"Florida","zip":"34239","country":"United States","geoPoint":{"lat":27.33643,"lon":-82.53065}},{"facility":"Tampa General Hospital","city":"Tampa","state":"Florida","zip":"33606","country":"United States","geoPoint":{"lat":27.94752,"lon":-82.45843}},{"facility":"Grady Memorial Hospital","city":"Atlanta","state":"Georgia","zip":"30303","country":"United States","geoPoint":{"lat":33.749,"lon":-84.38798}},{"facility":"University of Chicago Medical Center","city":"Chicago","state":"Illinois","zip":"60637","country":"United States","geoPoint":{"lat":41.85003,"lon":-87.65005}},{"facility":"Loyola University Medical Center","city":"Maywood","state":"Illinois","zip":"60153","country":"United States","geoPoint":{"lat":41.8792,"lon":-87.84312}},{"facility":"Javon Bea Hospital - Riverside","city":"Rockford","state":"Illinois","zip":"61114","country":"United States","geoPoint":{"lat":42.27113,"lon":-89.094}},{"facility":"Central DuPage Hospital","city":"Winfield","state":"Illinois","zip":"60190","country":"United States","geoPoint":{"lat":41.8617,"lon":-88.1609}},{"facility":"University of Kansas Hospital","city":"Kansas City","state":"Kansas","zip":"66160","country":"United States","geoPoint":{"lat":39.11417,"lon":-94.62746}},{"facility":"University of Kentucky Hospital","city":"Lexington","state":"Kentucky","zip":"40536","country":"United States","geoPoint":{"lat":37.98869,"lon":-84.47772}},{"facility":"Massachusetts General Hospital","city":"Boston","state":"Massachusetts","zip":"02114","country":"United States","geoPoint":{"lat":42.35843,"lon":-71.05977}},{"facility":"Beth Israel Deaconess Medical Center","city":"Boston","state":"Massachusetts","zip":"02215","country":"United States","geoPoint":{"lat":42.35843,"lon":-71.05977}},{"facility":"UMASS Memorial Medical Center","city":"Worcester","state":"Massachusetts","zip":"01655","country":"United States","geoPoint":{"lat":42.26259,"lon":-71.80229}},{"facility":"University of Michigan University Hospital","city":"Ann Arbor","state":"Michigan","zip":"48109","country":"United States","geoPoint":{"lat":42.27756,"lon":-83.74088}},{"facility":"Henry Ford Hospital","city":"Detroit","state":"Michigan","zip":"48202","country":"United States","geoPoint":{"lat":42.33143,"lon":-83.04575}},{"facility":"McLaren Flint","city":"Flint","state":"Michigan","zip":"48532","country":"United States","geoPoint":{"lat":43.01253,"lon":-83.68746}},{"facility":"Trinity Health Saint Mary's","city":"Grand Rapids","state":"Michigan","zip":"49503","country":"United States","geoPoint":{"lat":42.96336,"lon":-85.66809}},{"facility":"Fairview Southdale Hospital","city":"Edina","state":"Minnesota","zip":"55425","country":"United States","geoPoint":{"lat":44.88969,"lon":-93.34995}},{"facility":"University of Minnesota Medical Center Hospital","city":"Minneapolis","state":"Minnesota","zip":"55455","country":"United States","geoPoint":{"lat":44.97997,"lon":-93.26384}},{"facility":"HealthPartners Methodist Hospital","city":"Saint Louis Park","state":"Minnesota","zip":"55426","country":"United States","geoPoint":{"lat":44.9483,"lon":-93.34801}},{"facility":"Regions Hospital","city":"Saint Paul","state":"Minnesota","zip":"55101","country":"United States","geoPoint":{"lat":44.94441,"lon":-93.09327}},{"facility":"Saint Luke's Hospital","city":"Kansas City","state":"Missouri","zip":"64111","country":"United States","geoPoint":{"lat":39.09973,"lon":-94.57857}},{"facility":"St. Louis University Hospital","city":"Saint Louis","state":"Missouri","zip":"63108","country":"United States","geoPoint":{"lat":38.62727,"lon":-90.19789}},{"facility":"Barnes Jewish Hospital","city":"Saint Louis","state":"Missouri","zip":"63110","country":"United States","geoPoint":{"lat":38.62727,"lon":-90.19789}},{"facility":"University of New Mexico Hospital","city":"Albuquerque","state":"New Mexico","zip":"87106","country":"United States","geoPoint":{"lat":35.08449,"lon":-106.65114}},{"facility":"North Shore University Hospital","city":"Manhasset","state":"New York","zip":"11030","country":"United States","geoPoint":{"lat":40.79788,"lon":-73.69957}},{"facility":"Mount Sinai Beth Israel","city":"New York","state":"New York","zip":"10003","country":"United States","geoPoint":{"lat":40.71427,"lon":-74.00597}},{"facility":"SUNY Upstate University Hospital","city":"Syracuse","state":"New York","zip":"13210","country":"United States","geoPoint":{"lat":43.04812,"lon":-76.14742}},{"facility":"Forsyth Medical Center","city":"Winston-Salem","state":"North Carolina","zip":"27103","country":"United States","geoPoint":{"lat":36.09986,"lon":-80.24422}},{"facility":"Wake Forest Baptist Medical Center","city":"Winston-Salem","state":"North Carolina","zip":"27103","country":"United States","geoPoint":{"lat":36.09986,"lon":-80.24422}},{"facility":"Cleveland Clinic Akron General","city":"Akron","state":"Ohio","zip":"44307","country":"United States","geoPoint":{"lat":41.08144,"lon":-81.51901}},{"facility":"Mercy Health West Hospital","city":"Cincinnati","state":"Ohio","zip":"45211","country":"United States","geoPoint":{"lat":39.12713,"lon":-84.51435}},{"facility":"University of Cincinnati Medical Center","city":"Cincinnati","state":"Ohio","zip":"45219","country":"United States","geoPoint":{"lat":39.12713,"lon":-84.51435}},{"facility":"Good Samaritan Hospital","city":"Cincinnati","state":"Ohio","zip":"45220","country":"United States","geoPoint":{"lat":39.12713,"lon":-84.51435}},{"facility":"The Jewish Hospital","city":"Cincinnati","state":"Ohio","zip":"45236","country":"United States","geoPoint":{"lat":39.12713,"lon":-84.51435}},{"facility":"OSU Wexner Medical Center","city":"Columbus","state":"Ohio","zip":"43210","country":"United States","geoPoint":{"lat":39.96118,"lon":-82.99879}},{"facility":"Mercy Health Fairfield Hospital","city":"Fairfield","state":"Ohio","zip":"45014","country":"United States","geoPoint":{"lat":39.34589,"lon":-84.5605}},{"facility":"St. John Medical Center","city":"Tulsa","state":"Oklahoma","zip":"74104","country":"United States","geoPoint":{"lat":36.15398,"lon":-95.99277}},{"facility":"Abington Memorial Hospital","city":"Abington","state":"Pennsylvania","zip":"19001","country":"United States","geoPoint":{"lat":40.12067,"lon":-75.11795}},{"facility":"Hospital of the University of Pennsylvania","city":"Philadelphia","state":"Pennsylvania","zip":"19104","country":"United States","geoPoint":{"lat":39.95233,"lon":-75.16379}},{"facility":"Temple University Hospital","city":"Philadelphia","state":"Pennsylvania","zip":"19140","country":"United States","geoPoint":{"lat":39.95233,"lon":-75.16379}},{"facility":"UPMC Presbyterian Hospital","city":"Pittsburgh","state":"Pennsylvania","zip":"15213","country":"United States","geoPoint":{"lat":40.44062,"lon":-79.99589}},{"facility":"UPMC Mercy Hospital","city":"Pittsburgh","state":"Pennsylvania","zip":"15219","country":"United States","geoPoint":{"lat":40.44062,"lon":-79.99589}},{"facility":"Medical University of South Carolina","city":"Charleston","state":"South Carolina","zip":"29425","country":"United States","geoPoint":{"lat":32.77657,"lon":-79.93092}},{"facility":"Prisma Health Greenville Memorial Hospital","city":"Greenville","state":"South Carolina","zip":"29605","country":"United States","geoPoint":{"lat":34.85262,"lon":-82.39401}},{"facility":"Vanderbilt University Hospital","city":"Nashville","state":"Tennessee","zip":"37232","country":"United States","geoPoint":{"lat":36.16589,"lon":-86.78444}},{"facility":"Houston Methodist Hospital","city":"Houston","state":"Texas","zip":"77030","country":"United States","geoPoint":{"lat":29.76328,"lon":-95.36327}},{"facility":"Memorial Hermann-Texas Medical Center","city":"Houston","state":"Texas","zip":"77030","country":"United States","geoPoint":{"lat":29.76328,"lon":-95.36327}},{"facility":"South Texas Health System McAllen","city":"McAllen","state":"Texas","zip":"78503","country":"United States","geoPoint":{"lat":26.20341,"lon":-98.23001}},{"facility":"Medical City Texas Stroke Institute - Plano","city":"Plano","state":"Texas","zip":"75075","country":"United States","geoPoint":{"lat":33.01984,"lon":-96.69889}},{"facility":"University of Utah Healthcare","city":"Salt Lake City","state":"Utah","zip":"84132","country":"United States","geoPoint":{"lat":40.76078,"lon":-111.89105}},{"facility":"UVA Medical Center","city":"Charlottesville","state":"Virginia","zip":"22908","country":"United States","geoPoint":{"lat":38.02931,"lon":-78.47668}}]},"referencesModule":{"references":[{"pmid":"33297893","type":"DERIVED","citation":"Deeds SI, Barreto A, Elm J, Derdeyn CP, Berry S, Khatri P, Moy C, Janis S, Broderick J, Grotta J, Adeoye O. The multiarm optimization of stroke thrombolysis phase 3 acute stroke randomized clinical trial: Rationale and methods. Int J Stroke. 2021 Oct;16(7):873-880. doi: 10.1177/1747493020978345. Epub 2020 Dec 9."}]},"ipdSharingStatementModule":{"ipdSharing":"NO"}},"derivedSection":{"miscInfoModule":{"versionHolder":"2024-02-14"},"conditionBrowseModule":{"meshes":[{"id":"D000020521","term":"Stroke"},{"id":"D000083242","term":"Ischemic Stroke"}],"ancestors":[{"id":"D000002561","term":"Cerebrovascular Disorders"},{"id":"D000001927","term":"Brain Diseases"},{"id":"D000002493","term":"Central Nervous System Diseases"},{"id":"D000009422","term":"Nervous System Diseases"},{"id":"D000014652","term":"Vascular Diseases"},{"id":"D000002318","term":"Cardiovascular Diseases"}],"browseLeaves":[{"id":"M21996","name":"Stroke","asFound":"Stroke","relevance":"HIGH"},{"id":"M10233","name":"Ischemia","relevance":"LOW"},{"id":"M2401","name":"Ischemic Stroke","asFound":"Ischemic Stroke","relevance":"HIGH"},{"id":"M5500","name":"Cerebrovascular Disorders","relevance":"LOW"},{"id":"M4894","name":"Brain Diseases","relevance":"LOW"},{"id":"M5432","name":"Central Nervous System Diseases","relevance":"LOW"},{"id":"M17090","name":"Vascular Diseases","relevance":"LOW"},{"id":"T170","name":"Acute Graft Versus Host Disease","relevance":"LOW"}],"browseBranches":[{"abbrev":"BC10","name":"Nervous System Diseases"},{"abbrev":"BC14","name":"Heart and Blood Diseases"},{"abbrev":"All","name":"All Conditions"},{"abbrev":"BC23","name":"Symptoms and General Pathology"},{"abbrev":"Rare","name":"Rare Diseases"}]},"interventionBrowseModule":{"meshes":[{"id":"C000031942","term":"Argatroban"},{"id":"D000077542","term":"Eptifibatide"}],"ancestors":[{"id":"D000000991","term":"Antithrombins"},{"id":"D000015842","term":"Serine Proteinase Inhibitors"},{"id":"D000011480","term":"Protease Inhibitors"},{"id":"D000004791","term":"Enzyme Inhibitors"},{"id":"D000045504","term":"Molecular Mechanisms of Pharmacological Action"},{"id":"D000000925","term":"Anticoagulants"},{"id":"D000010975","term":"Platelet Aggregation Inhibitors"}],"browseLeaves":[{"id":"M21550","name":"Pharmaceutical Solutions","relevance":"LOW"},{"id":"M16366","name":"Thrombin","relevance":"LOW"},{"id":"M3934","name":"Anticoagulants","relevance":"LOW"},{"id":"M3997","name":"Antithrombins","relevance":"LOW"},{"id":"M57894","name":"Argatroban","asFound":"Legumes","relevance":"HIGH"},{"id":"M1820","name":"Eptifibatide","asFound":"POL","relevance":"HIGH"},{"id":"M3996","name":"Antithrombin III","relevance":"LOW"},{"id":"M14033","name":"Protease Inhibitors","relevance":"LOW"},{"id":"M18081","name":"Serine Proteinase Inhibitors","relevance":"LOW"},{"id":"M19299","name":"HIV Protease Inhibitors","relevance":"LOW"},{"id":"M7641","name":"Enzyme Inhibitors","relevance":"LOW"},{"id":"M13555","name":"Platelet Aggregation Inhibitors","relevance":"LOW"},{"id":"T1","name":"Arginine","relevance":"LOW"},{"id":"T18","name":"Serine","relevance":"LOW"}],"browseBranches":[{"abbrev":"PhSol","name":"Pharmaceutical Solutions"},{"abbrev":"All","name":"All Drugs and Chemicals"},{"abbrev":"Coag","name":"Coagulants"},{"abbrev":"AnCoag","name":"Anticoagulants"},{"abbrev":"PlAggInh","name":"Platelet Aggregation Inhibitors"},{"abbrev":"Infe","name":"Anti-Infective Agents"},{"abbrev":"AA","name":"Amino Acids"}]}},"hasResults":false}