{"protocolSection":{"identificationModule":{"nctId":"NCT03821129","orgStudyIdInfo":{"id":"GSO 18-01"},"organization":{"fullName":"W.L.Gore & Associates","class":"INDUSTRY"},"briefTitle":"GORE® CARDIOFORM Septal Occluder and Antiplatelet Medical Management for Reduction of Recurrent Stroke in Patients With Patent Foramen Ovale (PFO): the REDUCE Post Approval Study","officialTitle":"GORE® CARDIOFORM Septal Occluder and Antiplatelet Medical Management for Reduction of Recurrent Stroke in Patients With Patent Foramen Ovale (PFO): the REDUCE Post Approval Study","acronym":"REDUCE PAS"},"statusModule":{"statusVerifiedDate":"2023-11","overallStatus":"RECRUITING","expandedAccessInfo":{"hasExpandedAccess":false},"startDateStruct":{"date":"2019-07-25","type":"ACTUAL"},"primaryCompletionDateStruct":{"date":"2026-12","type":"ESTIMATED"},"completionDateStruct":{"date":"2029-12","type":"ESTIMATED"},"studyFirstSubmitDate":"2019-01-15","studyFirstSubmitQcDate":"2019-01-28","studyFirstPostDateStruct":{"date":"2019-01-29","type":"ACTUAL"},"lastUpdateSubmitDate":"2023-11-06","lastUpdatePostDateStruct":{"date":"2023-11-07","type":"ACTUAL"}},"sponsorCollaboratorsModule":{"responsibleParty":{"type":"SPONSOR"},"leadSponsor":{"name":"W.L.Gore & Associates","class":"INDUSTRY"}},"oversightModule":{"oversightHasDmc":true,"isFdaRegulatedDrug":false,"isFdaRegulatedDevice":true,"isUsExport":true},"descriptionModule":{"briefSummary":"This study will assess the safety and effectiveness of GORE® CARDIOFORM Septal Occluder in a post approval setting and evaluate the quality of operator education and training and transferability of trial experience to a post-market setting.","detailedDescription":"A maximum of 636 adult subjects will be enrolled at up to 40 U.S. centers. Subjects will have follow-up at 1 month, 6 months, 12 months and annually thereafter through 5 years post implant."},"conditionsModule":{"conditions":["Stroke","PFO - Patent Foramen Ovale"],"keywords":["Occluder","Patent Foramen Ovale","PFO","Stroke","Gore Septal Occluder"]},"designModule":{"studyType":"INTERVENTIONAL","phases":["NA"],"designInfo":{"allocation":"NA","interventionModel":"SINGLE_GROUP","primaryPurpose":"PREVENTION","maskingInfo":{"masking":"NONE"}},"enrollmentInfo":{"count":636,"type":"ESTIMATED"}},"armsInterventionsModule":{"armGroups":[{"label":"GORE® CARDIOFORM Septal Occluder","type":"OTHER","description":"Single Arm Commercially available GORE® CARDIOFORM Septal Occluder","interventionNames":["Device: PFO closure with GORE® CARDIOFORM Septal Occluder"]}],"interventions":[{"type":"DEVICE","name":"PFO closure with GORE® CARDIOFORM Septal Occluder","description":"PFO closure with GORE® CARDIOFORM Septal Occluder in patients with ischemic stroke","armGroupLabels":["GORE® CARDIOFORM Septal Occluder"]}]},"outcomesModule":{"primaryOutcomes":[{"measure":"Proportion of subjects with recurrent ischemic stroke post study device implant (Primary Effectiveness Outcome)","description":"Proportion of subjects with recurrent ischemic stroke post study device implant","timeFrame":"24 months"},{"measure":"Proportion of subjects with device- or procedure-related serious adverse events at 30 days (Primary Safety Endpoint)","description":"Device- or procedure- related serious adverse events post study device implant","timeFrame":"30 days"}],"secondaryOutcomes":[{"measure":"Effective PFO Closure defined as complete PFO closure or a trivial or small residual shunt by Echocardiographic assessment","description":"Complete PFO closure or a trivial or small residual shunt\n\nProportion of subjects with complete PFO closure or a trivial or small residual shunt","timeFrame":"12 months"},{"measure":"Clinically Significant New Atrial Arrhythmia","description":"Any new atrial fibrillation or flutter","timeFrame":"60 months"},{"measure":"Clinically Significant New Atrial Arrhythmia by Age","description":"Any new atrial fibrillation or flutter in patients greater and less than 60 years of age","timeFrame":"60 months"},{"measure":"Residual Shunt Characterization via assessment of shunt in patients by Echo","description":"Assessment of shunt in patients by Echo","timeFrame":"24 months"},{"measure":"Technical Success defined as successful delivery and retention of the GSO device based on physician reporting","description":"Successful delivery and retention of the GSO device","timeFrame":"Index procedure"},{"measure":"Procedural Success defined as successful implantation of the GSO device with no reported in-hospital Serious Adverse Events (SAEs)","description":"Successful implantation of the GSO device with no reported in-hospital SAEs","timeFrame":"Enrollment through discharge, approximately 1 day"}]},"eligibilityModule":{"eligibilityCriteria":"Inclusion Criteria:\n\n* Diagnosed with an ischemic stroke presumed to be an embolic stroke of undetermined source (ESUS) verified by a neurologist within the last 365 days prior to enrollment.\n* Presence of Patent Foramen Ovale (PFO), as determined initially by positive bubble study utilizing transesophageal echocardiography (TEE) and/or transcranial Doppler (TCD), demonstrating spontaneous right-to-left shunting or right-to-left shunting during Valsalva maneuver.\n* Patient is able to tolerate antiplatelet therapy\n* Note: Additional Inclusion Criteria may apply\n\nExclusion Criteria:\n\n* History of or ongoing atrial fibrillation/flutter\n* Other co-morbidities including, but not limited to, mural thrombus, dilated cardiomyopathy, cardiac prosthetics (valves), severe native valve disease (including mitral valve stenosis), severe ventricular wall motion abnormalities, aortic dissection, significant atherosclerosis, vasculitis, pre-existing non-vascular neurologic disorders, pulmonary arteriovenous malformations, prior intracranial hemorrhage, severe disability related to prior stroke, autoimmune disorders that would increase the risk of stroke or thromboembolism, or associated with increased risk of infection or procedural complications, in the opinion of the investigator, left ventricular ejection fraction of \\<40%, coexistent cause or intra-cardiac shunting (e.g. VSD or ASD)\n* Previous Myocardial Infarction\n* Rankin Scale sore greater than or equal to 3 at the time of procedure\n* Active infection that cannot be treated successfully prior to enrollment\n* Neurological deficits not due to stroke that may affect the patient's neurologic assessments\n* Evidence of hypercoagulable state, Uncontrolled diabetes mellitus, uncontrolled systemic hypertension or pulmonary hypertension at the time of screening or procedure\n* Sensitivity or contraindication to all proposed medical treatments or any device components\n* Pregnant, lactating, or intent on becoming pregnant through 24 months after enrollment.\n* Indications outside the parameters accepted for placement of GSO, including extensive congenital cardiac anomalies and defect diameters considered too large for closure with the device.\n* Atrial septal anatomy that is expected to necessitate placement of more than one GORE® CARDIOFORM Septal Occluder\n* Need for concomitant procedure(s) that may confound detection of adverse events related to device placement\n* Note: Additional Exclusion Criteria may apply","healthyVolunteers":false,"sex":"ALL","minimumAge":"18 Years","maximumAge":"70 Years","stdAges":["ADULT","OLDER_ADULT"]},"contactsLocationsModule":{"centralContacts":[{"name":"Tammy DeLozier","role":"CONTACT","phone":"800-437-8181","email":"GSO1801@wlgore.com"}],"locations":[{"facility":"St. Mary's Hospital","status":"RECRUITING","city":"Tucson","state":"Arizona","zip":"85745","country":"United States","contacts":[{"name":"Lucille Pena","role":"CONTACT"},{"name":"Kapildeo Lotun, MD","role":"PRINCIPAL_INVESTIGATOR"}],"geoPoint":{"lat":32.22174,"lon":-110.92648}},{"facility":"Scripps Health La Jolla","status":"RECRUITING","city":"La Jolla","state":"California","zip":"92037","country":"United States","contacts":[{"name":"Heather Catchpole","role":"CONTACT"},{"name":"Matthew Price, MD","role":"PRINCIPAL_INVESTIGATOR"}],"geoPoint":{"lat":32.84727,"lon":-117.2742}},{"facility":"Loma Linda University Health","status":"RECRUITING","city":"Loma Linda","state":"California","zip":"92354","country":"United States","contacts":[{"name":"Jason Hoff","role":"CONTACT"},{"name":"Jason Hoff, MD","role":"PRINCIPAL_INVESTIGATOR"}],"geoPoint":{"lat":34.04835,"lon":-117.26115}},{"facility":"University of California - San Francisco","status":"RECRUITING","city":"San Francisco","state":"California","zip":"94143","country":"United States","contacts":[{"name":"Harsh Agrawal","role":"CONTACT"}],"geoPoint":{"lat":37.77493,"lon":-122.41942}},{"facility":"Santa Barbara Cottage Hospital","status":"RECRUITING","city":"Santa Barbara","state":"California","zip":"93105","country":"United States","contacts":[{"name":"Joseph Aragon","role":"CONTACT"}],"geoPoint":{"lat":34.42083,"lon":-119.69819}},{"facility":"South Denver Cardiology Associates","status":"RECRUITING","city":"Littleton","state":"Colorado","zip":"80120","country":"United States","contacts":[{"name":"Lee MacDonald","role":"CONTACT"}],"geoPoint":{"lat":39.61332,"lon":-105.01665}},{"facility":"Medical Center of the Rockies","status":"RECRUITING","city":"Loveland","state":"Colorado","zip":"80538","country":"United States","contacts":[{"name":"Justin Strote","role":"CONTACT"}],"geoPoint":{"lat":40.39776,"lon":-105.07498}},{"facility":"Yale University School of Medicine","status":"RECRUITING","city":"New Haven","state":"Connecticut","zip":"06510","country":"United States","contacts":[{"name":"Jeremy Asnes","role":"CONTACT"}],"geoPoint":{"lat":41.30815,"lon":-72.92816}},{"facility":"Naples Community Hospital","status":"RECRUITING","city":"Naples","state":"Florida","zip":"34102","country":"United States","contacts":[{"name":"Kathy Byrd","role":"CONTACT"},{"name":"Roberto Cubeddu, MD","role":"PRINCIPAL_INVESTIGATOR"}],"geoPoint":{"lat":26.14234,"lon":-81.79596}},{"facility":"Cleveland Clinic Florida","status":"RECRUITING","city":"Weston","state":"Florida","zip":"33331","country":"United States","contacts":[{"name":"David Snipelisky","role":"CONTACT"}],"geoPoint":{"lat":26.10037,"lon":-80.39977}},{"facility":"Emory University","status":"RECRUITING","city":"Atlanta","state":"Georgia","zip":"30322","country":"United States","contacts":[{"name":"Chandanreddy Devireddy","role":"CONTACT"}],"geoPoint":{"lat":33.749,"lon":-84.38798}},{"facility":"Rush University Medical Center","status":"RECRUITING","city":"Chicago","state":"Illinois","zip":"60612","country":"United States","contacts":[{"name":"Clifford Kavinsky","role":"CONTACT"}],"geoPoint":{"lat":41.85003,"lon":-87.65005}},{"facility":"Alexian Brothers Medical Center","status":"RECRUITING","city":"Elk Grove Village","state":"Illinois","zip":"60007","country":"United States","contacts":[{"name":"Andrei Pop, MD","role":"CONTACT"},{"name":"Andrei Pop, MD","role":"PRINCIPAL_INVESTIGATOR"}],"geoPoint":{"lat":42.00392,"lon":-87.97035}},{"facility":"Northwestern University","status":"RECRUITING","city":"Evanston","state":"Illinois","zip":"60208","country":"United States","contacts":[{"name":"Keith Benzuly","role":"CONTACT"}],"geoPoint":{"lat":42.04114,"lon":-87.69006}},{"facility":"University of Iowa Hospitals & Clinic","status":"RECRUITING","city":"Iowa City","state":"Iowa","zip":"52242","country":"United States","contacts":[{"name":"Phillip Horwitz","role":"CONTACT"}],"geoPoint":{"lat":41.66113,"lon":-91.53017}},{"facility":"Catholic Health Initiatives- Iowa Corp dba Iowa Heart","status":"RECRUITING","city":"West Des Moines","state":"Iowa","zip":"50266","country":"United States","contacts":[{"name":"Mark Tannenbaum","role":"CONTACT"}],"geoPoint":{"lat":41.57721,"lon":-93.71133}},{"facility":"Massachusetts General Hospital","status":"RECRUITING","city":"Boston","state":"Massachusetts","zip":"02114","country":"United States","contacts":[{"name":"Ignacio Inglessis-Azuaje","role":"CONTACT"},{"name":"Ignacio Inglessis-Azuaje","role":"PRINCIPAL_INVESTIGATOR"}],"geoPoint":{"lat":42.35843,"lon":-71.05977}},{"facility":"University of Michigan","status":"RECRUITING","city":"Ann Arbor","state":"Michigan","zip":"48109","country":"United States","contacts":[{"name":"Stanley Chetcuti","role":"CONTACT"}],"geoPoint":{"lat":42.27756,"lon":-83.74088}},{"facility":"William Beaumont Hospital","status":"WITHDRAWN","city":"Royal Oak","state":"Michigan","zip":"48073","country":"United States","geoPoint":{"lat":42.48948,"lon":-83.14465}},{"facility":"Covenant Medical Center, Inc.","status":"TERMINATED","city":"Saginaw","state":"Michigan","zip":"48602","country":"United States","geoPoint":{"lat":43.41947,"lon":-83.95081}},{"facility":"University of Minnesota","status":"WITHDRAWN","city":"Edina","state":"Minnesota","zip":"55435","country":"United States","geoPoint":{"lat":44.88969,"lon":-93.34995}},{"facility":"Minneapolis Heart Institute Foundation - Abbott Northwestern Hospital","status":"RECRUITING","city":"Minneapolis","state":"Minnesota","zip":"55407","country":"United States","contacts":[{"name":"Mario Goessl","role":"CONTACT"}],"geoPoint":{"lat":44.97997,"lon":-93.26384}},{"facility":"Research Foundation SUNY Buffalo","status":"RECRUITING","city":"Buffalo","state":"New York","zip":"14203","country":"United States","contacts":[{"name":"Vijay Iyer","role":"CONTACT"}],"geoPoint":{"lat":42.88645,"lon":-78.87837}},{"facility":"Columbia University Medical Center/NYPH","status":"RECRUITING","city":"New York","state":"New York","zip":"10032","country":"United States","contacts":[{"name":"Robert Sommer","role":"CONTACT"},{"name":"Robert Sommer","role":"PRINCIPAL_INVESTIGATOR"}],"geoPoint":{"lat":40.71427,"lon":-74.00597}},{"facility":"Atrium Health","status":"RECRUITING","city":"Charlotte","state":"North Carolina","zip":"28203","country":"United States","contacts":[{"name":"Matthew Schwartz","role":"CONTACT"}],"geoPoint":{"lat":35.22709,"lon":-80.84313}},{"facility":"Providence Heart & Vascular Institute","status":"RECRUITING","city":"Portland","state":"Oregon","zip":"97225","country":"United States","contacts":[{"name":"Brandon Jones","role":"CONTACT"}],"geoPoint":{"lat":45.52345,"lon":-122.67621}},{"facility":"Lehigh Valley Hospital","status":"RECRUITING","city":"Allentown","state":"Pennsylvania","zip":"18103","country":"United States","contacts":[{"name":"Bryan Kluck","role":"CONTACT"}],"geoPoint":{"lat":40.60843,"lon":-75.49018}},{"facility":"Medical University of South Carolina","status":"WITHDRAWN","city":"Charleston","state":"South Carolina","zip":"29425","country":"United States","geoPoint":{"lat":32.77657,"lon":-79.93092}},{"facility":"Tennova Healthcare","status":"TERMINATED","city":"Knoxville","state":"Tennessee","zip":"37934","country":"United States","geoPoint":{"lat":35.96064,"lon":-83.92074}},{"facility":"Vanderbilt University Medical Center","status":"RECRUITING","city":"Nashville","state":"Tennessee","zip":"37232","country":"United States","contacts":[{"name":"Robert Piana","role":"CONTACT"}],"geoPoint":{"lat":36.16589,"lon":-86.78444}},{"facility":"Baylor College of Medicine-Houston","status":"RECRUITING","city":"Houston","state":"Texas","zip":"77030","country":"United States","contacts":[{"name":"Guilherme Silva","role":"CONTACT"}],"geoPoint":{"lat":29.76328,"lon":-95.36327}},{"facility":"The Methodist Hospital - Houston","status":"RECRUITING","city":"Houston","state":"Texas","zip":"77030","country":"United States","contacts":[{"name":"Chun Huie Lin","role":"CONTACT"},{"name":"Chun Huie Lin","role":"PRINCIPAL_INVESTIGATOR"}],"geoPoint":{"lat":29.76328,"lon":-95.36327}},{"facility":"Methodist Healthcare Systems of San Antonio d/b/a Methodist Hospital","status":"RECRUITING","city":"San Antonio","state":"Texas","zip":"78229","country":"United States","contacts":[{"name":"Jorge Alvarez","role":"CONTACT"}],"geoPoint":{"lat":29.42412,"lon":-98.49363}},{"facility":"University of Utah","status":"RECRUITING","city":"Salt Lake City","state":"Utah","zip":"84132","country":"United States","contacts":[{"name":"Anwar Tandar","role":"CONTACT"}],"geoPoint":{"lat":40.76078,"lon":-111.89105}},{"facility":"University of Virginia","status":"RECRUITING","city":"Charlottesville","state":"Virginia","zip":"22908","country":"United States","contacts":[{"name":"Nishtha Sodhi","role":"CONTACT"}],"geoPoint":{"lat":38.02931,"lon":-78.47668}},{"facility":"Sentara Cardiovascular Research Institute","status":"RECRUITING","city":"Norfolk","state":"Virginia","zip":"23455","country":"United States","contacts":[{"name":"Paul Mahoney","role":"CONTACT"}],"geoPoint":{"lat":36.84681,"lon":-76.28522}},{"facility":"University of Washington","status":"WITHDRAWN","city":"Seattle","state":"Washington","zip":"98195","country":"United States","geoPoint":{"lat":47.60621,"lon":-122.33207}},{"facility":"Multicare Health Tacoma-Multicare Institute for Research & Innovation","status":"RECRUITING","city":"Tacoma","state":"Washington","zip":"98405","country":"United States","contacts":[{"name":"William Dixon, MD","role":"CONTACT"},{"name":"William Dixon, MD","role":"PRINCIPAL_INVESTIGATOR"}],"geoPoint":{"lat":47.25288,"lon":-122.44429}},{"facility":"Aurora Health Care, Metro Inc.","status":"RECRUITING","city":"Milwaukee","state":"Wisconsin","zip":"53215","country":"United States","contacts":[{"name":"Tanvir Bajwa","role":"CONTACT"}],"geoPoint":{"lat":43.0389,"lon":-87.90647}},{"facility":"Medical College of Wisconsin, Inc.","status":"RECRUITING","city":"Milwaukee","state":"Wisconsin","zip":"53226","country":"United States","contacts":[{"name":"Michael Cinquegrani","role":"CONTACT"}],"geoPoint":{"lat":43.0389,"lon":-87.90647}}]},"ipdSharingStatementModule":{"ipdSharing":"NO"}},"derivedSection":{"miscInfoModule":{"versionHolder":"2024-02-14"},"conditionBrowseModule":{"meshes":[{"id":"D000020521","term":"Stroke"},{"id":"D000054092","term":"Foramen Ovale, Patent"}],"ancestors":[{"id":"D000002561","term":"Cerebrovascular Disorders"},{"id":"D000001927","term":"Brain Diseases"},{"id":"D000002493","term":"Central Nervous System Diseases"},{"id":"D000009422","term":"Nervous System Diseases"},{"id":"D000014652","term":"Vascular Diseases"},{"id":"D000002318","term":"Cardiovascular Diseases"},{"id":"D000006344","term":"Heart Septal Defects, Atrial"},{"id":"D000006343","term":"Heart Septal Defects"},{"id":"D000006330","term":"Heart Defects, Congenital"},{"id":"D000018376","term":"Cardiovascular Abnormalities"},{"id":"D000006331","term":"Heart Diseases"},{"id":"D000000013","term":"Congenital Abnormalities"}],"browseLeaves":[{"id":"M21996","name":"Stroke","asFound":"Stroke","relevance":"HIGH"},{"id":"M14540","name":"Recurrence","relevance":"LOW"},{"id":"M27260","name":"Foramen Ovale, Patent","asFound":"Patent Foramen Ovale","relevance":"HIGH"},{"id":"M5500","name":"Cerebrovascular Disorders","relevance":"LOW"},{"id":"M4894","name":"Brain Diseases","relevance":"LOW"},{"id":"M5432","name":"Central Nervous System Diseases","relevance":"LOW"},{"id":"M17090","name":"Vascular Diseases","relevance":"LOW"},{"id":"M9122","name":"Heart Septal Defects, Atrial","relevance":"LOW"},{"id":"M9121","name":"Heart Septal Defects","relevance":"LOW"},{"id":"M9108","name":"Heart Defects, Congenital","relevance":"LOW"},{"id":"M12","name":"Congenital Abnormalities","relevance":"LOW"},{"id":"M20193","name":"Cardiovascular Abnormalities","relevance":"LOW"},{"id":"M9109","name":"Heart Diseases","relevance":"LOW"}],"browseBranches":[{"abbrev":"BC10","name":"Nervous System Diseases"},{"abbrev":"BC14","name":"Heart and Blood Diseases"},{"abbrev":"All","name":"All Conditions"},{"abbrev":"BC23","name":"Symptoms and General Pathology"},{"abbrev":"BC16","name":"Diseases and Abnormalities at or Before Birth"}]}},"hasResults":false}