{"protocolSection":{"identificationModule":{"nctId":"NCT00501059","orgStudyIdInfo":{"id":"12198"},"secondaryIdInfos":[{"id":"2006-003622-29","type":"EUDRACT_NUMBER"}],"organization":{"fullName":"Bayer","class":"INDUSTRY"},"briefTitle":"A Study to Assess the Efficacy and Safety of Enteric-Coated Acetylsalicylic Acid in Patients at Moderate Risk of Cardiovascular Disease","officialTitle":"A Randomized, Double-Blind, Placebo-Controlled, Multi-Center, Parallel Group Study to Assess the Efficacy (Reduction of Cardiovascular Disease Events) and Safety of 100 mg Enteric-Coated Acetylsalicylic Acid in Patients at Moderate Risk of Cardiovascular Disease","acronym":"ARRIVE"},"statusModule":{"statusVerifiedDate":"2018-09","overallStatus":"COMPLETED","expandedAccessInfo":{"hasExpandedAccess":false},"startDateStruct":{"date":"2007-07-05","type":"ACTUAL"},"primaryCompletionDateStruct":{"date":"2016-11-15","type":"ACTUAL"},"completionDateStruct":{"date":"2016-11-15","type":"ACTUAL"},"studyFirstSubmitDate":"2007-07-12","studyFirstSubmitQcDate":"2007-07-12","studyFirstPostDateStruct":{"date":"2007-07-13","type":"ESTIMATED"},"resultsFirstSubmitDate":"2017-11-15","resultsFirstSubmitQcDate":"2018-01-04","resultsFirstPostDateStruct":{"date":"2018-01-08","type":"ACTUAL"},"dispFirstSubmitDate":"2017-09-19","dispFirstSubmitQcDate":"2017-09-19","dispFirstPostDateStruct":{"date":"2017-09-27","type":"ACTUAL"},"lastUpdateSubmitDate":"2018-09-26","lastUpdatePostDateStruct":{"date":"2018-10-26","type":"ACTUAL"}},"sponsorCollaboratorsModule":{"responsibleParty":{"type":"SPONSOR"},"leadSponsor":{"name":"Bayer","class":"INDUSTRY"}},"oversightModule":{"oversightHasDmc":true},"descriptionModule":{"briefSummary":"The use of acetylsalicylic acid in the primary prevention of cardiovascular events has been extensively studied but to a lesser extent in patients with moderate levels of cardiovascular risk. The current study is designed to prove the efficacy and tolerability of 100 mg enteric-coated Aspirin versus placebo in the prevention of cardiovascular disease (CVD) events, which include fatal and nonfatal myocardial infarction, fatal and nonfatal stroke and CV death, in a population with no history of known CVD who are at moderate risk of major CHD events (approximately 10-20% 10 year CHD risk). This corresponds to a patient population mean 10-year CVD risk of approximately 30%. Subjects are treated in a standard care setting and may receive treatment for the underlying risk factors as defined by the treating physician. Outcome events will be adjudicated by an Endpoint Adjudication Committee and the study will be monitored by an independent Data Safety Monitoring Board.","detailedDescription":"Summary of substantial Protocol amendments\n\nAmendment #2 from 09-APR-2008:\n\n* Systolic blood pressure (SBP) limit of 170 mmHg has been added to the exclusion criteria\n* Exclusion of patients currently taking anticoagulant medication\n* A longer interval between the daily dose of study drug and ibuprofen\n* Revised wording in moderate risk definitions for coronary heart disease (CHD) and cerebrovascular disease (CVD): \"To evaluate the clinical effects of a 100 mg/day enteric-coated acetylsalicylic acid versus placebo in the reduction of CVD events in patients at moderate risk of major CHD events (approximately 10 to 20% 10-year CHD risk; approximately 20 to 30% 10-year risk of CVD). This corresponds to a patient population mean 10-year CVD risk of approximately 30%.\"\n\nAmendment #3 from 02-JAN-2009\n\n• Increase in the number of allowed risk factors for males, age is no longer a risk factor\n\nAmendment #4 from 02-OCT-2013\n\n* The primary endpoint is changed to include confirmed UA and TIA.\n* The estimated event rate is changed to 1.5% per year due to new information.\n* Effect size (risk reduction) changed from 14.9% to 17 to 18%.\n* Achieving 60,000 person-years instead of 1488 primary endpoint events\n* Additional treatment and follow-up for a maximum of another 12 months.\n* Change to reduced adverse event and concomitant therapy reporting"},"conditionsModule":{"conditions":["Moderate Risk of CVD"],"keywords":["Primary prevention of coronary heart disease","Stroke and cardiovascular death","Aspirin"]},"designModule":{"studyType":"INTERVENTIONAL","phases":["PHASE3"],"designInfo":{"allocation":"RANDOMIZED","interventionModel":"PARALLEL","primaryPurpose":"PREVENTION","maskingInfo":{"masking":"TRIPLE","whoMasked":["PARTICIPANT","INVESTIGATOR","OUTCOMES_ASSESSOR"]}},"enrollmentInfo":{"count":12546,"type":"ACTUAL"}},"armsInterventionsModule":{"armGroups":[{"label":"Acetylsalicylic acid (Aspirin, BAYE4465)","type":"EXPERIMENTAL","description":"Participants received 1 tablet of enteric-coated acetylsalicylic acid \\[100 milligram (mg)\\] orally once daily.","interventionNames":["Drug: Aspirin (Acetylsalicylic acid, BAYE4465)"]},{"label":"Placebo","type":"PLACEBO_COMPARATOR","description":"Participants received 1 tablets of matching placebo orally once daily.","interventionNames":["Drug: Placebo"]}],"interventions":[{"type":"DRUG","name":"Aspirin (Acetylsalicylic acid, BAYE4465)","description":"100mg enteric coated Aspirin, taken daily","armGroupLabels":["Acetylsalicylic acid (Aspirin, BAYE4465)"]},{"type":"DRUG","name":"Placebo","description":"Placebo, taken daily","armGroupLabels":["Placebo"]}]},"outcomesModule":{"primaryOutcomes":[{"measure":"Time to the First Occurrence of the Composite Outcome of MI (Myocardial Infarction), Stroke, Cardiovascular Death, UA (Unstable Angina) or TIA (Transient Ischemic Attack)","description":"The primary efficacy endpoint was a composite outcome consisting of the first occurrence of confirmed MI, stroke, cardiovascular death, UA, TIA. The time to event was defined as the number of days from the date of randomization to the date of the event confirmed by adjudication. The numbers of days for milestones when 1%, 2%, 3% and 4% of the subjects have reached endpoint events were estimated from Kaplan-Meier-Analyses.","timeFrame":"Until follow-up (approximate 6 years)"}],"secondaryOutcomes":[{"measure":"Time to the First Occurrence of the Composite Outcome of Cardiovascular Death, MI, or Stroke (Ischemic, Hemorrhagic, or Unknown)","description":"The time to Composite outcome consisting of the first occurrence of cardiovascular death, MI, or stroke (ischemic, hemorrhagic, or unknown) was defined as the number of days from the date of randomization to the date of the event confirmed by adjudication. The numbers of days for milestones when 1%, 2%, 3% and 4% of the subjects have reached endpoint events were estimated from Kaplan-Meier-Analyses.","timeFrame":"Until follow-up (approximate 6 years)"},{"measure":"Time to the First Occurrence of the Individual Components of the Primary: Non-fatal MI, Total MI, Non-fatal Stroke, Total Stroke, Cardiovascular Death, UA and TIA","description":"The time to event was defined as the number of days from the date of randomization to the date of the event confirmed by adjudication. The numbers of days for milestones when 1%, 2%, 3% and 4% of the subjects have reached endpoint events were estimated from Kaplan-Meier-Analyses.","timeFrame":"Until follow-up (approximately 6 years)"},{"measure":"Time to All-cause Mortality, the First Occurrence of All Cancers Excluding Non-melanoma Skin Cancer (NMSC) and the First Occurrence of Colon Cancer","description":"The time to event was defined as the number of days from the date of randomization to the date of the event confirmed by adjudication. The numbers of days for milestones when 1%, 2%, 3% and 4% of the subjects have reached endpoint events were estimated from Kaplan-Meier-Analyses.","timeFrame":"Until follow-up (approximately 6 years)"},{"measure":"Incidence of All-cause Mortality, All Cancers Excluding Non-melanoma Skin Cancer and Colon Cancer","timeFrame":"Until follow-up (approximately 6 years)"},{"measure":"Incidence of Confirmed MI, Stroke, Cardiovascular Death, UA, and TIA Separately","description":"The percentages of subjects with the efficacy endpoints of confirmed MI, stroke, cardiovascular death, UA and TIA are reported separately. \\*all other CV death without fatal MI and fatal stroke","timeFrame":"Until follow-up (approximately 6 years)"}],"otherOutcomes":[{"measure":"Number of Subjects With Adjudicated GI Bleeding by Severity","timeFrame":"Until follow-up (approximate 6 years)"},{"measure":"Incidence of Composite Outcomes and Non-fatal MI","timeFrame":"Until follow-up (approximate 6 years)"},{"measure":"Incidence of Composite Outcomes and Individual Outcomes in Per-protocol Population","description":"\\*all other CV death without fatal MI and fatal stroke.","timeFrame":"Until follow-up (approximate 6 years)"}]},"eligibilityModule":{"eligibilityCriteria":"Inclusion Criteria:\n\n* Males aged 55 years and above with 2 to 4 risk factors. Male Risk Factors:\n\n  * Elevated cholesterol (Tchol\\>200 mg/dL or LDL\\>130 mg/dL; as measured at screening) irrespective of current treatment\n  * Current smoking: defined as any cigarette smoking in the past 12 months\n  * Low HDL cholesterol (HDL\\<40 mg/dL; as measured at screening)\n  * Elevated blood pressure (SBP\\>140 mmHg; as measured at screening)\n  * Currently on any medication to treat high blood pressure\n  * Positive family history of early CHD (a first-degree relative \\[father, mother, brother, sister, son, daughter\\] suffered a heart attack \\[myocardial infarction\\] before the age of 60 years)\n* Females aged 60 and above with 3 or more risk factors. Female Risk Factors:\n\n  * Elevated cholesterol (Tchol\\>240 mg/dL or LDL\\>160 mg/dL; as measured at screening) irrespective of current treatment\n  * Current smoking: defined as any cigarette smoking in the past 12 months\n  * Low HDL cholesterol (HDL\\<40 mg/dL; as measured at screening)\n  * Elevated blood pressure (SBP\\>140 mmHg; as measured at screening)\n  * Currently on any medication to treat high blood pressure\n  * Positive family history of early CHD (a first-degree relative \\[father, mother, brother, sister, son, daughter\\] suffered a heart attack \\[myocardial infarction\\] before the age of 60 years)\n* An understanding and willingness to comply with trial procedures and has given written informed consent to participate in the trial\n\nExclusion Criteria:\n\n* History of a documented vascular event, such as MI, stroke, coronary artery angioplasty or stenting, coronary artery bypass graft, relevant arrhythmias, or congestive heart failure or vascular intervention\n* Patients who are at higher than moderate risk on the basis of their diabetes status, other factors known to the investigator, or the currently used national risk score\n* Known contraindications to the study drug, e.g. hypersensitivity to acetylsalicylic acid\n* Recent (in the past year) history of gastrointestinal or genitourinary bleeding or other bleeding disorders\n* Active diagnosed and documented reflux esophagitis\n* Patients presenting with any medical condition, or psychiatric or substance abuse disorder, that, in the opinion of the investigator, is likely to affect the patient's ability to complete the study or precludes the patient's participation in the study\n* Lactating women or women of childbearing potential\n* Severe liver disease or damage based on the clinical judgment of the investigator\n* Severe renal disease or damage based on the clinical judgement of the investigator\n* A definite indication for acetylsalicylic acid therapy, other antiplatelet drug, or anticoagulant in the opinion of the physician\n* A history of asthma induced by administration of salicylates or substances with a similar action, notably NSAIDS\n* Chronic, frequent (\\> 5 days/month) use of NSAIDs (including aspirin, or aspirin containing products), COX-2 inhibitors or metamizole\n* Current participation in any other trials involving investigational products within 30 days prior to the Screening Visit\n* Current use of an anticoagulant medication\n* Sitting systolic blood pressure greater than 170 mmHg","healthyVolunteers":false,"sex":"ALL","minimumAge":"55 Years","stdAges":["ADULT","OLDER_ADULT"]},"contactsLocationsModule":{"overallOfficials":[{"name":"Bayer Study Director","affiliation":"Bayer","role":"STUDY_DIRECTOR"}],"locations":[{"city":"Birmingham","state":"Alabama","zip":"39294","country":"United States","geoPoint":{"lat":33.52066,"lon":-86.80249}},{"city":"Graysville","state":"Alabama","zip":"35073","country":"United States","geoPoint":{"lat":33.62066,"lon":-86.97138}},{"city":"Pell City","state":"Alabama","zip":"35125","country":"United States","geoPoint":{"lat":33.58621,"lon":-86.28609}},{"city":"Phoenix","state":"Arizona","zip":"85051","country":"United States","geoPoint":{"lat":33.44838,"lon":-112.07404}},{"city":"Scottsdale","state":"Arizona","zip":"85260","country":"United States","geoPoint":{"lat":33.50921,"lon":-111.89903}},{"city":"Tucson","state":"Arizona","zip":"85712","country":"United States","geoPoint":{"lat":32.22174,"lon":-110.92648}},{"city":"Hot Springs","state":"Arkansas","zip":"71913-4457","country":"United States","geoPoint":{"lat":34.5037,"lon":-93.05518}},{"city":"Fremont","state":"California","zip":"94536-3702","country":"United States","geoPoint":{"lat":37.54827,"lon":-121.98857}},{"city":"Huntington Park","state":"California","zip":"90255","country":"United States","geoPoint":{"lat":33.98168,"lon":-118.22507}},{"city":"Los Angeles","state":"California","zip":"90025","country":"United States","geoPoint":{"lat":34.05223,"lon":-118.24368}},{"city":"Rancho Cucamonga","state":"California","zip":"91730","country":"United States","geoPoint":{"lat":34.1064,"lon":-117.59311}},{"city":"Rolling Hills Estates","state":"California","zip":"90274","country":"United States","geoPoint":{"lat":33.78779,"lon":-118.35813}},{"facility":"Helping Hands Clinical Trials","city":"Santa Ana","state":"California","zip":"92704","country":"United States","geoPoint":{"lat":33.74557,"lon":-117.86783}},{"city":"Newark","state":"Delaware","zip":"19702","country":"United States","geoPoint":{"lat":39.68372,"lon":-75.74966}},{"facility":"Medical Research Trust","city":"Boynton Beach","state":"Florida","zip":"33426","country":"United States","geoPoint":{"lat":26.52535,"lon":-80.06643}},{"city":"Gainesville","state":"Florida","zip":"32601","country":"United States","geoPoint":{"lat":29.65163,"lon":-82.32483}},{"city":"Hialeah","state":"Florida","zip":"33016","country":"United States","geoPoint":{"lat":25.8576,"lon":-80.27811}},{"facility":"Medical Research Centers of South Florida, Inc.","city":"Hollywood","state":"Florida","zip":"33021","country":"United States","geoPoint":{"lat":26.0112,"lon":-80.14949}},{"facility":"Office of Dr.Larry Levinson, DO","city":"Hollywood","state":"Florida","zip":"33021","country":"United States","geoPoint":{"lat":26.0112,"lon":-80.14949}},{"city":"Kissimmee","state":"Florida","zip":"34741","country":"United States","geoPoint":{"lat":28.30468,"lon":-81.41667}},{"city":"Largo","state":"Florida","zip":"33770","country":"United States","geoPoint":{"lat":27.90979,"lon":-82.78842}},{"city":"Marianna","state":"Florida","zip":"32446-2120","country":"United States","geoPoint":{"lat":30.77436,"lon":-85.22687}},{"city":"Panama City","state":"Florida","zip":"32401","country":"United States","geoPoint":{"lat":30.15946,"lon":-85.65983}},{"facility":"Tallahassee Memorial Family","city":"Quincy","state":"Florida","zip":"32351","country":"United States","geoPoint":{"lat":30.58714,"lon":-84.58325}},{"city":"Tampa","state":"Florida","zip":"33614","country":"United States","geoPoint":{"lat":27.94752,"lon":-82.45843}},{"city":"Atlanta","state":"Georgia","zip":"30318","country":"United States","geoPoint":{"lat":33.749,"lon":-84.38798}},{"city":"Chicago","state":"Illinois","zip":"60628","country":"United States","geoPoint":{"lat":41.85003,"lon":-87.65005}},{"city":"Chicago","state":"Illinois","zip":"60631-1958","country":"United States","geoPoint":{"lat":41.85003,"lon":-87.65005}},{"city":"Lockport","state":"Illinois","zip":"60491","country":"United States","geoPoint":{"lat":41.58948,"lon":-88.05784}},{"city":"Vernon Hills","state":"Illinois","zip":"60061","country":"United States","geoPoint":{"lat":42.21947,"lon":-87.97952}},{"city":"Evansville","state":"Indiana","zip":"47713","country":"United States","geoPoint":{"lat":37.97476,"lon":-87.55585}},{"city":"Fort Wayne","state":"Indiana","zip":"46804","country":"United States","geoPoint":{"lat":41.1306,"lon":-85.12886}},{"city":"Lebanon","state":"Kentucky","zip":"40033","country":"United States","geoPoint":{"lat":37.56979,"lon":-85.25274}},{"city":"Prince Frederick","state":"Maryland","zip":"20678","country":"United States","geoPoint":{"lat":38.5404,"lon":-76.5844}},{"city":"Bridgman","state":"Michigan","zip":"49106","country":"United States","geoPoint":{"lat":41.9431,"lon":-86.55697}},{"city":"Cadillac","state":"Michigan","zip":"49601","country":"United States","geoPoint":{"lat":44.25195,"lon":-85.40116}},{"city":"Interlochen","state":"Michigan","zip":"49643-9264","country":"United States","geoPoint":{"lat":44.64472,"lon":-85.7673}},{"city":"Troy","state":"Michigan","zip":"48085","country":"United States","geoPoint":{"lat":42.60559,"lon":-83.14993}},{"city":"Port Gibson","state":"Mississippi","zip":"39150","country":"United States","geoPoint":{"lat":31.96099,"lon":-90.98399}},{"city":"Florissant","state":"Missouri","zip":"63031","country":"United States","geoPoint":{"lat":38.78922,"lon":-90.32261}},{"city":"Broken Bow","state":"Nebraska","zip":"68822","country":"United States","geoPoint":{"lat":41.40195,"lon":-99.63928}},{"city":"Omaha","state":"Nebraska","zip":"68114","country":"United States","geoPoint":{"lat":41.25626,"lon":-95.94043}},{"city":"Omaha","state":"Nebraska","zip":"68116-2004","country":"United States","geoPoint":{"lat":41.25626,"lon":-95.94043}},{"city":"Belvidere","state":"New Jersey","zip":"07823","country":"United States","geoPoint":{"lat":40.82982,"lon":-75.07767}},{"city":"Cherry Hill","state":"New Jersey","zip":"08084","country":"United States","geoPoint":{"lat":39.93484,"lon":-75.03073}},{"city":"Clifton","state":"New Jersey","zip":"07013","country":"United States","geoPoint":{"lat":40.85843,"lon":-74.16376}},{"city":"Hainesport","state":"New Jersey","zip":"08036","country":"United States","geoPoint":{"lat":39.98372,"lon":-74.82711}},{"city":"Jersey City","state":"New Jersey","zip":"07306","country":"United States","geoPoint":{"lat":40.72816,"lon":-74.07764}},{"city":"Lawrenceville","state":"New Jersey","zip":"08648","country":"United States","geoPoint":{"lat":40.29733,"lon":-74.7296}},{"city":"Linden","state":"New Jersey","zip":"07036","country":"United States","geoPoint":{"lat":40.62205,"lon":-74.24459}},{"facility":"PharmaTrials, Inc.","city":"Perth Amboy","state":"New Jersey","zip":"08861","country":"United States","geoPoint":{"lat":40.50677,"lon":-74.26542}},{"city":"Stratford","state":"New Jersey","zip":"08084","country":"United States","geoPoint":{"lat":39.82678,"lon":-75.01545}},{"city":"Burlington","state":"North Carolina","zip":"27215","country":"United States","geoPoint":{"lat":36.09569,"lon":-79.4378}},{"city":"Columbus","state":"North Carolina","zip":"28722","country":"United States","geoPoint":{"lat":35.25317,"lon":-82.19706}},{"city":"Greensboro","state":"North Carolina","zip":"27401","country":"United States","geoPoint":{"lat":36.07264,"lon":-79.79198}},{"city":"Raleigh","state":"North Carolina","zip":"27609","country":"United States","geoPoint":{"lat":35.7721,"lon":-78.63861}},{"city":"Carlisle","state":"Ohio","zip":"45005-3320","country":"United States","geoPoint":{"lat":39.582,"lon":-84.32022}},{"city":"Marion","state":"Ohio","zip":"43302","country":"United States","geoPoint":{"lat":40.58867,"lon":-83.12852}},{"city":"Montgomery","state":"Ohio","zip":"45242","country":"United States","geoPoint":{"lat":39.22811,"lon":-84.35411}},{"city":"Perrysburg","state":"Ohio","zip":"43551","country":"United States","geoPoint":{"lat":41.557,"lon":-83.62716}},{"city":"Doylestown","state":"Pennsylvania","zip":"18901","country":"United States","geoPoint":{"lat":40.31011,"lon":-75.12989}},{"city":"Duncansville","state":"Pennsylvania","zip":"16635","country":"United States","geoPoint":{"lat":40.42341,"lon":-78.4339}},{"city":"Sellersville","state":"Pennsylvania","zip":"18960","country":"United States","geoPoint":{"lat":40.35399,"lon":-75.3049}},{"city":"Taylors","state":"South Carolina","zip":"29687","country":"United States","geoPoint":{"lat":34.92039,"lon":-82.29623}},{"city":"Daingerfield","state":"Texas","zip":"75638","country":"United States","geoPoint":{"lat":33.03179,"lon":-94.72187}},{"city":"McKinney","state":"Texas","zip":"75069","country":"United States","geoPoint":{"lat":33.19762,"lon":-96.61527}},{"city":"Rockwall","state":"Texas","zip":"75032","country":"United States","geoPoint":{"lat":32.93123,"lon":-96.45971}},{"city":"San Antonio","state":"Texas","zip":"78205-1116","country":"United States","geoPoint":{"lat":29.42412,"lon":-98.49363}},{"city":"San Marcos","state":"Texas","zip":"78666","country":"United States","geoPoint":{"lat":29.88327,"lon":-97.94139}},{"city":"Stephenville","state":"Texas","zip":"76401","country":"United States","geoPoint":{"lat":32.2207,"lon":-98.20226}},{"city":"Sugar Land","state":"Texas","zip":"77478","country":"United States","geoPoint":{"lat":29.61968,"lon":-95.63495}},{"city":"Honaker","state":"Virginia","zip":"24260","country":"United States","geoPoint":{"lat":37.01622,"lon":-81.97429}},{"facility":"Merit Medical Group, Inc.","city":"Richlands","state":"Virginia","zip":"24641-2067","country":"United States","geoPoint":{"lat":37.09317,"lon":-81.79373}},{"city":"Benningen","state":"Baden-Württemberg","zip":"71726","country":"Germany","geoPoint":{"lat":47.96667,"lon":10.21667}},{"city":"Deggingen","state":"Baden-Württemberg","zip":"73326","country":"Germany","geoPoint":{"lat":48.5971,"lon":9.71891}},{"city":"Dossenheim","state":"Baden-Württemberg","zip":"69221","country":"Germany","geoPoint":{"lat":49.45028,"lon":8.67472}},{"city":"Ettlingen","state":"Baden-Württemberg","zip":"78275","country":"Germany","geoPoint":{"lat":48.94094,"lon":8.40763}},{"city":"Graben-Neudorf","state":"Baden-Württemberg","zip":"76676","country":"Germany","geoPoint":{"lat":49.16695,"lon":8.49243}},{"city":"Heilbronn","state":"Baden-Württemberg","zip":"74080","country":"Germany","geoPoint":{"lat":49.13995,"lon":9.22054}},{"city":"Hockenheim","state":"Baden-Württemberg","zip":"68766","country":"Germany","geoPoint":{"lat":49.32334,"lon":8.55194}},{"city":"Ludwigsburg","state":"Baden-Württemberg","zip":"71640","country":"Germany","geoPoint":{"lat":48.89731,"lon":9.19161}},{"city":"Schwetzingen","state":"Baden-Württemberg","zip":"68723","country":"Germany","geoPoint":{"lat":49.38217,"lon":8.5823}},{"city":"Sinzheim","state":"Baden-Württemberg","zip":"76547","country":"Germany","geoPoint":{"lat":48.76667,"lon":8.16667}},{"city":"Stockach","state":"Baden-Württemberg","zip":"78333","country":"Germany","geoPoint":{"lat":47.85105,"lon":9.0091}},{"city":"Stuttgart","state":"Baden-Württemberg","zip":"70378","country":"Germany","geoPoint":{"lat":48.78232,"lon":9.17702}},{"city":"Trossingen","state":"Baden-Württemberg","zip":"78647","country":"Germany","geoPoint":{"lat":48.07667,"lon":8.64409}},{"city":"Weinheim","state":"Baden-Württemberg","zip":"69469","country":"Germany","geoPoint":{"lat":49.54887,"lon":8.66697}},{"city":"Arzberg","state":"Bayern","zip":"95659","country":"Germany","geoPoint":{"lat":50.05774,"lon":12.18676}},{"city":"Bergrheinfeld","state":"Bayern","zip":"97493","country":"Germany","geoPoint":{"lat":50.01028,"lon":10.18089}},{"city":"Dinkelsbühl","state":"Bayern","zip":"91550","country":"Germany","geoPoint":{"lat":49.06942,"lon":10.31985}},{"city":"Gars","state":"Bayern","zip":"83536","country":"Germany","geoPoint":{"lat":48.15386,"lon":12.27767}},{"city":"Hohenau","state":"Bayern","zip":"94545","country":"Germany","geoPoint":{"lat":48.84983,"lon":13.48825}},{"city":"Künzing","state":"Bayern","zip":"94550","country":"Germany","geoPoint":{"lat":48.66667,"lon":13.08333}},{"city":"München","state":"Bayern","zip":"80336","country":"Germany","geoPoint":{"lat":48.13743,"lon":11.57549}},{"city":"Oberaurach","state":"Bayern","zip":"97514","country":"Germany"},{"city":"Sand Am Main","state":"Bayern","zip":"97522","country":"Germany"},{"city":"Schrobenhausen","state":"Bayern","zip":"86529","country":"Germany","geoPoint":{"lat":48.56067,"lon":11.26071}},{"city":"Spalt","state":"Bayern","zip":"91174","country":"Germany","geoPoint":{"lat":49.17553,"lon":10.92453}},{"city":"Strasskirchen","state":"Bayern","zip":"94342","country":"Germany","geoPoint":{"lat":48.83071,"lon":12.72105}},{"city":"Sulzbach-Rosenberg","state":"Bayern","zip":"92237","country":"Germany","geoPoint":{"lat":49.50126,"lon":11.74598}},{"city":"Ursensollen","state":"Bayern","zip":"92289","country":"Germany","geoPoint":{"lat":49.40204,"lon":11.75503}},{"city":"Cottbus","state":"Brandenburg","zip":"03046","country":"Germany","geoPoint":{"lat":51.75769,"lon":14.32888}},{"city":"Elsterwerda","state":"Brandenburg","zip":"04910","country":"Germany","geoPoint":{"lat":51.46043,"lon":13.52001}},{"city":"Gransee","state":"Brandenburg","zip":"16775","country":"Germany","geoPoint":{"lat":53.00704,"lon":13.1575}},{"city":"Ketzin","state":"Brandenburg","zip":"14669","country":"Germany","geoPoint":{"lat":52.47809,"lon":12.8453}},{"city":"Potsdam","state":"Brandenburg","zip":"14778","country":"Germany","geoPoint":{"lat":52.39886,"lon":13.06566}},{"city":"Frankfurt","state":"Hessen","zip":"60599","country":"Germany","geoPoint":{"lat":50.11552,"lon":8.68417}},{"city":"Frankfurt","state":"Hessen","zip":"65929","country":"Germany","geoPoint":{"lat":50.11552,"lon":8.68417}},{"city":"Hanau","state":"Hessen","zip":"63450","country":"Germany","geoPoint":{"lat":50.13423,"lon":8.91418}},{"city":"Kelkheim","state":"Hessen","zip":"65779","country":"Germany"},{"city":"Rotenburg","state":"Hessen","zip":"36199","country":"Germany","geoPoint":{"lat":53.11125,"lon":9.41082}},{"city":"Wetter","state":"Hessen","zip":"35083","country":"Germany","geoPoint":{"lat":50.90254,"lon":8.72366}},{"city":"Aurich","state":"Niedersachsen","zip":"26603","country":"Germany","geoPoint":{"lat":53.46919,"lon":7.48232}},{"city":"Bockenem","state":"Niedersachsen","zip":"31167","country":"Germany","geoPoint":{"lat":52.00993,"lon":10.13197}},{"city":"Braunschweig","state":"Niedersachsen","zip":"38100","country":"Germany","geoPoint":{"lat":52.26594,"lon":10.52673}},{"city":"Horneburg","state":"Niedersachsen","zip":"21640","country":"Germany","geoPoint":{"lat":53.50672,"lon":9.57546}},{"city":"Jühnde","state":"Niedersachsen","zip":"37127","country":"Germany","geoPoint":{"lat":51.46667,"lon":9.8}},{"city":"Loxstedt","state":"Niedersachsen","zip":"27612","country":"Germany","geoPoint":{"lat":53.46667,"lon":8.65}},{"city":"Nienburg","state":"Niedersachsen","zip":"31582","country":"Germany","geoPoint":{"lat":52.6461,"lon":9.22086}},{"city":"Northeim","state":"Niedersachsen","zip":"37154","country":"Germany","geoPoint":{"lat":51.70662,"lon":9.99997}},{"city":"Papenburg","state":"Niedersachsen","zip":"26871","country":"Germany","geoPoint":{"lat":53.07738,"lon":7.40444}},{"city":"Stuhr","state":"Niedersachsen","zip":"28816","country":"Germany","geoPoint":{"lat":53.03333,"lon":8.75}},{"city":"Wardenburg","state":"Niedersachsen","zip":"26203","country":"Germany","geoPoint":{"lat":53.06667,"lon":8.2}},{"city":"Weyhe","state":"Niedersachsen","zip":"28844","country":"Germany","geoPoint":{"lat":52.96667,"lon":8.66667}},{"city":"Winsen","state":"Niedersachsen","zip":"21423","country":"Germany","geoPoint":{"lat":53.35753,"lon":10.21282}},{"city":"Aachen","state":"Nordrhein-Westfalen","zip":"52074","country":"Germany","geoPoint":{"lat":50.77664,"lon":6.08342}},{"city":"Aachen","state":"Nordrhein-Westfalen","zip":"52080","country":"Germany","geoPoint":{"lat":50.77664,"lon":6.08342}},{"city":"Arnsberg","state":"Nordrhein-Westfalen","zip":"59757","country":"Germany","geoPoint":{"lat":51.38333,"lon":8.08333}},{"city":"Bad Lippspringe","state":"Nordrhein-Westfalen","zip":"33175","country":"Germany","geoPoint":{"lat":51.78333,"lon":8.81683}},{"city":"Bad Salzuflen","state":"Nordrhein-Westfalen","zip":"32105","country":"Germany","geoPoint":{"lat":52.0862,"lon":8.74434}},{"city":"Bad Salzuflen","state":"Nordrhein-Westfalen","zip":"32108","country":"Germany","geoPoint":{"lat":52.0862,"lon":8.74434}},{"city":"Bad Sassendorf","state":"Nordrhein-Westfalen","zip":"59505","country":"Germany","geoPoint":{"lat":51.58333,"lon":8.16667}},{"city":"Bergkamen","state":"Nordrhein-Westfalen","zip":"59192","country":"Germany","geoPoint":{"lat":51.61633,"lon":7.64451}},{"city":"Bochum","state":"Nordrhein-Westfalen","zip":"44797","country":"Germany","geoPoint":{"lat":51.48165,"lon":7.21648}},{"city":"Dortmund","state":"Nordrhein-Westfalen","zip":"44139","country":"Germany","geoPoint":{"lat":51.51494,"lon":7.466}},{"city":"Dortmund","state":"Nordrhein-Westfalen","zip":"44328","country":"Germany","geoPoint":{"lat":51.51494,"lon":7.466}},{"city":"Dortmund","state":"Nordrhein-Westfalen","zip":"44339","country":"Germany","geoPoint":{"lat":51.51494,"lon":7.466}},{"city":"Duisburg","state":"Nordrhein-Westfalen","zip":"47199","country":"Germany","geoPoint":{"lat":51.43247,"lon":6.76516}},{"city":"Essen","state":"Nordrhein-Westfalen","zip":"45130","country":"Germany","geoPoint":{"lat":51.45657,"lon":7.01228}},{"city":"Essen","state":"Nordrhein-Westfalen","zip":"45136","country":"Germany","geoPoint":{"lat":51.45657,"lon":7.01228}},{"city":"Essen","state":"Nordrhein-Westfalen","zip":"45276","country":"Germany","geoPoint":{"lat":51.45657,"lon":7.01228}},{"city":"Essen","state":"Nordrhein-Westfalen","zip":"45355","country":"Germany","geoPoint":{"lat":51.45657,"lon":7.01228}},{"city":"Essen","state":"Nordrhein-Westfalen","zip":"45359","country":"Germany","geoPoint":{"lat":51.45657,"lon":7.01228}},{"city":"Freudenberg","state":"Nordrhein-Westfalen","zip":"57258","country":"Germany","geoPoint":{"lat":50.89741,"lon":7.87415}},{"city":"Greven","state":"Nordrhein-Westfalen","zip":"48268","country":"Germany","geoPoint":{"lat":52.09364,"lon":7.59396}},{"city":"Hamm","state":"Nordrhein-Westfalen","zip":"59069","country":"Germany","geoPoint":{"lat":51.68033,"lon":7.82089}},{"city":"Hünxe","state":"Nordrhein-Westfalen","zip":"46569","country":"Germany","geoPoint":{"lat":51.63417,"lon":6.69803}},{"city":"Kamp-Lintfort","state":"Nordrhein-Westfalen","zip":"47475","country":"Germany","geoPoint":{"lat":51.50467,"lon":6.54587}},{"city":"Krefeld","state":"Nordrhein-Westfalen","zip":"47798","country":"Germany","geoPoint":{"lat":51.33645,"lon":6.55382}},{"city":"Köln","state":"Nordrhein-Westfalen","zip":"51069","country":"Germany","geoPoint":{"lat":50.93333,"lon":6.95}},{"city":"Langenfeld","state":"Nordrhein-Westfalen","zip":"40764","country":"Germany","geoPoint":{"lat":51.10821,"lon":6.94831}},{"city":"Lienen","state":"Nordrhein-Westfalen","zip":"49536","country":"Germany","geoPoint":{"lat":52.15,"lon":7.98333}},{"city":"Lippetal","state":"Nordrhein-Westfalen","zip":"59510","country":"Germany"},{"city":"Löhne","state":"Nordrhein-Westfalen","zip":"32584","country":"Germany","geoPoint":{"lat":52.18848,"lon":8.6922}},{"city":"Marl","state":"Nordrhein-Westfalen","zip":"45770","country":"Germany","geoPoint":{"lat":51.65671,"lon":7.09038}},{"city":"Münster","state":"Nordrhein-Westfalen","zip":"48167","country":"Germany","geoPoint":{"lat":51.96236,"lon":7.62571}},{"city":"Netphen","state":"Nordrhein-Westfalen","zip":"57250","country":"Germany","geoPoint":{"lat":50.91667,"lon":8.1}},{"city":"Porta Westfalica","state":"Nordrhein-Westfalen","zip":"32457","country":"Germany","geoPoint":{"lat":52.22963,"lon":8.91613}},{"city":"Remscheid","state":"Nordrhein-Westfalen","zip":"42897","country":"Germany","geoPoint":{"lat":51.17983,"lon":7.1925}},{"city":"Siegen","state":"Nordrhein-Westfalen","zip":"57072","country":"Germany","geoPoint":{"lat":50.87481,"lon":8.02431}},{"city":"Viersen","state":"Nordrhein-Westfalen","zip":"41751","country":"Germany","geoPoint":{"lat":51.25435,"lon":6.39441}},{"city":"Welver","state":"Nordrhein-Westfalen","zip":"59514","country":"Germany","geoPoint":{"lat":51.61667,"lon":7.96667}},{"city":"Wetter","state":"Nordrhein-Westfalen","zip":"58300","country":"Germany","geoPoint":{"lat":50.90254,"lon":8.72366}},{"city":"Witten","state":"Nordrhein-Westfalen","zip":"58455","country":"Germany","geoPoint":{"lat":51.44362,"lon":7.35258}},{"city":"Kallstadt","state":"Rheinland-Pfalz","zip":"67169","country":"Germany","geoPoint":{"lat":49.49083,"lon":8.17611}},{"city":"Ludwigshafen","state":"Rheinland-Pfalz","zip":"67063","country":"Germany","geoPoint":{"lat":49.48121,"lon":8.44641}},{"city":"Mainz","state":"Rheinland-Pfalz","zip":"55116","country":"Germany","geoPoint":{"lat":49.98419,"lon":8.2791}},{"city":"Mainz","state":"Rheinland-Pfalz","zip":"55127","country":"Germany","geoPoint":{"lat":49.98419,"lon":8.2791}},{"city":"Nassau","state":"Rheinland-Pfalz","zip":"56377","country":"Germany","geoPoint":{"lat":50.31453,"lon":7.80025}},{"city":"Rhaunen","state":"Rheinland-Pfalz","zip":"55624","country":"Germany","geoPoint":{"lat":49.86322,"lon":7.34232}},{"city":"Speyer","state":"Rheinland-Pfalz","zip":"67346","country":"Germany","geoPoint":{"lat":49.32083,"lon":8.43111}},{"city":"Bitterfeld","state":"Sachsen-Anhalt","zip":"06749","country":"Germany"},{"city":"Halle","state":"Sachsen-Anhalt","zip":"06124","country":"Germany","geoPoint":{"lat":51.48159,"lon":11.97948}},{"city":"Magdeburg","state":"Sachsen-Anhalt","zip":"39104","country":"Germany","geoPoint":{"lat":52.12773,"lon":11.62916}},{"city":"Beucha","state":"Sachsen","zip":"04824","country":"Germany","geoPoint":{"lat":51.3231,"lon":12.56218}},{"city":"Borna","state":"Sachsen","zip":"04552","country":"Germany","geoPoint":{"lat":51.12416,"lon":12.49639}},{"city":"Delitzsch","state":"Sachsen","zip":"04509","country":"Germany","geoPoint":{"lat":51.52546,"lon":12.34284}},{"city":"Dresden","state":"Sachsen","zip":"01069","country":"Germany","geoPoint":{"lat":51.05089,"lon":13.73832}},{"city":"Dresden","state":"Sachsen","zip":"01127","country":"Germany","geoPoint":{"lat":51.05089,"lon":13.73832}},{"city":"Dresden","state":"Sachsen","zip":"01277","country":"Germany","geoPoint":{"lat":51.05089,"lon":13.73832}},{"city":"Leipzig","state":"Sachsen","zip":"04103","country":"Germany","geoPoint":{"lat":51.33962,"lon":12.37129}},{"city":"Leipzig","state":"Sachsen","zip":"04249","country":"Germany","geoPoint":{"lat":51.33962,"lon":12.37129}},{"city":"Markkleeberg","state":"Sachsen","zip":"04416","country":"Germany","geoPoint":{"lat":51.2755,"lon":12.36906}},{"city":"Meißen","state":"Sachsen","zip":"01662","country":"Germany","geoPoint":{"lat":51.16158,"lon":13.4737}},{"city":"Oberwiesenthal","state":"Sachsen","zip":"09484","country":"Germany","geoPoint":{"lat":50.41943,"lon":12.96836}},{"city":"Riesa","state":"Sachsen","zip":"01587","country":"Germany","geoPoint":{"lat":51.30777,"lon":13.29168}},{"city":"Wermsdorf","state":"Sachsen","zip":"04779","country":"Germany","geoPoint":{"lat":51.28333,"lon":12.95}},{"city":"Bad Bramstedt","state":"Schleswig-Holstein","zip":"24576","country":"Germany","geoPoint":{"lat":53.9183,"lon":9.88424}},{"city":"Reinfeld","state":"Schleswig-Holstein","zip":"23858","country":"Germany","geoPoint":{"lat":53.83184,"lon":10.49126}},{"city":"Apolda","state":"Thüringen","zip":"99510","country":"Germany","geoPoint":{"lat":51.02624,"lon":11.51638}},{"city":"Blankenhain","state":"Thüringen","zip":"99444","country":"Germany","geoPoint":{"lat":50.85993,"lon":11.3439}},{"city":"Grimma","state":"Thüringen","zip":"04668","country":"Germany","geoPoint":{"lat":51.23367,"lon":12.71959}},{"city":"Berlin","zip":"10249","country":"Germany","geoPoint":{"lat":52.52437,"lon":13.41053}},{"city":"Berlin","zip":"10407","country":"Germany","geoPoint":{"lat":52.52437,"lon":13.41053}},{"city":"Berlin","zip":"12099","country":"Germany","geoPoint":{"lat":52.52437,"lon":13.41053}},{"city":"Berlin","zip":"13055","country":"Germany","geoPoint":{"lat":52.52437,"lon":13.41053}},{"city":"Berlin","zip":"13057","country":"Germany","geoPoint":{"lat":52.52437,"lon":13.41053}},{"city":"Berlin","zip":"13405","country":"Germany","geoPoint":{"lat":52.52437,"lon":13.41053}},{"city":"Berlin","zip":"13467","country":"Germany","geoPoint":{"lat":52.52437,"lon":13.41053}},{"city":"Berlin","zip":"14050","country":"Germany","geoPoint":{"lat":52.52437,"lon":13.41053}},{"city":"Daaden","zip":"57567","country":"Germany","geoPoint":{"lat":50.73333,"lon":7.96667}},{"city":"Hamburg","zip":"22041","country":"Germany","geoPoint":{"lat":53.57532,"lon":10.01534}},{"city":"Hamburg","zip":"22143","country":"Germany","geoPoint":{"lat":53.57532,"lon":10.01534}},{"city":"Hamburg","zip":"22177","country":"Germany","geoPoint":{"lat":53.57532,"lon":10.01534}},{"city":"Hamburg","zip":"22299","country":"Germany","geoPoint":{"lat":53.57532,"lon":10.01534}},{"city":"Hamburg","zip":"22335","country":"Germany","geoPoint":{"lat":53.57532,"lon":10.01534}},{"city":"Rehburg-Loccum","zip":"31547","country":"Germany","geoPoint":{"lat":52.46952,"lon":9.19957}},{"city":"Riede","zip":"27339","country":"Germany","geoPoint":{"lat":52.96667,"lon":8.95}},{"city":"Thedinghausen","zip":"27321","country":"Germany","geoPoint":{"lat":52.96667,"lon":9.01667}},{"city":"Bishopstown","state":"Cork","country":"Ireland","geoPoint":{"lat":51.87326,"lon":-8.54449}},{"city":"Kilmallock","state":"Limerick","country":"Ireland","geoPoint":{"lat":52.4,"lon":-8.57722}},{"city":"Rathkeale","state":"Limerick","country":"Ireland","geoPoint":{"lat":52.52444,"lon":-8.93806}},{"city":"Tallow","state":"Waterford","country":"Ireland","geoPoint":{"lat":52.09278,"lon":-8.00806}},{"city":"Enniscorthy","state":"Wexford","country":"Ireland","geoPoint":{"lat":52.50083,"lon":-6.55778}},{"city":"Gorey","state":"Wexford","country":"Ireland","geoPoint":{"lat":52.67472,"lon":-6.2925}},{"city":"Bray","state":"Wicklow","country":"Ireland","geoPoint":{"lat":53.20278,"lon":-6.09833}},{"city":"Cork","country":"Ireland","geoPoint":{"lat":51.89797,"lon":-8.47061}},{"city":"Dublin","zip":"2","country":"Ireland","geoPoint":{"lat":53.33306,"lon":-6.24889}},{"city":"Chieti","state":"Abruzzo","zip":"66100","country":"Italy","geoPoint":{"lat":42.34827,"lon":14.16494}},{"city":"Amandola","state":"Ascoli Piceno","zip":"63021","country":"Italy","geoPoint":{"lat":42.97826,"lon":13.35453}},{"city":"Napoli","state":"Campania","zip":"80131","country":"Italy","geoPoint":{"lat":40.85216,"lon":14.26811}},{"city":"Reggio Emilia","state":"Emilia-Romagna","zip":"42019","country":"Italy","geoPoint":{"lat":44.69825,"lon":10.63125}},{"city":"Chiavari","state":"Genova","zip":"16043","country":"Italy","geoPoint":{"lat":44.31771,"lon":9.32241}},{"city":"Roma","state":"Lazio","zip":"00157","country":"Italy","geoPoint":{"lat":41.89193,"lon":12.51133}},{"city":"Roma","state":"Lazio","zip":"00161","country":"Italy","geoPoint":{"lat":41.89193,"lon":12.51133}},{"city":"Como","state":"Lombardia","zip":"22066","country":"Italy","geoPoint":{"lat":45.80819,"lon":9.0832}},{"city":"Varese","state":"Lombardia","zip":"21100","country":"Italy","geoPoint":{"lat":45.82058,"lon":8.82511}},{"city":"Legnano","state":"Milano","zip":"20025","country":"Italy","geoPoint":{"lat":45.59788,"lon":8.91506}},{"city":"Novara","state":"Piemonte","zip":"28100","country":"Italy","geoPoint":{"lat":45.44694,"lon":8.62118}},{"city":"Torino","state":"Piemonte","zip":"10023","country":"Italy","geoPoint":{"lat":45.07049,"lon":7.68682}},{"city":"Foggia","state":"Puglia","zip":"71100","country":"Italy","geoPoint":{"lat":41.45845,"lon":15.55188}},{"city":"Catania","state":"Sicilia","zip":"95124","country":"Italy","geoPoint":{"lat":37.49223,"lon":15.07041}},{"city":"Chieri","state":"Torino","zip":"10023","country":"Italy","geoPoint":{"lat":45.01054,"lon":7.82133}},{"city":"Moncalieri","state":"Torino","zip":"10024","country":"Italy","geoPoint":{"lat":44.9994,"lon":7.68236}},{"city":"Grosseto","state":"Toscana","zip":"58100","country":"Italy","geoPoint":{"lat":42.76296,"lon":11.10941}},{"city":"Asti","zip":"14100","country":"Italy","geoPoint":{"lat":44.90162,"lon":8.20751}},{"city":"Bergamo","zip":"24128","country":"Italy","geoPoint":{"lat":45.69601,"lon":9.66721}},{"city":"Reggio Emilia","zip":"42123","country":"Italy","geoPoint":{"lat":44.69825,"lon":10.63125}},{"city":"Bialystok","zip":"15-183","country":"Poland","geoPoint":{"lat":53.13333,"lon":23.16433}},{"city":"Bydgoszcz","zip":"85-863","country":"Poland","geoPoint":{"lat":53.1235,"lon":18.00762}},{"city":"Bydgoszcz","country":"Poland","geoPoint":{"lat":53.1235,"lon":18.00762}},{"city":"Chrzanow","country":"Poland","geoPoint":{"lat":50.13546,"lon":19.40203}},{"city":"Czechowice-Dziedzice","country":"Poland","geoPoint":{"lat":49.91342,"lon":19.00479}},{"city":"Elblag","zip":"82-300","country":"Poland","geoPoint":{"lat":54.1522,"lon":19.40884}},{"city":"Gdansk","zip":"80-286","country":"Poland","geoPoint":{"lat":54.35205,"lon":18.64637}},{"city":"Gdansk","zip":"80-461","country":"Poland","geoPoint":{"lat":54.35205,"lon":18.64637}},{"city":"Gdansk","zip":"80-822","country":"Poland","geoPoint":{"lat":54.35205,"lon":18.64637}},{"city":"Gdynia","zip":"81-317","country":"Poland","geoPoint":{"lat":54.51889,"lon":18.53188}},{"city":"Gliwice","zip":"44-109","country":"Poland","geoPoint":{"lat":50.29761,"lon":18.67658}},{"city":"Grodzisk Mazowiecki","zip":"05-825","country":"Poland","geoPoint":{"lat":52.10387,"lon":20.6337}},{"city":"Katowice","zip":"40-226","country":"Poland","geoPoint":{"lat":50.25841,"lon":19.02754}},{"city":"Katowice","zip":"40-752","country":"Poland","geoPoint":{"lat":50.25841,"lon":19.02754}},{"city":"Krakow","zip":"30-424","country":"Poland","geoPoint":{"lat":50.06143,"lon":19.93658}},{"city":"Krakow","zip":"31-011","country":"Poland","geoPoint":{"lat":50.06143,"lon":19.93658}},{"city":"Krakow","zip":"31-156","country":"Poland","geoPoint":{"lat":50.06143,"lon":19.93658}},{"city":"Krakow","zip":"31-567","country":"Poland","geoPoint":{"lat":50.06143,"lon":19.93658}},{"city":"Krakow","zip":"31-637","country":"Poland","geoPoint":{"lat":50.06143,"lon":19.93658}},{"city":"Krakow","country":"Poland","geoPoint":{"lat":50.06143,"lon":19.93658}},{"city":"Kutno","zip":"99-300","country":"Poland","geoPoint":{"lat":52.23064,"lon":19.36409}},{"city":"Lancut","country":"Poland","geoPoint":{"lat":50.06871,"lon":22.22912}},{"city":"Linia","zip":"84-223","country":"Poland","geoPoint":{"lat":54.45143,"lon":17.93454}},{"city":"Lodz","country":"Poland","geoPoint":{"lat":51.75,"lon":19.46667}},{"city":"Lublin","zip":"20-044","country":"Poland","geoPoint":{"lat":51.25,"lon":22.56667}},{"city":"Lublin","zip":"20-258","country":"Poland","geoPoint":{"lat":51.25,"lon":22.56667}},{"city":"Lublin","country":"Poland","geoPoint":{"lat":51.25,"lon":22.56667}},{"city":"Malaszewicze","country":"Poland","geoPoint":{"lat":52.04096,"lon":23.51316}},{"city":"Malbork","zip":"82-200","country":"Poland","geoPoint":{"lat":54.03591,"lon":19.0266}},{"city":"Naklo nad Notecia","zip":"98-100","country":"Poland","geoPoint":{"lat":53.14214,"lon":17.60181}},{"city":"Olkusz","country":"Poland","geoPoint":{"lat":50.2813,"lon":19.56503}},{"city":"Ostrow Wielkopolski","zip":"63-400","country":"Poland","geoPoint":{"lat":51.65501,"lon":17.80686}},{"city":"Poznan","zip":"60-539","country":"Poland","geoPoint":{"lat":52.40692,"lon":16.92993}},{"city":"Przeworsk","zip":"37-200","country":"Poland","geoPoint":{"lat":50.05912,"lon":22.49408}},{"city":"Radom","zip":"26-600","country":"Poland","geoPoint":{"lat":51.40253,"lon":21.14714}},{"city":"Skierniewice","zip":"96-100","country":"Poland","geoPoint":{"lat":51.95485,"lon":20.15837}},{"city":"Skierniewice","country":"Poland","geoPoint":{"lat":51.95485,"lon":20.15837}},{"city":"Sobotka","country":"Poland","geoPoint":{"lat":50.89992,"lon":16.74441}},{"city":"Sopot","zip":"81-746","country":"Poland","geoPoint":{"lat":54.4418,"lon":18.56003}},{"city":"Szczyrk","zip":"43-370","country":"Poland","geoPoint":{"lat":49.71724,"lon":19.03183}},{"city":"Wabrzezno","country":"Poland","geoPoint":{"lat":53.27989,"lon":18.94773}},{"city":"Warszawa","zip":"01-192","country":"Poland","geoPoint":{"lat":52.22977,"lon":21.01178}},{"city":"Warszawa","zip":"02-507","country":"Poland","geoPoint":{"lat":52.22977,"lon":21.01178}},{"city":"Warszawa","zip":"02-796","country":"Poland","geoPoint":{"lat":52.22977,"lon":21.01178}},{"city":"Wejherowo","country":"Poland","geoPoint":{"lat":54.60568,"lon":18.23559}},{"city":"Wloclawek","country":"Poland","geoPoint":{"lat":52.64817,"lon":19.0678}},{"city":"Wola","country":"Poland","geoPoint":{"lat":52.2401,"lon":20.98869}},{"city":"Wroclaw","zip":"50-127","country":"Poland","geoPoint":{"lat":51.1,"lon":17.03333}},{"city":"Wroclaw","zip":"51-112","country":"Poland","geoPoint":{"lat":51.1,"lon":17.03333}},{"city":"Zabrze","country":"Poland","geoPoint":{"lat":50.32492,"lon":18.78576}},{"city":"Guaynabo","zip":"00968","country":"Puerto Rico","geoPoint":{"lat":18.35745,"lon":-66.111}},{"city":"Manati","zip":"00674","country":"Puerto Rico","geoPoint":{"lat":18.42745,"lon":-66.49212}},{"city":"Orocovis","zip":"00720","country":"Puerto Rico","geoPoint":{"lat":18.2269,"lon":-66.391}},{"city":"San Juan","zip":"00918","country":"Puerto Rico","geoPoint":{"lat":18.46633,"lon":-66.10572}},{"city":"Trujilo Alto","zip":"00976","country":"Puerto Rico"},{"city":"Sobrado Dos Monxes","state":"A Coruña","zip":"15813","country":"Spain"},{"city":"La Roda","state":"Albacete","zip":"06230","country":"Spain","geoPoint":{"lat":39.20735,"lon":-2.15723}},{"city":"Benidorm","state":"Alicante","zip":"03503","country":"Spain","geoPoint":{"lat":38.53816,"lon":-0.13098}},{"city":"Elche","state":"Alicante","country":"Spain","geoPoint":{"lat":38.26218,"lon":-0.70107}},{"city":"Petrer","state":"Alicante","zip":"03610","country":"Spain"},{"city":"Xixona","state":"Alicante","zip":"03100","country":"Spain"},{"city":"Oviedo","state":"Asturias","zip":"33009","country":"Spain","geoPoint":{"lat":43.36029,"lon":-5.84476}},{"city":"Oviedo","state":"Asturias","zip":"33013","country":"Spain","geoPoint":{"lat":43.36029,"lon":-5.84476}},{"city":"Posada De Llanes","state":"Asturias","zip":"33594","country":"Spain"},{"city":"Vic (Barcelona)","state":"Catalunya","zip":"08500","country":"Spain"},{"city":"Begonte","state":"Lugo","zip":"27373","country":"Spain","geoPoint":{"lat":43.15121,"lon":-7.68643}},{"city":"Viveiro","state":"Lugo","zip":"27850","country":"Spain","geoPoint":{"lat":43.66228,"lon":-7.59344}},{"city":"Espinardo","state":"Murcia","zip":"30100","country":"Spain","geoPoint":{"lat":38.01037,"lon":-1.15603}},{"city":"Orense","state":"Ourense","zip":"32003","country":"Spain","geoPoint":{"lat":42.33669,"lon":-7.86407}},{"city":"Gümar","state":"Santa Cruz De Tenerife","zip":"38591","country":"Spain"},{"city":"La Victoria","state":"Santa Cruz De Tenerife","zip":"38380","country":"Spain","geoPoint":{"lat":37.68126,"lon":-4.85199}},{"city":"Alcover","state":"Tarragona","zip":"43460","country":"Spain","geoPoint":{"lat":41.26267,"lon":1.1701}},{"city":"Albacete","zip":"2260","country":"Spain","geoPoint":{"lat":38.99424,"lon":-1.85643}},{"city":"Alicante","zip":"03007","country":"Spain","geoPoint":{"lat":38.34517,"lon":-0.48149}},{"city":"Badajoz","zip":"06140","country":"Spain","geoPoint":{"lat":38.87789,"lon":-6.97061}},{"city":"Barcelona","zip":"08017","country":"Spain","geoPoint":{"lat":41.38879,"lon":2.15899}},{"city":"Barcelona","zip":"08023","country":"Spain","geoPoint":{"lat":41.38879,"lon":2.15899}},{"city":"Barcelona","zip":"08025","country":"Spain","geoPoint":{"lat":41.38879,"lon":2.15899}},{"city":"Huelva","zip":"21003","country":"Spain","geoPoint":{"lat":37.26638,"lon":-6.94004}},{"city":"León","zip":"24001","country":"Spain","geoPoint":{"lat":42.60003,"lon":-5.57032}},{"city":"León","country":"Spain","geoPoint":{"lat":42.60003,"lon":-5.57032}},{"city":"Lugo","zip":"27770","country":"Spain","geoPoint":{"lat":43.00992,"lon":-7.55602}},{"city":"Madrid","zip":"28003","country":"Spain","geoPoint":{"lat":40.4165,"lon":-3.70256}},{"city":"Madrid","zip":"28030","country":"Spain","geoPoint":{"lat":40.4165,"lon":-3.70256}},{"city":"Madrid","zip":"28032","country":"Spain","geoPoint":{"lat":40.4165,"lon":-3.70256}},{"city":"Murcia","zip":"300005","country":"Spain","geoPoint":{"lat":37.98704,"lon":-1.13004}},{"city":"Murcia","zip":"30007","country":"Spain","geoPoint":{"lat":37.98704,"lon":-1.13004}},{"city":"Murcia","zip":"30008","country":"Spain","geoPoint":{"lat":37.98704,"lon":-1.13004}},{"city":"Salamanca","zip":"27-31","country":"Spain","geoPoint":{"lat":40.96882,"lon":-5.66388}},{"city":"Santander","zip":"39009","country":"Spain","geoPoint":{"lat":43.46472,"lon":-3.80444}},{"city":"Valladolid","zip":"47007","country":"Spain","geoPoint":{"lat":41.65518,"lon":-4.72372}},{"city":"Ballymena","state":"Antrim","zip":"BT42 4JP","country":"United Kingdom","geoPoint":{"lat":54.86357,"lon":-6.27628}},{"city":"Ballymena","state":"Antrim","zip":"BT43 6JD","country":"United Kingdom","geoPoint":{"lat":54.86357,"lon":-6.27628}},{"city":"Crumlin","state":"Antrim","zip":"BT29 4LP","country":"United Kingdom","geoPoint":{"lat":51.67778,"lon":-3.13528}},{"city":"Newtonabbey","state":"Antrim","zip":"BT37 9QU","country":"United Kingdom"},{"city":"Craigavon","state":"Armagh","zip":"BT67 0LQ","country":"United Kingdom","geoPoint":{"lat":54.44709,"lon":-6.387}},{"city":"Bath","state":"Avon","zip":"BA2 3HT","country":"United Kingdom","geoPoint":{"lat":51.3751,"lon":-2.36172}},{"city":"Bath","state":"Avon","zip":"BA2 4BY","country":"United Kingdom","geoPoint":{"lat":51.3751,"lon":-2.36172}},{"city":"Radstock","state":"Avon","zip":"BA3 2UH","country":"United Kingdom","geoPoint":{"lat":51.28862,"lon":-2.46003}},{"city":"Irvine","state":"Ayrshire","zip":"KA12 0AY","country":"United Kingdom","geoPoint":{"lat":55.6194,"lon":-4.65508}},{"city":"Luton","state":"Bedfordshire","zip":"LU2 9SB","country":"United Kingdom","geoPoint":{"lat":51.87967,"lon":-0.41748}},{"city":"Slough","state":"Berkshire","zip":"SL1 1TT","country":"United Kingdom","geoPoint":{"lat":51.50949,"lon":-0.59541}},{"city":"Ely","state":"Cambridgeshire","zip":"CB7 4HF","country":"United Kingdom","geoPoint":{"lat":52.39964,"lon":0.26196}},{"city":"Ely","state":"Cambridgeshire","zip":"CB7 5SQ","country":"United Kingdom","geoPoint":{"lat":52.39964,"lon":0.26196}},{"city":"Peterborough","state":"Cambridgeshire","zip":"PE2 5GP","country":"United Kingdom","geoPoint":{"lat":52.57364,"lon":-0.24777}},{"city":"Peterborough","state":"Cambridgeshire","zip":"PE7 3JL","country":"United Kingdom","geoPoint":{"lat":52.57364,"lon":-0.24777}},{"city":"Sandbach","state":"Cheshire","zip":"CW11 1EQ","country":"United Kingdom","geoPoint":{"lat":53.14515,"lon":-2.36251}},{"city":"Boscastle","state":"Cornwall","zip":"PL35 0BG","country":"United Kingdom","geoPoint":{"lat":50.68409,"lon":-4.69301}},{"city":"Fowey","state":"Cornwall","zip":"PL23 1DT","country":"United Kingdom","geoPoint":{"lat":50.33634,"lon":-4.6386}},{"city":"Penzance","state":"Cornwall","zip":"TR18 4EL","country":"United Kingdom","geoPoint":{"lat":50.11861,"lon":-5.53715}},{"city":"Penzance","state":"Cornwall","zip":"TR18 4JH","country":"United Kingdom","geoPoint":{"lat":50.11861,"lon":-5.53715}},{"city":"Penzance","state":"Cornwall","zip":"TR19 7HX","country":"United Kingdom","geoPoint":{"lat":50.11861,"lon":-5.53715}},{"city":"Saltash","state":"Cornwall","zip":"PL12 6DL","country":"United Kingdom","geoPoint":{"lat":50.40959,"lon":-4.22514}},{"city":"St Austell","state":"Cornwall","zip":"PL26 7RL","country":"United Kingdom","geoPoint":{"lat":50.3425,"lon":-4.77442}},{"city":"Chesterfield","state":"Derbyshire","zip":"S40 4AA","country":"United Kingdom","geoPoint":{"lat":53.25,"lon":-1.41667}},{"city":"Dronfield","state":"Derbyshire","zip":"S18 8QY","country":"United Kingdom","geoPoint":{"lat":53.30221,"lon":-1.47507}},{"city":"Plymouth","state":"Devon","zip":"PL6 7TH","country":"United Kingdom","geoPoint":{"lat":50.37153,"lon":-4.14305}},{"city":"Carryduff","state":"Down","zip":"BT8 8HR","country":"United Kingdom","geoPoint":{"lat":54.51799,"lon":-5.88713}},{"city":"Annan","state":"Dumfries And Galloway","zip":"DG12 6BG","country":"United Kingdom","geoPoint":{"lat":54.98839,"lon":-3.25647}},{"city":"Bishop Auckland","state":"Durham","zip":"DL14 6AB","country":"United Kingdom","geoPoint":{"lat":54.65554,"lon":-1.67706}},{"city":"Darlington","state":"Durham","zip":"DL2 1AA","country":"United Kingdom","geoPoint":{"lat":54.52429,"lon":-1.55039}},{"city":"Darlington","state":"Durham","zip":"DL3 7JR","country":"United Kingdom","geoPoint":{"lat":54.52429,"lon":-1.55039}},{"city":"Darlington","state":"Durham","zip":"DL3 8SQ","country":"United Kingdom","geoPoint":{"lat":54.52429,"lon":-1.55039}},{"city":"Leigh-on-Sea","state":"Essex","zip":"SS9 2SQ","country":"United Kingdom","geoPoint":{"lat":51.54297,"lon":0.64905}},{"city":"Tiptree","state":"Essex","zip":"CO5 0HB","country":"United Kingdom","geoPoint":{"lat":51.8123,"lon":0.7454}},{"city":"High Valleyfield","state":"Fife","zip":"KY12 8SJ","country":"United Kingdom","geoPoint":{"lat":56.06357,"lon":-3.59913}},{"city":"Glasgow","state":"Glasgow City","zip":"G20 0XA","country":"United Kingdom","geoPoint":{"lat":55.86515,"lon":-4.25763}},{"city":"Bangor","state":"Gwynedd","zip":"BT19 1PP","country":"United Kingdom","geoPoint":{"lat":54.65338,"lon":-5.66895}},{"city":"Hitchin","state":"Hertfordshire","zip":"SG4 9TH","country":"United Kingdom","geoPoint":{"lat":51.94924,"lon":-0.28496}},{"city":"Letchworth","state":"Hertfordshire","zip":"SG6 4TS","country":"United Kingdom","geoPoint":{"lat":51.97938,"lon":-0.22664}},{"city":"Letchworth","state":"Hertfordshire","zip":"SG6 4UB","country":"United Kingdom","geoPoint":{"lat":51.97938,"lon":-0.22664}},{"city":"Canterbury","state":"Kent","zip":"CT1 3HX","country":"United Kingdom","geoPoint":{"lat":51.27904,"lon":1.07992}},{"city":"Chestfield","state":"Kent","zip":"CT5 3QU","country":"United Kingdom","geoPoint":{"lat":51.35735,"lon":1.06559}},{"city":"Whitstable","state":"Kent","zip":"CT5 3SE","country":"United Kingdom","geoPoint":{"lat":51.3607,"lon":1.0257}},{"city":"Carstairs","state":"Lanarkshire","zip":"ML11 8QD","country":"United Kingdom","geoPoint":{"lat":55.69561,"lon":-3.69115}},{"city":"Coatbridge","state":"Lanarkshire","zip":"ML5 3AP","country":"United Kingdom","geoPoint":{"lat":55.86216,"lon":-4.02469}},{"city":"Forth","state":"Lanarkshire","zip":"ML1 8AJ","country":"United Kingdom","geoPoint":{"lat":55.76502,"lon":-3.68874}},{"city":"Blackpool","state":"Lancashire","zip":"FY3 7EN","country":"United Kingdom","geoPoint":{"lat":53.81667,"lon":-3.05}},{"city":"Blackpool","state":"Lancashire","zip":"FY4 3AD","country":"United Kingdom","geoPoint":{"lat":53.81667,"lon":-3.05}},{"city":"Bolton","state":"Lancashire","zip":"BL3 6TL","country":"United Kingdom","geoPoint":{"lat":53.58333,"lon":-2.43333}},{"city":"Bolton","state":"Lancashire","zip":"BL5 3UB","country":"United Kingdom","geoPoint":{"lat":53.58333,"lon":-2.43333}},{"city":"Hinckley","state":"Leicestershire","zip":"LE10 2SE","country":"United Kingdom","geoPoint":{"lat":52.5389,"lon":-1.37613}},{"city":"Wells-Next-The-Sea","state":"Norfolk","zip":"NR23 1JP","country":"United Kingdom","geoPoint":{"lat":52.95164,"lon":0.8511}},{"city":"Wymondham","state":"Norfolk","zip":"NR18 0RF","country":"United Kingdom","geoPoint":{"lat":52.75978,"lon":-0.74055}},{"city":"Antrim","state":"North Ireland","zip":"BT36 4PP","country":"United Kingdom","geoPoint":{"lat":54.7,"lon":-6.2}},{"city":"Antrim","state":"North Ireland","zip":"BT37 9QN","country":"United Kingdom","geoPoint":{"lat":54.7,"lon":-6.2}},{"city":"Antrim","state":"North Ireland","zip":"BT41 3AE","country":"United Kingdom","geoPoint":{"lat":54.7,"lon":-6.2}},{"city":"Tyrone","state":"North Ireland","zip":"BT80 8BG","country":"United Kingdom"},{"city":"Wellingborough","state":"Northamptonshire","zip":"NN8 4RW","country":"United Kingdom","geoPoint":{"lat":52.30273,"lon":-0.69446}},{"city":"Chipping Norton","state":"Oxfordshire","zip":"OX75FA","country":"United Kingdom","geoPoint":{"lat":51.94109,"lon":-1.5453}},{"city":"Eccles","state":"Sheffield","zip":"S35 9XQ","country":"United Kingdom","geoPoint":{"lat":53.48333,"lon":-2.33333}},{"city":"Bath","state":"Somerset","zip":"BA1 2SR","country":"United Kingdom","geoPoint":{"lat":51.3751,"lon":-2.36172}},{"city":"Barry","state":"SOuth Glamorgan","zip":"CF63 4HP","country":"United Kingdom","geoPoint":{"lat":51.39979,"lon":-3.2838}},{"city":"Doncaster","state":"South Yorkshire","zip":"DN1 2ET","country":"United Kingdom","geoPoint":{"lat":53.52285,"lon":-1.13116}},{"city":"Sheffield","state":"South Yorkshire","zip":"S7 2DW","country":"United Kingdom","geoPoint":{"lat":53.38297,"lon":-1.4659}},{"city":"Chapelhall","state":"Stratchclyde","zip":"ML6 8SR","country":"United Kingdom","geoPoint":{"lat":55.84349,"lon":-3.94881}},{"city":"Glasgow","state":"Stratchclyde","zip":"G45 9AW","country":"United Kingdom","geoPoint":{"lat":55.86515,"lon":-4.25763}},{"city":"Hamilton","state":"Stratchclyde","zip":"ML3 ODR","country":"United Kingdom","geoPoint":{"lat":55.76667,"lon":-4.03333}},{"city":"Johnstone","state":"Stratchclyde","zip":"PA5 8EY","country":"United Kingdom","geoPoint":{"lat":55.82906,"lon":-4.51605}},{"city":"Motherwell","state":"Stratchclyde","zip":"ML1 3JX","country":"United Kingdom","geoPoint":{"lat":55.78924,"lon":-3.99187}},{"city":"Bury Saint Edmonds","state":"Suffolk","zip":"IP30 9QU","country":"United Kingdom"},{"city":"Bury St. Edmunds","state":"Suffolk","zip":"IP31 2HD","country":"United Kingdom","geoPoint":{"lat":52.2463,"lon":0.71111}},{"city":"Bury St. Edmunds","state":"Suffolk","zip":"IP32 7EW","country":"United Kingdom","geoPoint":{"lat":52.2463,"lon":0.71111}},{"city":"Hadleigh","state":"Suffolk","zip":"IP7 5DN","country":"United Kingdom","geoPoint":{"lat":51.55269,"lon":0.60983}},{"city":"Stowmarket","state":"Suffolk","zip":"IP14 1NL","country":"United Kingdom","geoPoint":{"lat":52.18893,"lon":0.99774}},{"city":"Addlestone","state":"Surrey","zip":"KT15 2BH","country":"United Kingdom","geoPoint":{"lat":51.37135,"lon":-0.49353}},{"city":"East Horsley","state":"Surrey","zip":"KT24 6QT","country":"United Kingdom","geoPoint":{"lat":51.27358,"lon":-0.43207}},{"city":"Worcester Park","state":"Surrey","zip":"KT4 7BX","country":"United Kingdom","geoPoint":{"lat":51.37992,"lon":-0.24445}},{"city":"Newcastle Upon Tyne","state":"Tyne And Wear","zip":"NE15 6TQ","country":"United Kingdom","geoPoint":{"lat":54.97328,"lon":-1.61396}},{"city":"Coventry","state":"Warwickshire","zip":"CV6 4DD","country":"United Kingdom","geoPoint":{"lat":52.40656,"lon":-1.51217}},{"city":"Coventry","state":"Warwickshire","zip":"CV7 8LA","country":"United Kingdom","geoPoint":{"lat":52.40656,"lon":-1.51217}},{"city":"Rugby","state":"Warwickshire","zip":"CV21 3SP","country":"United Kingdom","geoPoint":{"lat":52.37092,"lon":-1.26417}},{"city":"Coventry","state":"West Midlands","zip":"CV9 1EU","country":"United Kingdom","geoPoint":{"lat":52.40656,"lon":-1.51217}},{"city":"Brighton","state":"West Sussex","zip":"BN2 1ES","country":"United Kingdom","geoPoint":{"lat":50.82838,"lon":-0.13947}},{"city":"Crawley","state":"West Sussex","zip":"RH10 1LL","country":"United Kingdom","geoPoint":{"lat":51.11303,"lon":-0.18312}},{"city":"Crawley","state":"West Sussex","zip":"RH10 7DX","country":"United Kingdom","geoPoint":{"lat":51.11303,"lon":-0.18312}},{"city":"Leeds","state":"West Yorkshire","zip":"LS10 3NB","country":"United Kingdom","geoPoint":{"lat":53.79648,"lon":-1.54785}},{"city":"Leeds","state":"West Yorkshire","zip":"LS118BS","country":"United Kingdom","geoPoint":{"lat":53.79648,"lon":-1.54785}},{"city":"Leeds","state":"West Yorkshire","zip":"LS15 9JH","country":"United Kingdom","geoPoint":{"lat":53.79648,"lon":-1.54785}},{"city":"Leeds","state":"West Yorkshire","zip":"LS25 1AN","country":"United Kingdom","geoPoint":{"lat":53.79648,"lon":-1.54785}},{"city":"Leeds","state":"West Yorkshire","zip":"LS25 1HB","country":"United Kingdom","geoPoint":{"lat":53.79648,"lon":-1.54785}},{"city":"Leeds","state":"West Yorkshire","zip":"LS25 7AB","country":"United Kingdom","geoPoint":{"lat":53.79648,"lon":-1.54785}},{"city":"Leeds","state":"West Yorkshire","zip":"LS26 8SZ","country":"United Kingdom","geoPoint":{"lat":53.79648,"lon":-1.54785}},{"city":"Leeds","state":"West Yorkshire","zip":"LS9 9EF","country":"United Kingdom","geoPoint":{"lat":53.79648,"lon":-1.54785}},{"city":"Bradford-on-Avon","state":"Wiltshire","zip":"BA15 1DQ","country":"United Kingdom","geoPoint":{"lat":51.34772,"lon":-2.25065}},{"city":"Chippenham","state":"Wiltshire","zip":"SN14 6GT","country":"United Kingdom","geoPoint":{"lat":51.46,"lon":-2.12472}},{"city":"Chippenham","state":"Wiltshire","zip":"SN15 2SB","country":"United Kingdom","geoPoint":{"lat":51.46,"lon":-2.12472}},{"city":"Corsham","state":"Wiltshire","zip":"SN3 9DL","country":"United Kingdom","geoPoint":{"lat":51.43433,"lon":-2.18437}},{"city":"Trowbridge","state":"Wiltshire","zip":"BA14 9AR","country":"United Kingdom","geoPoint":{"lat":51.31889,"lon":-2.20861}},{"city":"Westbury","state":"Wiltshire","zip":"BA13 3FQ","country":"United Kingdom","geoPoint":{"lat":51.26,"lon":-2.1875}},{"city":"Aberdeen","zip":"AB25 2ZD","country":"United Kingdom","geoPoint":{"lat":57.14369,"lon":-2.09814}},{"city":"Airedire","zip":"ML66DB","country":"United Kingdom"},{"city":"Antrim","zip":"BT38 9TG","country":"United Kingdom","geoPoint":{"lat":54.7,"lon":-6.2}},{"city":"Bath","zip":"BA11 2FH","country":"United Kingdom","geoPoint":{"lat":51.3751,"lon":-2.36172}},{"city":"Bath","zip":"BA2 4JT","country":"United Kingdom","geoPoint":{"lat":51.3751,"lon":-2.36172}},{"city":"Belfast","zip":"BT1 2JR","country":"United Kingdom","geoPoint":{"lat":54.59682,"lon":-5.92541}},{"city":"Belfast","zip":"BT12 5EY","country":"United Kingdom","geoPoint":{"lat":54.59682,"lon":-5.92541}},{"city":"Belfast","zip":"BT12 5LT","country":"United Kingdom","geoPoint":{"lat":54.59682,"lon":-5.92541}},{"city":"Belfast","zip":"BT13 3BW","country":"United Kingdom","geoPoint":{"lat":54.59682,"lon":-5.92541}},{"city":"Belfast","zip":"BT15 2GE","country":"United Kingdom","geoPoint":{"lat":54.59682,"lon":-5.92541}},{"city":"Belfast","zip":"BT5 7BP","country":"United Kingdom","geoPoint":{"lat":54.59682,"lon":-5.92541}},{"city":"Belfast","zip":"BT8 6GR","country":"United Kingdom","geoPoint":{"lat":54.59682,"lon":-5.92541}},{"city":"Belfast","country":"United Kingdom","geoPoint":{"lat":54.59682,"lon":-5.92541}},{"city":"Bellshill","zip":"ML4 1PS","country":"United Kingdom","geoPoint":{"lat":55.81667,"lon":-4.01667}},{"city":"Blantyre","zip":"G72 0BS","country":"United Kingdom","geoPoint":{"lat":55.79634,"lon":-4.09485}},{"city":"Cardiff","zip":"CF5 4AD","country":"United Kingdom","geoPoint":{"lat":51.48,"lon":-3.18}},{"city":"Coatrbridge","zip":"ML5 3BJ","country":"United Kingdom"},{"city":"Crossgar","zip":"BT30 9JU","country":"United Kingdom","geoPoint":{"lat":54.39675,"lon":-5.76061}},{"city":"Doncaster","zip":"DN1 2EU","country":"United Kingdom","geoPoint":{"lat":53.52285,"lon":-1.13116}},{"city":"Dundee","zip":"DD19SY","country":"United Kingdom","geoPoint":{"lat":56.46913,"lon":-2.97489}},{"city":"Glasgow","zip":"G21 1TR","country":"United Kingdom","geoPoint":{"lat":55.86515,"lon":-4.25763}},{"city":"Glasgow","zip":"G5 0BQ","country":"United Kingdom","geoPoint":{"lat":55.86515,"lon":-4.25763}},{"city":"Glasgow","zip":"G52 3QN","country":"United Kingdom","geoPoint":{"lat":55.86515,"lon":-4.25763}},{"city":"Glasgow","zip":"G67 1BJ","country":"United Kingdom","geoPoint":{"lat":55.86515,"lon":-4.25763}},{"city":"Hamilton","zip":"ML3 7EN","country":"United Kingdom","geoPoint":{"lat":55.76667,"lon":-4.03333}},{"city":"Hamilton","zip":"ML3 8AA","country":"United Kingdom","geoPoint":{"lat":55.76667,"lon":-4.03333}},{"city":"Inverness","zip":"IV2 4AG","country":"United Kingdom","geoPoint":{"lat":57.47908,"lon":-4.22398}},{"city":"Ipswich","zip":"IP4 2PU","country":"United Kingdom","geoPoint":{"lat":52.05917,"lon":1.15545}},{"city":"Lockerbie","zip":"D11 2BJ","country":"United Kingdom","geoPoint":{"lat":55.12302,"lon":-3.35635}},{"city":"London","zip":"SW12 8EU","country":"United Kingdom","geoPoint":{"lat":51.50853,"lon":-0.12574}},{"city":"Manchester","zip":"M13 9WL","country":"United Kingdom","geoPoint":{"lat":53.48095,"lon":-2.23743}},{"city":"New Stevenson","zip":"ML1 4LT","country":"United Kingdom"},{"city":"Paisley","country":"United Kingdom","geoPoint":{"lat":55.83173,"lon":-4.43254}},{"city":"Peterborough","zip":"PE8 6PL","country":"United Kingdom","geoPoint":{"lat":52.57364,"lon":-0.24777}},{"city":"Thornhill","zip":"DG3 5AA","country":"United Kingdom","geoPoint":{"lat":55.23333,"lon":-3.76667}},{"city":"Watford","zip":"WD25 7NL","country":"United Kingdom","geoPoint":{"lat":51.65531,"lon":-0.39602}},{"city":"Wishaw","zip":"ML2 7BQ","country":"United Kingdom","geoPoint":{"lat":55.76667,"lon":-3.91667}},{"city":"Witley Bay","zip":"NE26 1NA","country":"United Kingdom"}]},"referencesModule":{"references":[{"pmid":"30158069","type":"RESULT","citation":"Gaziano JM, Brotons C, Coppolecchia R, Cricelli C, Darius H, Gorelick PB, Howard G, Pearson TA, Rothwell PM, Ruilope LM, Tendera M, Tognoni G; ARRIVE Executive Committee. Use of aspirin to reduce risk of initial vascular events in patients at moderate risk of cardiovascular disease (ARRIVE): a randomised, double-blind, placebo-controlled trial. Lancet. 2018 Sep 22;392(10152):1036-1046. doi: 10.1016/S0140-6736(18)31924-X. Epub 2018 Aug 26."}],"seeAlsoLinks":[{"label":"Click here to find information about studies related to Bayer Healthcare products conducted in Europe","url":"http://www.clinicaltrialsregister.eu/"}]}},"resultsSection":{"participantFlowModule":{"recruitmentDetails":"Overall, 15823 subjects were screened. Of these, 3277 subjects were screening failures. The remaining 12546 subjects were randomized to treatment.","groups":[{"id":"FG000","title":"Acetylsalicylic Acid (Aspirin, BAYE4465)","description":"Subjects received 1 tablet of enteric-coated acetylsalicylic acid \\[100 milligram (mg)\\] orally once daily."},{"id":"FG001","title":"Placebo","description":"Subjects received 1 tablets of matching placebo orally once daily."}],"periods":[{"title":"Overall Study","milestones":[{"type":"STARTED","achievements":[{"groupId":"FG000","numSubjects":"6270"},{"groupId":"FG001","numSubjects":"6276"}]},{"type":"COMPLETED","achievements":[{"groupId":"FG000","numSubjects":"4402"},{"groupId":"FG001","numSubjects":"4384"}]},{"type":"NOT COMPLETED","achievements":[{"groupId":"FG000","numSubjects":"1868"},{"groupId":"FG001","numSubjects":"1892"}]}],"dropWithdraws":[{"type":"Protocol Violation","reasons":[{"groupId":"FG000","numSubjects":"80"},{"groupId":"FG001","numSubjects":"69"}]},{"type":"Death","reasons":[{"groupId":"FG000","numSubjects":"140"},{"groupId":"FG001","numSubjects":"137"}]},{"type":"Other","reasons":[{"groupId":"FG000","numSubjects":"236"},{"groupId":"FG001","numSubjects":"239"}]},{"type":"Missing end-of-study page","reasons":[{"groupId":"FG000","numSubjects":"91"},{"groupId":"FG001","numSubjects":"92"}]},{"type":"Clinical endpoint reached","reasons":[{"groupId":"FG000","numSubjects":"110"},{"groupId":"FG001","numSubjects":"123"}]},{"type":"Insufficient therapeutic effect","reasons":[{"groupId":"FG000","numSubjects":"4"},{"groupId":"FG001","numSubjects":"5"}]},{"type":"Consent withdrawn by subject","reasons":[{"groupId":"FG000","numSubjects":"817"},{"groupId":"FG001","numSubjects":"873"}]},{"type":"Non-compliant with study treatment","reasons":[{"groupId":"FG000","numSubjects":"23"},{"groupId":"FG001","numSubjects":"16"}]},{"type":"Reason not given","reasons":[{"groupId":"FG000","numSubjects":"3"},{"groupId":"FG001","numSubjects":"1"}]},{"type":"Adverse Event","reasons":[{"groupId":"FG000","numSubjects":"129"},{"groupId":"FG001","numSubjects":"122"}]},{"type":"Lost to Follow-up","reasons":[{"groupId":"FG000","numSubjects":"210"},{"groupId":"FG001","numSubjects":"198"}]},{"type":"Not treated","reasons":[{"groupId":"FG000","numSubjects":"25"},{"groupId":"FG001","numSubjects":"17"}]}]}]},"baselineCharacteristicsModule":{"groups":[{"id":"BG000","title":"Acetylsalicylic Acid (Aspirin, BAYE4465)","description":"Subjects received 1 tablet of enteric-coated acetylsalicylic acid \\[100 milligram (mg)\\] orally once daily."},{"id":"BG001","title":"Placebo","description":"Subjects received 1 tablets of matching placebo orally once daily."},{"id":"BG002","title":"Total","description":"Total of all reporting groups"}],"denoms":[{"units":"Participants","counts":[{"groupId":"BG000","value":"6270"},{"groupId":"BG001","value":"6276"},{"groupId":"BG002","value":"12546"}]}],"measures":[{"title":"Age, Continuous","paramType":"MEAN","dispersionType":"STANDARD_DEVIATION","unitOfMeasure":"Years","classes":[{"categories":[{"measurements":[{"groupId":"BG000","value":"63.9","spread":"7.10"},{"groupId":"BG001","value":"63.9","spread":"7.05"},{"groupId":"BG002","value":"63.9","spread":"7.08"}]}]}]},{"title":"Sex: Female, Male","paramType":"COUNT_OF_PARTICIPANTS","unitOfMeasure":"Participants","classes":[{"categories":[{"title":"Female","measurements":[{"groupId":"BG000","value":"1851"},{"groupId":"BG001","value":"1857"},{"groupId":"BG002","value":"3708"}]},{"title":"Male","measurements":[{"groupId":"BG000","value":"4419"},{"groupId":"BG001","value":"4419"},{"groupId":"BG002","value":"8838"}]}]}]}]},"outcomeMeasuresModule":{"outcomeMeasures":[{"type":"PRIMARY","title":"Time to the First Occurrence of the Composite Outcome of MI (Myocardial Infarction), Stroke, Cardiovascular Death, UA (Unstable Angina) or TIA (Transient Ischemic Attack)","description":"The primary efficacy endpoint was a composite outcome consisting of the first occurrence of confirmed MI, stroke, cardiovascular death, UA, TIA. The time to event was defined as the number of days from the date of randomization to the date of the event confirmed by adjudication. The numbers of days for milestones when 1%, 2%, 3% and 4% of the subjects have reached endpoint events were estimated from Kaplan-Meier-Analyses.","populationDescription":"Intention-to-treat. The intent-to-treat (ITT) group (N=12546) consists of all patients who were randomized to the assigned study drug.","reportingStatus":"POSTED","paramType":"COUNT_OF_UNITS","unitOfMeasure":"Days","timeFrame":"Until follow-up (approximate 6 years)","typeUnitsAnalyzed":"Days","denomUnitsSelected":"Days","groups":[{"id":"OG000","title":"Acetylsalicylic Acid (Aspirin, BAYE4465)","description":"Subjects received 1 tablet of enteric-coated acetylsalicylic acid \\[100 milligram (mg)\\] orally once daily."},{"id":"OG001","title":"Placebo","description":"Subjects received 1 tablets of matching placebo orally once daily."}],"denoms":[{"units":"Participants","counts":[{"groupId":"OG000","value":"6270"},{"groupId":"OG001","value":"6276"}]},{"units":"Days","counts":[{"groupId":"OG000","value":"1630"},{"groupId":"OG001","value":"1630"}]}],"classes":[{"title":"Days until 1% subjects had an efficacy event","categories":[{"measurements":[{"groupId":"OG000","value":"528"},{"groupId":"OG001","value":"381"}]}]},{"title":"Days until 2% subjects had an efficacy event","categories":[{"measurements":[{"groupId":"OG000","value":"889"},{"groupId":"OG001","value":"796"}]}]},{"title":"Days until 3% subjects had an efficacy event","categories":[{"measurements":[{"groupId":"OG000","value":"1225"},{"groupId":"OG001","value":"1134"}]}]},{"title":"Days until 4% subjects had an efficacy event","categories":[{"measurements":[{"groupId":"OG000","value":"1630"},{"groupId":"OG001","value":"1582"}]}]}],"analyses":[{"groupIds":["OG000","OG001"],"groupDescription":"Primary efficacy analysis of time to the composite endpoint was conducted via a 2-sided log-rank test stratified for treatment, country, and sex. Results would be considered statistically significant and the primary objective of the study will have been met if the 2-sided P value is ≤0.05.","nonInferiorityType":"SUPERIORITY_OR_OTHER","pValue":"0.597","statisticalMethod":"Log Rank"}]},{"type":"SECONDARY","title":"Time to the First Occurrence of the Composite Outcome of Cardiovascular Death, MI, or Stroke (Ischemic, Hemorrhagic, or Unknown)","description":"The time to Composite outcome consisting of the first occurrence of cardiovascular death, MI, or stroke (ischemic, hemorrhagic, or unknown) was defined as the number of days from the date of randomization to the date of the event confirmed by adjudication. The numbers of days for milestones when 1%, 2%, 3% and 4% of the subjects have reached endpoint events were estimated from Kaplan-Meier-Analyses.","populationDescription":"ITT","reportingStatus":"POSTED","paramType":"COUNT_OF_UNITS","unitOfMeasure":"Days","timeFrame":"Until follow-up (approximate 6 years)","typeUnitsAnalyzed":"Days","denomUnitsSelected":"Days","groups":[{"id":"OG000","title":"Acetylsalicylic Acid (Aspirin, BAYE4465)","description":"Subjects received 1 tablet of enteric-coated acetylsalicylic acid \\[100 milligram (mg)\\] orally once daily."},{"id":"OG001","title":"Placebo","description":"Subjects received 1 tablets of matching placebo orally once daily."}],"denoms":[{"units":"Participants","counts":[{"groupId":"OG000","value":"6270"},{"groupId":"OG001","value":"6276"}]},{"units":"Days","counts":[{"groupId":"OG000","value":"1949"},{"groupId":"OG001","value":"1949"}]}],"classes":[{"title":"Days until 1% subjects had an efficacy event","categories":[{"measurements":[{"groupId":"OG000","value":"678"},{"groupId":"OG001","value":"522"}]}]},{"title":"Days until 2% subjects had an efficacy event","categories":[{"measurements":[{"groupId":"OG000","value":"1167"},{"groupId":"OG001","value":"1053"}]}]},{"title":"Days until 3% subjects had an efficacy event","categories":[{"measurements":[{"groupId":"OG000","value":"1599"},{"groupId":"OG001","value":"1501"}]}]},{"title":"Days until 4% subjects had an efficacy event","categories":[{"measurements":[{"groupId":"OG000","value":"1949"},{"groupId":"OG001","value":"1930"}]}]}],"analyses":[{"groupIds":["OG000","OG001"],"groupDescription":"Statistics for time to the composite endpoint was conducted via a 2-sided log-rank test stratified for treatment, country, and sex. Results would be considered statistically significant if the 2-sided P value is ≤0.05.","nonInferiorityType":"SUPERIORITY_OR_OTHER","pValue":"0.6125","statisticalMethod":"Log Rank"}]},{"type":"SECONDARY","title":"Time to the First Occurrence of the Individual Components of the Primary: Non-fatal MI, Total MI, Non-fatal Stroke, Total Stroke, Cardiovascular Death, UA and TIA","description":"The time to event was defined as the number of days from the date of randomization to the date of the event confirmed by adjudication. The numbers of days for milestones when 1%, 2%, 3% and 4% of the subjects have reached endpoint events were estimated from Kaplan-Meier-Analyses.","populationDescription":"ITT","reportingStatus":"POSTED","paramType":"COUNT_OF_UNITS","unitOfMeasure":"Days","timeFrame":"Until follow-up (approximately 6 years)","typeUnitsAnalyzed":"Days","denomUnitsSelected":"Days","groups":[{"id":"OG000","title":"Acetylsalicylic Acid (Aspirin, BAYE4465)","description":"Subjects received 1 tablet of enteric-coated acetylsalicylic acid \\[100 milligram (mg)\\] orally once daily."},{"id":"OG001","title":"Placebo","description":"Subjects received 1 tablets of matching placebo orally once daily."}],"denoms":[{"units":"Participants","counts":[{"groupId":"OG000","value":"6270"},{"groupId":"OG001","value":"6276"}]},{"units":"Days","counts":[{"groupId":"OG000","value":"2128"},{"groupId":"OG001","value":"2128"}]}],"classes":[{"title":"Days until 1% subjects had non-fatal MI","categories":[{"measurements":[{"groupId":"OG000","value":"1309"},{"groupId":"OG001","value":"1085"}]}]},{"title":"Days until 2% subjects had non-fatal MI","categories":[{"measurements":[{"groupId":"OG000","value":"NA","comment":"Not applicable (NA) indicates that these milestones did not occur before completion of the study."},{"groupId":"OG001","value":"2121"}]}]},{"title":"Days until 1% subjects had total MI","categories":[{"measurements":[{"groupId":"OG000","value":"1216"},{"groupId":"OG001","value":"1014"}]}]},{"title":"Days until 2% subjects had total MI","categories":[{"measurements":[{"groupId":"OG000","value":"2128"},{"groupId":"OG001","value":"1906"}]}]},{"title":"Days until 1% subjects had non-fatal stroke","categories":[{"measurements":[{"groupId":"OG000","value":"1576"},{"groupId":"OG001","value":"1650"}]}]},{"title":"Days until 2% subjects had non-fatal stroke","categories":[{"measurements":[{"groupId":"OG000","value":"NA","comment":"Not applicable (NA) indicates that these milestones did not occur before completion of the study."},{"groupId":"OG001","value":"NA","comment":"Not applicable (NA) indicates that these milestones did not occur before completion of the study."}]}]},{"title":"Days until 1% subjects had total stroke","categories":[{"measurements":[{"groupId":"OG000","value":"1543"},{"groupId":"OG001","value":"1627"}]}]},{"title":"Days until 2% subjects had total stroke","categories":[{"measurements":[{"groupId":"OG000","value":"NA","comment":"Not applicable (NA) indicates that these milestones did not occur before completion of the study."},{"groupId":"OG001","value":"NA","comment":"Not applicable (NA) indicates that these milestones did not occur before completion of the study."}]}]},{"title":"Days until 1% subjects had cardiovascular death","categories":[{"measurements":[{"groupId":"OG000","value":"NA","comment":"Not applicable (NA) indicates that these milestones did not occur before completion of the study."},{"groupId":"OG001","value":"NA","comment":"Not applicable (NA) indicates that these milestones did not occur before completion of the study."}]}]},{"title":"Days until 2% subjects had cardiovascular death","categories":[{"measurements":[{"groupId":"OG000","value":"NA","comment":"Not applicable (NA) indicates that these milestones did not occur before completion of the study."},{"groupId":"OG001","value":"NA","comment":"Not applicable (NA) indicates that these milestones did not occur before completion of the study."}]}]},{"title":"Days until 1% subjects had UA","categories":[{"measurements":[{"groupId":"OG000","value":"NA","comment":"Not applicable (NA) indicates that these milestones did not occur before completion of the study."},{"groupId":"OG001","value":"NA","comment":"Not applicable (NA) indicates that these milestones did not occur before completion of the study."}]}]},{"title":"Days until 2% subjects had UA","categories":[{"measurements":[{"groupId":"OG000","value":"NA","comment":"Not applicable (NA) indicates that these milestones did not occur before completion of the study."},{"groupId":"OG001","value":"NA","comment":"Not applicable (NA) indicates that these milestones did not occur before completion of the study."}]}]},{"title":"Days until 1% subjects had TIA","categories":[{"measurements":[{"groupId":"OG000","value":"NA","comment":"Not applicable (NA) indicates that these milestones did not occur before completion of the study."},{"groupId":"OG001","value":"NA","comment":"Not applicable (NA) indicates that these milestones did not occur before completion of the study."}]}]},{"title":"Days until 2% subjects had TIA","categories":[{"measurements":[{"groupId":"OG000","value":"NA","comment":"Not applicable (NA) indicates that these milestones did not occur before completion of the study."},{"groupId":"OG001","value":"NA","comment":"Not applicable (NA) indicates that these milestones did not occur before completion of the study.."}]}]}],"analyses":[{"groupIds":["OG000","OG001"],"groupDescription":"Statistics for time to non-fatal MI was conducted via a 2-sided log-rank test stratified for treatment, country, and sex. Results would be considered statistically significant if the 2-sided P value is ≤0.05.","nonInferiorityType":"SUPERIORITY_OR_OTHER","pValue":"0.4505","statisticalMethod":"Log Rank"},{"groupIds":["OG000","OG001"],"groupDescription":"Statistics for time to total MI was conducted via a 2-sided log-rank test stratified for treatment, country, and sex. Results would be considered statistically significant if the 2-sided P value is ≤0.05.","nonInferiorityType":"SUPERIORITY_OR_OTHER","pValue":"0.229","statisticalMethod":"Log Rank"},{"groupIds":["OG000","OG001"],"groupDescription":"Statistics for time to total non-fatal stroke was conducted via a 2-sided log-rank test stratified for treatment, country, and sex. Results would be considered statistically significant if the 2-sided P value is ≤0.05.","nonInferiorityType":"SUPERIORITY_OR_OTHER","pValue":"0.3947","statisticalMethod":"Log Rank"},{"groupIds":["OG000","OG001"],"groupDescription":"Statistics for time to total stroke was conducted via a 2-sided log-rank test stratified for treatment, country, and sex. Results would be considered statistically significant if the 2-sided P value is ≤0.05.","nonInferiorityType":"SUPERIORITY_OR_OTHER","pValue":"0.5125","statisticalMethod":"Log Rank"}]},{"type":"SECONDARY","title":"Time to All-cause Mortality, the First Occurrence of All Cancers Excluding Non-melanoma Skin Cancer (NMSC) and the First Occurrence of Colon Cancer","description":"The time to event was defined as the number of days from the date of randomization to the date of the event confirmed by adjudication. The numbers of days for milestones when 1%, 2%, 3% and 4% of the subjects have reached endpoint events were estimated from Kaplan-Meier-Analyses.","populationDescription":"ITT","reportingStatus":"POSTED","paramType":"COUNT_OF_UNITS","unitOfMeasure":"Days","timeFrame":"Until follow-up (approximately 6 years)","typeUnitsAnalyzed":"Days","denomUnitsSelected":"Days","groups":[{"id":"OG000","title":"Acetylsalicylic Acid (Aspirin, BAYE4465)","description":"Subjects received 1 tablet of enteric-coated acetylsalicylic acid \\[100 milligram (mg)\\] orally once daily."},{"id":"OG001","title":"Placebo","description":"Subjects received 1 tablets of matching placebo orally once daily."}],"denoms":[{"units":"Participants","counts":[{"groupId":"OG000","value":"6270"},{"groupId":"OG001","value":"6276"}]},{"units":"Days","counts":[{"groupId":"OG000","value":"1970"},{"groupId":"OG001","value":"1970"}]}],"classes":[{"title":"Days until 1% subjects had all-cause mortality","categories":[{"measurements":[{"groupId":"OG000","value":"838"},{"groupId":"OG001","value":"938"}]}]},{"title":"Days until 2% subjects had all-cause mortality","categories":[{"measurements":[{"groupId":"OG000","value":"1493"},{"groupId":"OG001","value":"1460"}]}]},{"title":"Days until 3% subjects had all-cause mortality","categories":[{"measurements":[{"groupId":"OG000","value":"1970"},{"groupId":"OG001","value":"1963"}]}]},{"title":"Days until 4% subjects had all-cause mortality","categories":[{"measurements":[{"groupId":"OG000","value":"NA","comment":"Not applicable (NA) indicates that these milestones did not occur before completion of the study."},{"groupId":"OG001","value":"NA","comment":"Not applicable (NA) indicates that these milestones did not occur before completion of the study."}]}]},{"title":"Days until 1% subjects had all cancer excl. NMSC","categories":[{"measurements":[{"groupId":"OG000","value":"374"},{"groupId":"OG001","value":"420"}]}]},{"title":"Days until 2% subjects had all cancer excl. NMSC","categories":[{"measurements":[{"groupId":"OG000","value":"849"},{"groupId":"OG001","value":"805"}]}]},{"title":"Days until 3% subjects had all cancer excl. NMSC","categories":[{"measurements":[{"groupId":"OG000","value":"1164"},{"groupId":"OG001","value":"1276"}]}]},{"title":"Days until 4% subjects had all cancer excl. NMSC","categories":[{"measurements":[{"groupId":"OG000","value":"1542"},{"groupId":"OG001","value":"1751"}]}]},{"title":"Days until 1% subjects had colon cancer","categories":[{"measurements":[{"groupId":"OG000","value":"NA","comment":"Not applicable (NA) indicates that these milestones did not occur before completion of the study."},{"groupId":"OG001","value":"NA","comment":"Not applicable (NA) indicates that these milestones did not occur before completion of the study."}]}]},{"title":"Days until 2% subjects had colon cancer","categories":[{"measurements":[{"groupId":"OG000","value":"NA","comment":"Not applicable (NA) indicates that these milestones did not occur before completion of the study."},{"groupId":"OG001","value":"NA","comment":"Not applicable (NA) indicates that these milestones did not occur before completion of the study.."}]}]},{"title":"Days until 3% subjects had colon cancer","categories":[{"measurements":[{"groupId":"OG000","value":"NA","comment":"Not applicable (NA) indicates that these milestones did not occur before completion of the study."},{"groupId":"OG001","value":"NA","comment":"Not applicable (NA) indicates that these milestones did not occur before completion of the study."}]}]},{"title":"Days until 4% subjects had colon cancer","categories":[{"measurements":[{"groupId":"OG000","value":"NA","comment":"Not applicable (NA) indicates that these milestones did not occur before completion of the study."},{"groupId":"OG001","value":"NA","comment":"Not applicable (NA) indicates that these milestones did not occur before completion of the study.."}]}]}],"analyses":[{"groupIds":["OG000","OG001"],"groupDescription":"Analysis of time to all-cause mortality was conducted via a 2-sided log-rank test stratified for treatment, country, and sex. Results would be considered statistically significant if the 2-sided P value is ≤0.05.","nonInferiorityType":"SUPERIORITY_OR_OTHER","pValue":"0.9544","statisticalMethod":"Log Rank"},{"groupIds":["OG000","OG001"],"groupDescription":"Analysis of time to the first occurrence of all cancers excluding non-melanoma skin cancer was conducted via a 2-sided log-rank test stratified for treatment, country, and sex. Results would be considered statistically significant if the 2-sided P value is ≤0.05.","nonInferiorityType":"SUPERIORITY_OR_OTHER","pValue":"0.4422","statisticalMethod":"Log Rank"},{"groupIds":["OG000","OG001"],"groupDescription":"Analysis of time to the first occurence colon cancer was conducted via a 2-sided log-rank test stratified for treatment, country, and sex. Results would be considered statistically significant if the 2-sided P value is ≤0.05.","nonInferiorityType":"SUPERIORITY_OR_OTHER","pValue":"0.611","statisticalMethod":"Log Rank"}]},{"type":"SECONDARY","title":"Incidence of All-cause Mortality, All Cancers Excluding Non-melanoma Skin Cancer and Colon Cancer","populationDescription":"ITT","reportingStatus":"POSTED","paramType":"NUMBER","unitOfMeasure":"Percentage of participants","timeFrame":"Until follow-up (approximately 6 years)","groups":[{"id":"OG000","title":"Acetylsalicylic Acid (Aspirin, BAYE4465)","description":"Subjects received 1 tablet of enteric-coated acetylsalicylic acid \\[100 milligram (mg)\\] orally once daily."},{"id":"OG001","title":"Placebo","description":"Subjects received 1 tablets of matching placebo orally once daily."}],"denoms":[{"units":"Participants","counts":[{"groupId":"OG000","value":"6270"},{"groupId":"OG001","value":"6276"}]}],"classes":[{"title":"all-cause mortality","categories":[{"measurements":[{"groupId":"OG000","value":"2.55"},{"groupId":"OG001","value":"2.57"}]}]},{"title":"all cancers excluding non-melanoma skin cancer","categories":[{"measurements":[{"groupId":"OG000","value":"4.02"},{"groupId":"OG001","value":"3.76"}]}]},{"title":"colon cancer","categories":[{"measurements":[{"groupId":"OG000","value":"0.48"},{"groupId":"OG001","value":"0.41"}]}]}],"analyses":[{"groupIds":["OG000","OG001"],"groupDescription":"Analysis of incidence of all-cause mortality was conducted via a 2-sided log-rank test. Results would be considered statistically significant if the 2-sided P value is ≤0.05.","nonInferiorityType":"OTHER","pValue":"0.9459","statisticalMethod":"Log Rank","paramType":"Cox Proportional Hazard","paramValue":"0.99","ciPctValue":"95","ciNumSides":"TWO_SIDED","ciLowerLimit":"0.80","ciUpperLimit":"1.24"}]},{"type":"SECONDARY","title":"Incidence of Confirmed MI, Stroke, Cardiovascular Death, UA, and TIA Separately","description":"The percentages of subjects with the efficacy endpoints of confirmed MI, stroke, cardiovascular death, UA and TIA are reported separately. \\*all other CV death without fatal MI and fatal stroke","populationDescription":"ITT","reportingStatus":"POSTED","paramType":"NUMBER","unitOfMeasure":"Percentage of participants","timeFrame":"Until follow-up (approximately 6 years)","groups":[{"id":"OG000","title":"Acetylsalicylic Acid (Aspirin, BAYE4465)","description":"Subjects received 1 tablet of enteric-coated acetylsalicylic acid \\[100 milligram (mg)\\] orally once daily."},{"id":"OG001","title":"Placebo","description":"Subjects received 1 tablets of matching placebo orally once daily."}],"denoms":[{"units":"Participants","counts":[{"groupId":"OG000","value":"6270"},{"groupId":"OG001","value":"6276"}]}],"classes":[{"title":"MI","categories":[{"measurements":[{"groupId":"OG000","value":"1.52"},{"groupId":"OG001","value":"1.78"}]}]},{"title":"stroke","categories":[{"measurements":[{"groupId":"OG000","value":"1.20"},{"groupId":"OG001","value":"1.07"}]}]},{"title":"CV death*","categories":[{"measurements":[{"groupId":"OG000","value":"0.61"},{"groupId":"OG001","value":"0.62"}]}]},{"title":"UA","categories":[{"measurements":[{"groupId":"OG000","value":"0.32"},{"groupId":"OG001","value":"0.32"}]}]},{"title":"TIA","categories":[{"measurements":[{"groupId":"OG000","value":"0.67"},{"groupId":"OG001","value":"0.72"}]}]}],"analyses":[{"groupIds":["OG000","OG001"],"groupDescription":"Analysis of incidence of MI was conducted via a 2-sided log-rank test. Results would be considered statistically significant if the 2-sided P value is ≤0.05.","nonInferiorityType":"OTHER","pValue":"0.2325","statisticalMethod":"Log Rank","paramType":"Cox Proportional Hazard","paramValue":"0.85","ciPctValue":"95","ciNumSides":"TWO_SIDED","ciLowerLimit":"0.64","ciUpperLimit":"1.11"},{"groupIds":["OG000","OG001"],"groupDescription":"Analysis of incidence of stroke was conducted via a 2-sided log-rank test. Results would be considered statistically significant if the 2-sided P value is ≤0.05.","nonInferiorityType":"OTHER","pValue":"0.5072","statisticalMethod":"Log Rank","paramType":"Cox Proportional Hazard","paramValue":"1.12","ciPctValue":"95","ciLowerLimit":"0.80","ciUpperLimit":"1.55"},{"groupIds":["OG000","OG001"],"groupDescription":"Analysis of incidence of cardiovascular death was conducted via a 2-sided log-rank test. Results would be considered statistically significant if the 2-sided P value is ≤0.05.","nonInferiorityType":"OTHER","pValue":"0.9010","statisticalMethod":"Log Rank","paramType":"Cox Proportional Hazard","paramValue":"0.97","ciPctValue":"95","ciLowerLimit":"0.62","ciUpperLimit":"1.52"},{"groupIds":["OG000","OG001"],"groupDescription":"Analysis of incidence of UA was conducted via a 2-sided log-rank test. Results would be considered statistically significant if the 2-sided P value is ≤0.05.","nonInferiorityType":"OTHER","pValue":"0.9979","statisticalMethod":"Log Rank","paramType":"Cox Proportional Hazard","paramValue":"1.00","ciPctValue":"95","ciNumSides":"TWO_SIDED","ciLowerLimit":"0.54","ciUpperLimit":"1.86"},{"groupIds":["OG000","OG001"],"groupDescription":"Analysis of incidence of TIA was conducted via a 2-sided log-rank test. Results would be considered statistically significant if the 2-sided P value is ≤0.05.","nonInferiorityType":"OTHER","pValue":"0.7455","statisticalMethod":"Log Rank","paramType":"Cox Proportional Hazard","paramValue":"0.93","ciPctValue":"95","ciNumSides":"TWO_SIDED","ciLowerLimit":"0.61","ciUpperLimit":"1.42"}]},{"type":"OTHER_PRE_SPECIFIED","title":"Number of Subjects With Adjudicated GI Bleeding by Severity","populationDescription":"ITT","reportingStatus":"POSTED","paramType":"COUNT_OF_PARTICIPANTS","unitOfMeasure":"Participants","timeFrame":"Until follow-up (approximate 6 years)","groups":[{"id":"OG000","title":"Acetylsalicylic Acid (Aspirin, BAYE4465)","description":"Subjects received 1 tablet of enteric-coated acetylsalicylic acid \\[100 milligram (mg)\\] orally once daily."},{"id":"OG001","title":"Placebo","description":"Subjects received 1 tablets of matching placebo orally once daily."}],"denoms":[{"units":"Participants","counts":[{"groupId":"OG000","value":"6270"},{"groupId":"OG001","value":"6276"}]}],"classes":[{"title":"Total","categories":[{"measurements":[{"groupId":"OG000","value":"61"},{"groupId":"OG001","value":"29"}]}]},{"title":"Mild","categories":[{"measurements":[{"groupId":"OG000","value":"42"},{"groupId":"OG001","value":"22"}]}]},{"title":"Moderate","categories":[{"measurements":[{"groupId":"OG000","value":"15"},{"groupId":"OG001","value":"5"}]}]},{"title":"Severe","categories":[{"measurements":[{"groupId":"OG000","value":"4"},{"groupId":"OG001","value":"2"}]}]}]},{"type":"OTHER_PRE_SPECIFIED","title":"Incidence of Composite Outcomes and Non-fatal MI","populationDescription":"ITT","reportingStatus":"POSTED","paramType":"NUMBER","unitOfMeasure":"Percentage of participants","timeFrame":"Until follow-up (approximate 6 years)","groups":[{"id":"OG000","title":"Acetylsalicylic Acid (Aspirin, BAYE4465)","description":"Subjects received 1 tablet of enteric-coated acetylsalicylic acid \\[100 milligram (mg)\\] orally once daily."},{"id":"OG001","title":"Placebo","description":"Subjects received 1 tablets of matching placebo orally once daily."}],"denoms":[{"units":"Participants","counts":[{"groupId":"OG000","value":"6270"},{"groupId":"OG001","value":"6276"}]}],"classes":[{"title":"MI, stroke, CV death, UA or TIA","categories":[{"measurements":[{"groupId":"OG000","value":"4.29"},{"groupId":"OG001","value":"4.48"}]}]},{"title":"MI, stroke or CV death","categories":[{"measurements":[{"groupId":"OG000","value":"3.32"},{"groupId":"OG001","value":"3.47"}]}]},{"title":"non-fatal MI","categories":[{"measurements":[{"groupId":"OG000","value":"1.40"},{"groupId":"OG001","value":"1.56"}]}]}],"analyses":[{"groupIds":["OG000","OG001"],"groupDescription":"Analysis of incidence of composite outcome of MI, stroke, CV death, UA or TIA was conducted via a 2-sided log-rank test. Results would be considered statistically significant if the 2-sided P value is ≤0.05.","nonInferiorityType":"OTHER","pValue":"0.6038","statisticalMethod":"Log Rank","paramType":"Cox Proportional Hazard","paramValue":"0.96","ciPctValue":"95","ciNumSides":"TWO_SIDED","ciLowerLimit":"0.81","ciUpperLimit":"1.13"},{"groupIds":["OG000","OG001"],"groupDescription":"Analysis of incidence of composite outcome of MI, stroke or CV death was conducted via a 2-sided log-rank test. Results would be considered statistically significant if the 2-sided P value is ≤0.05.","nonInferiorityType":"OTHER","pValue":"0.6190","statisticalMethod":"Log Rank","paramType":"Cox Proportional Hazard","paramValue":"0.95","ciPctValue":"95","ciNumSides":"TWO_SIDED","ciLowerLimit":"0.79","ciUpperLimit":"1.15"},{"groupIds":["OG000","OG001"],"groupDescription":"Analysis of incidence of non-fatal MI was conducted via a 2-sided log-rank test. Results would be considered statistically significant if the 2-sided P value is ≤0.05.","nonInferiorityType":"OTHER","pValue":"0.4562","statisticalMethod":"Log Rank","paramType":"Cox Proportional Hazard","paramValue":"0.90","ciPctValue":"95","ciNumSides":"TWO_SIDED","ciLowerLimit":"0.67","ciUpperLimit":"1.20"}]},{"type":"OTHER_PRE_SPECIFIED","title":"Incidence of Composite Outcomes and Individual Outcomes in Per-protocol Population","description":"\\*all other CV death without fatal MI and fatal stroke.","populationDescription":"Per-protocol (PP) group (N=7702) consists of all patients who had no protocol violation.","reportingStatus":"POSTED","paramType":"NUMBER","unitOfMeasure":"Percentage of participants","timeFrame":"Until follow-up (approximate 6 years)","groups":[{"id":"OG000","title":"Acetylsalicylic Acid (Aspirin, BAYE4465) Per-protocol","description":"Subjects received 1 tablet of enteric-coated acetylsalicylic acid \\[100 milligram (mg)\\] orally once daily."},{"id":"OG001","title":"Placebo Per-protocol","description":"Subjects received 1 tablets of matching placebo orally once daily."}],"denoms":[{"units":"Participants","counts":[{"groupId":"OG000","value":"3790"},{"groupId":"OG001","value":"3912"}]}],"classes":[{"title":"MI, stroke, CV death, UA or TIA","categories":[{"measurements":[{"groupId":"OG000","value":"3.40"},{"groupId":"OG001","value":"4.19"}]}]},{"title":"MI, stroke or CV death","categories":[{"measurements":[{"groupId":"OG000","value":"2.72"},{"groupId":"OG001","value":"3.45"}]}]},{"title":"MI","categories":[{"measurements":[{"groupId":"OG000","value":"0.98"},{"groupId":"OG001","value":"1.84"}]}]},{"title":"Non-fatal MI","categories":[{"measurements":[{"groupId":"OG000","value":"0.84"},{"groupId":"OG001","value":"1.53"}]}]},{"title":"Stroke","categories":[{"measurements":[{"groupId":"OG000","value":"1.06"},{"groupId":"OG001","value":"0.95"}]}]},{"title":"CV death*","categories":[{"measurements":[{"groupId":"OG000","value":"0.69"},{"groupId":"OG001","value":"0.66"}]}]},{"title":"UA","categories":[{"measurements":[{"groupId":"OG000","value":"0.21"},{"groupId":"OG001","value":"0.28"}]}]},{"title":"TIA","categories":[{"measurements":[{"groupId":"OG000","value":"0.50"},{"groupId":"OG001","value":"0.49"}]}]},{"title":"All-cause mortality","categories":[{"measurements":[{"groupId":"OG000","value":"2.85"},{"groupId":"OG001","value":"2.58"}]}]}],"analyses":[{"groupIds":["OG000","OG001"],"groupDescription":"Analysis of incidence of composite outcome of MI, stroke, CV death, UA or TIA was conducted via a 2-sided log-rank test. Results would be considered statistically significant if the 2-sided P value is ≤0.05.","nonInferiorityType":"OTHER","pValue":"0.0756","statisticalMethod":"Log Rank","paramType":"Cox Proportional Hazard","paramValue":"0.81","ciPctValue":"95","ciNumSides":"TWO_SIDED","ciLowerLimit":"0.64","ciUpperLimit":"1.02"},{"groupIds":["OG000","OG001"],"groupDescription":"Analysis of incidence of composite outcome of MI, stroke or CV death was conducted via a 2-sided log-rank test. Results would be considered statistically significant if the 2-sided P value is ≤0.05.","nonInferiorityType":"OTHER","pValue":"0.0661","statisticalMethod":"Log Rank","paramType":"Cox Proportional Hazard","paramValue":"0.79","ciPctValue":"95","ciNumSides":"TWO_SIDED","ciLowerLimit":"0.61","ciUpperLimit":"1.02"},{"groupIds":["OG000","OG001"],"groupDescription":"Analysis of incidence of MI was conducted via a 2-sided log-rank test. Results would be considered statistically significant if the 2-sided P value is ≤0.05.","nonInferiorityType":"OTHER","pValue":"0.0014","statisticalMethod":"Log Rank","paramType":"Cox Proportional Hazard","paramValue":"0.53","ciPctValue":"95","ciNumSides":"TWO_SIDED","ciLowerLimit":"0.36","ciUpperLimit":"0.79"},{"groupIds":["OG000","OG001"],"groupDescription":"Analysis of incidence of non-fatal MI was conducted via a 2-sided log-rank test. Results would be considered statistically significant if the 2-sided P value is ≤0.05.","nonInferiorityType":"OTHER","pValue":"0.0056","statisticalMethod":"Log Rank","paramType":"Cox Proportional Hazard","paramValue":"0.55","ciPctValue":"95","ciNumSides":"TWO_SIDED","ciLowerLimit":"0.36","ciUpperLimit":"0.84"},