{"protocolSection":{"identificationModule":{"nctId":"NCT02864953","nctIdAliases":["NCT04950972"],"orgStudyIdInfo":{"id":"252LH301"},"secondaryIdInfos":[{"id":"RPI 301","type":"OTHER","domain":"Remedy Pharmaceuticals"},{"id":"2017-004854-41","type":"EUDRACT_NUMBER"}],"organization":{"fullName":"Biogen","class":"INDUSTRY"},"briefTitle":"Phase 3 Study to Evaluate the Efficacy and Safety of Intravenous BIIB093 (Glibenclamide) for Severe Cerebral Edema Following Large Hemispheric Infarction","officialTitle":"Randomized, Double-Blind, Placebo-Controlled, Parallel-Group, Multicenter, Phase 3 Study to Evaluate the Efficacy and Safety of Intravenous BIIB093 (Glibenclamide) for Severe Cerebral Edema Following Large Hemispheric Infarction","acronym":"CHARM"},"statusModule":{"statusVerifiedDate":"2024-01","overallStatus":"TERMINATED","whyStopped":"Early completed to operational challenges and other strategic considerations, not for efficacy or safety reasons","expandedAccessInfo":{"hasExpandedAccess":false},"startDateStruct":{"date":"2018-08-29","type":"ACTUAL"},"primaryCompletionDateStruct":{"date":"2023-08-18","type":"ACTUAL"},"completionDateStruct":{"date":"2023-08-18","type":"ACTUAL"},"studyFirstSubmitDate":"2016-07-12","studyFirstSubmitQcDate":"2016-08-09","studyFirstPostDateStruct":{"date":"2016-08-12","type":"ESTIMATED"},"resultsFirstSubmitDate":"2023-12-19","resultsFirstSubmitQcDate":"2023-12-19","resultsFirstPostDateStruct":{"date":"2024-01-09","type":"ACTUAL"},"lastUpdateSubmitDate":"2024-01-18","lastUpdatePostDateStruct":{"date":"2024-02-13","type":"ACTUAL"}},"sponsorCollaboratorsModule":{"responsibleParty":{"type":"SPONSOR"},"leadSponsor":{"name":"Biogen","class":"INDUSTRY"}},"oversightModule":{"oversightHasDmc":true,"isFdaRegulatedDrug":true,"isFdaRegulatedDevice":false},"descriptionModule":{"briefSummary":"The primary objective of Part 1 of the study is to determine if BIIB093 improves functional outcome at Day 90 as measured by the modified Rankin Scale (mRS) when compared with placebo in participants with Large Hemispheric Infarction (LHI). The secondary objectives of Part 1 of the study are to determine if BIIB093 improves overall survival at Day 90 when compared with placebo, if BIIB093 improves functional outcome at Day 90 on the mRS dichotomized 0-4 vs. 5-6 when compared with placebo, if BIIB093 reduces midline shift at 72 hours (or at time of decompressive craniectomy \\[DC\\] or comfort measures only \\[CMO\\], if earlier) when compared with placebo, and to evaluate the safety and tolerability of BIIB093 in participants with LHI.\n\nThe objectives of Part 2 of the study are to evaluate long-term disability following LHI, to evaluate long-term outcome measures of clinical function, quality of life, and healthcare utilization, and to assess the safety of BIIB093 in subjects with LHI during the follow-up period.","detailedDescription":"This study, previously posted by Remedy Pharmaceuticals, Inc., has transitioned to Biogen."},"conditionsModule":{"conditions":["Brain Edema","Stroke, Acute"],"keywords":["Infarction","Cerebrovascular Disorders","Brain Diseases","Pathological Processes Necrosis","Central Nervous System Diseases","Vascular Diseases","Cardiovascular Diseases","Glyburide","Hypoglycemic Agents","Physiological Effects of Drugs"]},"designModule":{"studyType":"INTERVENTIONAL","phases":["PHASE3"],"designInfo":{"allocation":"RANDOMIZED","interventionModel":"PARALLEL","primaryPurpose":"TREATMENT","maskingInfo":{"masking":"QUADRUPLE","whoMasked":["PARTICIPANT","CARE_PROVIDER","INVESTIGATOR","OUTCOMES_ASSESSOR"]}},"enrollmentInfo":{"count":535,"type":"ACTUAL"}},"armsInterventionsModule":{"armGroups":[{"label":"BIIB093","type":"EXPERIMENTAL","description":"BIIB093 administered as a bolus followed by continuous intravenous (IV) infusion over 72 hours.","interventionNames":["Drug: BIIB093"]},{"label":"Placebo","type":"PLACEBO_COMPARATOR","description":"Placebo administered as a bolus followed by continuous intravenous (IV) infusion over 72 hours.","interventionNames":["Drug: Placebo"]}],"interventions":[{"type":"DRUG","name":"BIIB093","description":"Administered as specified in the treatment arm.","armGroupLabels":["BIIB093"],"otherNames":["glibenclamide","glibenclamide intravenous (IV)","glyburide","CIRARA"]},{"type":"DRUG","name":"Placebo","description":"Administered as specified in the treatment arm.","armGroupLabels":["Placebo"]}]},"outcomesModule":{"primaryOutcomes":[{"measure":"Part 1: Percentage of Participants With Improvement in Functional Outcome at Day 90 Assessed Via the Modified Rankin Scale (mRS)","description":"The mRS measures the degree of functional independence following stroke. In this study, 7-category ordinal mRS scale was condensed to the following 5-categories: 0/1, 2, 3, 4, 5/6 where 0 and 1 reflect no disability and near-normal functioning while 5 and 6 represent severe disability and death, respectively.","timeFrame":"Day 90"}],"secondaryOutcomes":[{"measure":"Part 1: Time to All-Cause Death Through Day 90","description":"Time to all-cause death is defined as the time from randomization to the time of death.","timeFrame":"Randomization up to Day 90"},{"measure":"Part 1: Percentage of Participants Who Achieved mRS 0-4 at Day 90","description":"The mRS measures the degree of functional independence following stroke. In this study, the 7-category ordinal mRS scale was condensed to the following 5-categories: 0/1, 2, 3, 4, 5/6 where 0 and 1 reflect no disability and near-normal functioning while 5 and 6 represent severe disability and death, respectively.","timeFrame":"Day 90"},{"measure":"Part 1: Midline Shift at 72 Hours as Assessed by Non-contrast Computed Tomography (NCCT) or Magnetic Resonance Imaging (MRI)","description":"Midline shift is the perpendicular distance between the septum pellucidum and the line drawn between the anterior and posterior attachments of the falx to the inner table of the skull.","timeFrame":"At 72 hours"},{"measure":"Part 1: Percentage of Participants With Adverse Events (AEs) and Serious Adverse Events (SAEs)","description":"An AE is any untoward medical occurrence in a participant or clinical investigation participant administered a pharmaceutical product and that does not necessarily have a causal relationship with this treatment. An AE can therefore be any unfavorable and unintended sign (including an abnormal laboratory finding), symptom, or disease temporally associated with the use of a medicinal (investigational) product, whether or not related to the medicinal (investigational) product. A SAE is any untoward medical occurrence that at any dose results in death, life-threatening event, requires inpatient hospitalization, significant disability/incapacity or congenital anomaly.","timeFrame":"From the signing of informed consent up to the last follow-up visit (up to 4 years 11 months)"}]},"eligibilityModule":{"eligibilityCriteria":"Inclusion Criteria:\n\n1. A clinical diagnosis of acute ischemic stroke in the middle cerebral artery (MCA) territory.\n2. A large hemispheric infarction defined as; lesion volume of 80 to 300 centimeters cubed (cm\\^3) on magnetic resonance imaging (MRI) diffusion-weighted imaging (DWI), or computed tomography perfusion (CTP), or an Alberta Stroke Program Early CT Score (ASPECTS) of 1 to 5 with involvement of at least 2 defined cortical regions.\n3. Screening National Institutes of Health Stroke Scale (NIHSS) \\>=10.\n4. At the time of randomization, and in the Investigator's judgement, it must be feasible for study drug treatment infusion to be initiated no later than 10 hours after time of symptom onset, if known, or the time last known normal.\n\n   * Participants who wake with stroke may be included if neurological and other exclusion criteria are satisfied. The time of stroke onset is to be taken as the midpoint between sleep onset (or last known to be normal) and time of waking.\n5. For participants who receive thrombectomy, inclusion into the study must be based on post-thrombectomy MRI-DWI.\n\nExclusion Criteria:\n\n1. Participant is likely to have supportive care withdrawn on the first day.\n2. Commitment to decompressive craniectomy (DC) prior to enrollment.\n3. Evidence of concurrent infarction in the contralateral hemisphere sufficiently serious so as to affect functional outcome.\n\nNOTE: Other protocol defined Inclusion/Exclusion criteria may apply","healthyVolunteers":false,"sex":"ALL","minimumAge":"18 Years","maximumAge":"85 Years","stdAges":["ADULT","OLDER_ADULT"]},"contactsLocationsModule":{"overallOfficials":[{"name":"Medical Director","affiliation":"Biogen","role":"STUDY_DIRECTOR"}],"locations":[{"facility":"Barrow Neurological Institute","city":"Phoenix","state":"Arizona","zip":"85013","country":"United States","geoPoint":{"lat":33.44838,"lon":-112.07404}},{"facility":"Arizona Board of Regents, University of Arizona","city":"Tucson","state":"Arizona","zip":"85724","country":"United States","geoPoint":{"lat":32.22174,"lon":-110.92648}},{"facility":"Stanford Stroke Center","city":"Palo Alto","state":"California","zip":"94304","country":"United States","geoPoint":{"lat":37.44188,"lon":-122.14302}},{"facility":"University of California Davis Health System","city":"Sacramento","state":"California","zip":"95817","country":"United States","geoPoint":{"lat":38.58157,"lon":-121.4944}},{"facility":"UCSD Health-La Jolla","city":"San Diego","state":"California","zip":"92121","country":"United States","geoPoint":{"lat":32.71533,"lon":-117.15726}},{"facility":"University of Colorado Hospital","city":"Aurora","state":"Colorado","zip":"80045","country":"United States","geoPoint":{"lat":39.72943,"lon":-104.83192}},{"facility":"Yale New Haven Hospital","city":"New Haven","state":"Connecticut","zip":"06519","country":"United States","geoPoint":{"lat":41.30815,"lon":-72.92816}},{"facility":"University of Florida-Gainsville","city":"Gainesville","state":"Florida","zip":"32610","country":"United States","geoPoint":{"lat":29.65163,"lon":-82.32483}},{"facility":"Lyerly Neurosurgery Baptist Health","city":"Jacksonville","state":"Florida","zip":"32207","country":"United States","geoPoint":{"lat":30.33218,"lon":-81.65565}},{"facility":"University of Florida, Jacksonville","city":"Jacksonville","state":"Florida","zip":"32209","country":"United States","geoPoint":{"lat":30.33218,"lon":-81.65565}},{"facility":"University of South Florida","city":"Tampa","state":"Florida","zip":"33612","country":"United States","geoPoint":{"lat":27.94752,"lon":-82.45843}},{"facility":"Grady Memorial Hospital","city":"Atlanta","state":"Georgia","zip":"30303","country":"United States","geoPoint":{"lat":33.749,"lon":-84.38798}},{"facility":"Augusta University","city":"Augusta","state":"Georgia","zip":"30912","country":"United States","geoPoint":{"lat":33.47097,"lon":-81.97484}},{"facility":"The Queens Medical Center","city":"Honolulu","state":"Hawaii","zip":"96813","country":"United States","geoPoint":{"lat":21.30694,"lon":-157.85833}},{"facility":"Rush University Medical Center","city":"Chicago","state":"Illinois","zip":"60612","country":"United States","geoPoint":{"lat":41.85003,"lon":-87.65005}},{"facility":"University of Kansas Medical Center Research Institute, Inc.","city":"Kansas City","state":"Kansas","zip":"66160","country":"United States","geoPoint":{"lat":39.11417,"lon":-94.62746}},{"facility":"University of Louisville","city":"Louisville","state":"Kentucky","zip":"40202","country":"United States","geoPoint":{"lat":38.25424,"lon":-85.75941}},{"facility":"Ochsner Clinic Foundation","city":"New Orleans","state":"Louisiana","zip":"70121","country":"United States","geoPoint":{"lat":29.95465,"lon":-90.07507}},{"facility":"Maine Medical Center","city":"Portland","state":"Maine","zip":"04102","country":"United States","geoPoint":{"lat":43.66147,"lon":-70.25533}},{"facility":"University of Maryland","city":"Baltimore","state":"Maryland","zip":"21201","country":"United States","geoPoint":{"lat":39.29038,"lon":-76.61219}},{"facility":"Sinai Hospital of Baltimore","city":"Baltimore","state":"Maryland","zip":"21215","country":"United States","geoPoint":{"lat":39.29038,"lon":-76.61219}},{"facility":"Massachusetts General Hospital","city":"Boston","state":"Massachusetts","zip":"02114","country":"United States","geoPoint":{"lat":42.35843,"lon":-71.05977}},{"facility":"Brigham and Woman's Hospital","city":"Boston","state":"Massachusetts","zip":"02115","country":"United States","geoPoint":{"lat":42.35843,"lon":-71.05977}},{"facility":"Beth Israel Deaconess Medical Center, Inc.","city":"Jamaica Plain","state":"Massachusetts","zip":"02130-2075","country":"United States","geoPoint":{"lat":42.30982,"lon":-71.12033}},{"facility":"UMASS Memorial Medical Center","city":"Worcester","state":"Massachusetts","zip":"01605","country":"United States","geoPoint":{"lat":42.26259,"lon":-71.80229}},{"facility":"Henry Ford Hospital","city":"Detroit","state":"Michigan","zip":"48202","country":"United States","geoPoint":{"lat":42.33143,"lon":-83.04575}},{"facility":"St. John's Hospital","city":"Detroit","state":"Michigan","zip":"48236","country":"United States","geoPoint":{"lat":42.33143,"lon":-83.04575}},{"facility":"Fairview Southdale Hospital","city":"Edina","state":"Minnesota","zip":"55435","country":"United States","geoPoint":{"lat":44.88969,"lon":-93.34995}},{"facility":"Saint Luke's Hospital of Kansas City","city":"Kansas City","state":"Missouri","zip":"64111","country":"United States","geoPoint":{"lat":39.09973,"lon":-94.57857}},{"facility":"Saint Louis University","city":"Saint Louis","state":"Missouri","zip":"63110","country":"United States","geoPoint":{"lat":38.62727,"lon":-90.19789}},{"facility":"Washington University Physicians","city":"Saint Louis","state":"Missouri","zip":"63110","country":"United States","geoPoint":{"lat":38.62727,"lon":-90.19789}},{"facility":"JFK Medical Center","city":"Edison","state":"New Jersey","zip":"08820","country":"United States","geoPoint":{"lat":40.51872,"lon":-74.4121}},{"facility":"Jersey Shore University Medical Center","city":"Neptune","state":"New Jersey","zip":"07753","country":"United States","geoPoint":{"lat":40.20011,"lon":-74.02792}},{"facility":"Rutgers - Robert Wood Johnson Medical School","city":"New Brunswick","state":"New Jersey","zip":"08901","country":"United States","geoPoint":{"lat":40.48622,"lon":-74.45182}},{"facility":"Valley Hospital","city":"Ridgewood","state":"New Jersey","zip":"07450","country":"United States","geoPoint":{"lat":40.97926,"lon":-74.11653}},{"facility":"University of New Mexico","city":"Albuquerque","state":"New Mexico","zip":"87106","country":"United States","geoPoint":{"lat":35.08449,"lon":-106.65114}},{"facility":"University of Buffalo","city":"Buffalo","state":"New York","zip":"14215","country":"United States","geoPoint":{"lat":42.88645,"lon":-78.87837}},{"facility":"Northwell Health","city":"Manhasset","state":"New York","zip":"11030","country":"United States","geoPoint":{"lat":40.79788,"lon":-73.69957}},{"facility":"NYU Langone Medical Center","city":"New York","state":"New York","zip":"10016","country":"United States","geoPoint":{"lat":40.71427,"lon":-74.00597}},{"facility":"Mount Sinai Hospital","city":"New York","state":"New York","zip":"10029","country":"United States","geoPoint":{"lat":40.71427,"lon":-74.00597}},{"facility":"Columbia University Hervert Irving Comprehensive Cancer Center","city":"New York","state":"New York","zip":"10032","country":"United States","geoPoint":{"lat":40.71427,"lon":-74.00597}},{"facility":"University of Rochester Medical Center","city":"Rochester","state":"New York","zip":"14642","country":"United States","geoPoint":{"lat":43.15478,"lon":-77.61556}},{"facility":"SUNY Upstate Medical Center","city":"Syracuse","state":"New York","zip":"13210","country":"United States","geoPoint":{"lat":43.04812,"lon":-76.14742}},{"facility":"UNC Hospitals","city":"Chapel Hill","state":"North Carolina","zip":"27514","country":"United States","geoPoint":{"lat":35.9132,"lon":-79.05584}},{"facility":"Atrium Health Carolinas Medical Center","city":"Charlotte","state":"North Carolina","zip":"28204","country":"United States","geoPoint":{"lat":35.22709,"lon":-80.84313}},{"facility":"Duke University Medical Center","city":"Durham","state":"North Carolina","zip":"27710","country":"United States","geoPoint":{"lat":35.99403,"lon":-78.89862}},{"facility":"Guilford Neurologic Research, PA","city":"Greensboro","state":"North Carolina","zip":"27405","country":"United States","geoPoint":{"lat":36.07264,"lon":-79.79198}},{"facility":"Novant Health Forsyth Medical Center","city":"Winston-Salem","state":"North Carolina","zip":"27103","country":"United States","geoPoint":{"lat":36.09986,"lon":-80.24422}},{"facility":"Wake Forest Baptist Health Sciences","city":"Winston-Salem","state":"North Carolina","zip":"27157","country":"United States","geoPoint":{"lat":36.09986,"lon":-80.24422}},{"facility":"Summa Health System","city":"Akron","state":"Ohio","zip":"44304","country":"United States","geoPoint":{"lat":41.08144,"lon":-81.51901}},{"facility":"University of Cincinnati","city":"Cincinnati","state":"Ohio","zip":"45267","country":"United States","geoPoint":{"lat":39.12713,"lon":-84.51435}},{"facility":"University Hospitals Cleveland Medical Center","city":"Cleveland","state":"Ohio","zip":"44106","country":"United States","geoPoint":{"lat":41.4995,"lon":-81.69541}},{"facility":"The Cleveland Clinic Foundation","city":"Cleveland","state":"Ohio","zip":"44195","country":"United States","geoPoint":{"lat":41.4995,"lon":-81.69541}},{"facility":"Ohio State Univ College Of Medicine","city":"Columbus","state":"Ohio","zip":"43210","country":"United States","geoPoint":{"lat":39.96118,"lon":-82.99879}},{"facility":"Miami Valley Hospital South","city":"Dayton","state":"Ohio","zip":"45409","country":"United States","geoPoint":{"lat":39.75895,"lon":-84.19161}},{"facility":"ProMedica Toledo Hospital","city":"Toledo","state":"Ohio","zip":"43606","country":"United States","geoPoint":{"lat":41.66394,"lon":-83.55521}},{"facility":"Ascension St. John","city":"Tulsa","state":"Oklahoma","zip":"74104","country":"United States","geoPoint":{"lat":36.15398,"lon":-95.99277}},{"facility":"Providence Brain and Spine Institute","city":"Portland","state":"Oregon","zip":"97225","country":"United States","geoPoint":{"lat":45.52345,"lon":-122.67621}},{"facility":"Oregon Health & Science University","city":"Portland","state":"Oregon","zip":"97239","country":"United States","geoPoint":{"lat":45.52345,"lon":-122.67621}},{"facility":"Lehigh Valley Hospital - Cedar Crest","city":"Allentown","state":"Pennsylvania","zip":"18103","country":"United States","geoPoint":{"lat":40.60843,"lon":-75.49018}},{"facility":"Penn State University Milton S. Hershey Medical Center","city":"Hershey","state":"Pennsylvania","zip":"17033","country":"United States","geoPoint":{"lat":40.28592,"lon":-76.65025}},{"facility":"University of Pennsylvania Health System","city":"Philadelphia","state":"Pennsylvania","zip":"19104","country":"United States","geoPoint":{"lat":39.95233,"lon":-75.16379}},{"facility":"Allegheny General Hospital","city":"Pittsburgh","state":"Pennsylvania","zip":"15212","country":"United States","geoPoint":{"lat":40.44062,"lon":-79.99589}},{"facility":"University of Pittsburgh School of Medicine","city":"Pittsburgh","state":"Pennsylvania","zip":"15261","country":"United States","geoPoint":{"lat":40.44062,"lon":-79.99589}},{"facility":"Rhode Island Hospital Warren Alpert Medical School Brown University","city":"Providence","state":"Rhode Island","zip":"02905","country":"United States","geoPoint":{"lat":41.82399,"lon":-71.41283}},{"facility":"Erlanger Health System","city":"Chattanooga","state":"Tennessee","zip":"37403","country":"United States","geoPoint":{"lat":35.04563,"lon":-85.30968}},{"facility":"University of Tennessee Health Sciences Center","city":"Memphis","state":"Tennessee","zip":"38163","country":"United States","geoPoint":{"lat":35.14953,"lon":-90.04898}},{"facility":"TriStar Skyline Medical Center","city":"Nashville","state":"Tennessee","zip":"37207","country":"United States","geoPoint":{"lat":36.16589,"lon":-86.78444}},{"facility":"Vanderbilt Medical Center","city":"Nashville","state":"Tennessee","zip":"37232","country":"United States","geoPoint":{"lat":36.16589,"lon":-86.78444}},{"facility":"St.David's HealthCare Office of Research","city":"Austin","state":"Texas","zip":"78705","country":"United States","geoPoint":{"lat":30.26715,"lon":-97.74306}},{"facility":"Valley Baptist Medical Center","city":"Harlingen","state":"Texas","zip":"78550","country":"United States","geoPoint":{"lat":26.19063,"lon":-97.6961}},{"facility":"University of Utah Neurology","city":"Salt Lake City","state":"Utah","zip":"84108","country":"United States","geoPoint":{"lat":40.76078,"lon":-111.89105}},{"facility":"University of Washington School of Medicine","city":"Seattle","state":"Washington","zip":"98195","country":"United States","geoPoint":{"lat":47.60621,"lon":-122.33207}},{"facility":"University Hospital and UW Health Clinics","city":"Madison","state":"Wisconsin","zip":"53705","country":"United States","geoPoint":{"lat":43.07305,"lon":-89.40123}},{"facility":"Liverpool Hospital","city":"Liverpool","state":"New South Wales","zip":"2170","country":"Australia","geoPoint":{"lat":-33.90011,"lon":150.93328}},{"facility":"John Hunter Hospital","city":"New Lambton Heights","state":"New South Wales","zip":"2305","country":"Australia","geoPoint":{"lat":-32.92466,"lon":151.69364}},{"facility":"Royal North Shore Hospital","city":"St Leonards","state":"New South Wales","zip":"2065","country":"Australia","geoPoint":{"lat":-33.82344,"lon":151.19836}},{"facility":"Princess Alexandra Hospital","city":"Woolloongabba","state":"Queensland","zip":"4102","country":"Australia","geoPoint":{"lat":-27.48855,"lon":153.03655}},{"facility":"Royal Adelaide Hospital","city":"Adelaide","state":"South Australia","zip":"5000","country":"Australia","geoPoint":{"lat":-34.92866,"lon":138.59863}},{"facility":"Monash Medical Centre","city":"Clayton","state":"Victoria","zip":"3168","country":"Australia","geoPoint":{"lat":-37.91667,"lon":145.11667}},{"facility":"The Alfred Hospital","city":"Melbourne","state":"Victoria","zip":"3004","country":"Australia","geoPoint":{"lat":-37.814,"lon":144.96332}},{"facility":"Royal Melbourne Hospital","city":"Parkville","state":"Victoria","zip":"3050","country":"Australia","geoPoint":{"lat":-37.78333,"lon":144.95}},{"facility":"Sunshine Hospital","city":"St Albans","state":"Victoria","zip":"3021","country":"Australia","geoPoint":{"lat":-37.73901,"lon":144.80024}},{"facility":"Universitair Ziekenhuis Gent","city":"Gent","state":"East Flanders","zip":"9000","country":"Belgium","geoPoint":{"lat":51.05,"lon":3.71667}},{"facility":"UZ Leuven","city":"Leuven","state":"Flemish Brabant","zip":"3000","country":"Belgium","geoPoint":{"lat":50.87959,"lon":4.70093}},{"facility":"CHU UCL Namur","city":"Yvoir","state":"Namur","zip":"5530","country":"Belgium","geoPoint":{"lat":50.3279,"lon":4.88059}},{"facility":"Clinique CHC MontLégia","city":"Liege","zip":"4000","country":"Belgium","geoPoint":{"lat":50.63373,"lon":5.56749}},{"facility":"HGF - Hospital Geral de Fortaleza","city":"Fortaleza","state":"Ceará","zip":"60155-290","country":"Brazil","geoPoint":{"lat":-3.71722,"lon":-38.54306}},{"facility":"Hospital do Rocio","city":"Campo Largo","state":"Paraná","zip":"83606-177","country":"Brazil","geoPoint":{"lat":-25.45955,"lon":-49.53014}},{"facility":"Hospital de Clínicas de Porto Alegre","city":"Porto Alegre","state":"Rio Grande Do Sul","zip":"90035-903","country":"Brazil","geoPoint":{"lat":-30.03306,"lon":-51.23}},{"facility":"Clinica Neurológica e Neurocirúrgica de Joinville","city":"Joinville","state":"Santa Catarina","zip":"89202-190","country":"Brazil","geoPoint":{"lat":-26.30444,"lon":-48.84556}},{"facility":"Hospital das Clínicas FMRP-USP","city":"Ribeirao Preto","state":"Sao Paulo","zip":"14048-900","country":"Brazil","geoPoint":{"lat":-21.1775,"lon":-47.81028}},{"facility":"Hospital Sao Paulo","city":"São Paulo","state":"Sao Paulo","zip":"04037-002","country":"Brazil","geoPoint":{"lat":-23.5475,"lon":-46.63611}},{"facility":"Foothills Medical Centre","city":"Calgary","state":"Alberta","zip":"T2N 2T9","country":"Canada","geoPoint":{"lat":51.05011,"lon":-114.08529}},{"facility":"University of Alberta Hospital","city":"Edmonton","state":"Alberta","zip":"T6G 2B7","country":"Canada","geoPoint":{"lat":53.55014,"lon":-113.46871}},{"facility":"Anhui Provincial Hospital","city":"Hefei","state":"Anhui","zip":"230001","country":"China","geoPoint":{"lat":31.86389,"lon":117.28083}},{"facility":"Xuanwu Hospital Capital Medical University","city":"Beijing","state":"Beijing","zip":"100053","country":"China","geoPoint":{"lat":39.9075,"lon":116.39723}},{"facility":"Beijing Tiantan Hospital, Capital Medical University","city":"Beijing","state":"Beijing","zip":"100070","country":"China","geoPoint":{"lat":39.9075,"lon":116.39723}},{"facility":"Peking University Third Hospital","city":"Beijing","state":"Beijing","zip":"100191","country":"China","geoPoint":{"lat":39.9075,"lon":116.39723}},{"facility":"Beijing Tiantan Hospital, Capital Medical University","city":"Beijing","state":"Bejing","zip":"100070","country":"China","geoPoint":{"lat":39.9075,"lon":116.39723}},{"facility":"The First Affiliated Hospital of Sun Yat-sen University","city":"Guangzhou","state":"Guangdong","zip":"510080","country":"China","geoPoint":{"lat":23.11667,"lon":113.25}},{"facility":"The Second Affiliated Hospital of Guangzhou Medical University","city":"Guangzhou","state":"Guangdong","zip":"510260","country":"China","geoPoint":{"lat":23.11667,"lon":113.25}},{"facility":"Hainan General Hospital","city":"Haikou","state":"Hainan","zip":"570311","country":"China","geoPoint":{"lat":20.04583,"lon":110.34167}},{"facility":"Tongji Hospital, Tongji Medical College, Huazhong University of Science & Technology","city":"Wuhan","state":"Hubei","zip":"430030","country":"China","geoPoint":{"lat":30.58333,"lon":114.26667}},{"facility":"Renmin Hospital, Wuhan University","city":"Wuhan","state":"Hubei","zip":"430060","country":"China","geoPoint":{"lat":30.58333,"lon":114.26667}},{"facility":"The Second Affiliated Hospital of Soochow University","city":"Suzhou","state":"Jiangsushe","zip":"215004","country":"China","geoPoint":{"lat":31.30408,"lon":120.59538}},{"facility":"Huai'an First People's Hospital","city":"Huai'an","state":"Jiangsu","zip":"223300","country":"China","geoPoint":{"lat":33.50389,"lon":119.14417}},{"facility":"Zhongda Hospital Southeast University","city":"Nanjing","state":"Jiangsu","zip":"210009","country":"China","geoPoint":{"lat":32.06167,"lon":118.77778}},{"facility":"The Second Affiliated Hospital of Nanjing Medical University","city":"Nanjing","state":"Jiangsu","zip":"210011","country":"China","geoPoint":{"lat":32.06167,"lon":118.77778}},{"facility":"Affiliated Hospital of Nantong University","city":"Nantong","state":"Jiangsu","zip":"226001","country":"China","geoPoint":{"lat":32.03028,"lon":120.87472}},{"facility":"The Affiliated Hospital of Xuzhou Medical College","city":"Xuzhou","state":"Jiangsu","zip":"221006","country":"China","geoPoint":{"lat":34.18045,"lon":117.15707}},{"facility":"Jiangxi Provincial People's Hospital","city":"Nanchang","state":"Jiangxi","zip":"330006","country":"China","geoPoint":{"lat":28.68396,"lon":115.85306}},{"facility":"The First Affiliated Hospital of Nanchang University","city":"Nanchang","state":"Jiangxi","zip":"330006","country":"China","geoPoint":{"lat":28.68396,"lon":115.85306}},{"facility":"Jiangxi Pingxiang People's Hospital","city":"Pingxiang","state":"Jiangxi","zip":"337055","country":"China","geoPoint":{"lat":27.61672,"lon":113.85353}},{"facility":"The First Hospital of Jilin University","city":"Changchun","state":"Jilin","zip":"130021","country":"China","geoPoint":{"lat":43.88,"lon":125.32278}},{"facility":"Huashan Hospital, Fudan University","city":"Shanghai","state":"Shanghai","zip":"200040","country":"China","geoPoint":{"lat":31.22222,"lon":121.45806}},{"facility":"The Second Affiliated Hospital of Xi'an Jiaotong University（Xibei Hospital)","city":"Xi'an","state":"Shanxi","zip":"710004","country":"China","geoPoint":{"lat":34.25833,"lon":108.92861}},{"facility":"Army Specialty Medical Center of The Chinese People's Liberation Army","city":"Chongqing","state":"Sichuan","zip":"400042","country":"China","geoPoint":{"lat":29.56278,"lon":106.55278}},{"facility":"Tianjin Medical University General Hospital","city":"Tianjin","state":"Tianjin","zip":"300052","country":"China","geoPoint":{"lat":39.14222,"lon":117.17667}},{"facility":"Sir Run Run Shaw Hospital, Zhejiang University School of Medicine","city":"Hangzhou","state":"Zhejiang","zip":"310016","country":"China","geoPoint":{"lat":30.29365,"lon":120.16142}},{"facility":"General Hospital Varazdin","city":"Varazdin","state":"Croatia Proper","zip":"42000","country":"Croatia","geoPoint":{"lat":46.30444,"lon":16.33778}},{"facility":"Clinical Hospital 'Sestre Milosrdnice'","city":"Zagreb","state":"Croatia Proper","zip":"10000","country":"Croatia","geoPoint":{"lat":45.81444,"lon":15.97798}},{"facility":"Clinical Hospital Centar Zagreb","city":"Zagreb","state":"Croatia Proper","zip":"10000","country":"Croatia","geoPoint":{"lat":45.81444,"lon":15.97798}},{"facility":"Fakultni nemocnice Ostrava","city":"Ostrava","state":"Moravian-Silesian","zip":"70852","country":"Czechia","geoPoint":{"lat":49.83465,"lon":18.28204}},{"facility":"Fakultni nemocnice Brno","city":"Brno","state":"Moravia","zip":"625 00","country":"Czechia","geoPoint":{"lat":49.19522,"lon":16.60796}},{"facility":"Fakultni nemocnice u sv. Anny v Brne","city":"Brno","state":"Moravia","zip":"656 91","country":"Czechia","geoPoint":{"lat":49.19522,"lon":16.60796}},{"facility":"Fakultni nemocnice Kralovske Vinohrady","city":"Praha 10","state":"Prague","zip":"100 34","country":"Czechia","geoPoint":{"lat":50.08804,"lon":14.42076}},{"facility":"Fakultni nemocnice v Motole","city":"Praha 5","state":"Prague","zip":"150 06","country":"Czechia","geoPoint":{"lat":50.08804,"lon":14.42076}},{"facility":"Fakultni nemocnice Hradec Kralove","city":"Hradec Kralove","zip":"50005","country":"Czechia","geoPoint":{"lat":50.20923,"lon":15.83277}},{"facility":"Bispebjerg og Frederiksberg Hospital","city":"Copenhagen NV","state":"Copenhagen City","zip":"2400","country":"Denmark","geoPoint":{"lat":55.67594,"lon":12.56553}},{"facility":"Copenhagen University Hospital and Glostrup Hospital","city":"Copenhagen","state":"Copenhagen City","zip":"2100","country":"Denmark","geoPoint":{"lat":55.67594,"lon":12.56553}},{"facility":"Sjællands Universitetshospital","city":"Roskilde","state":"Østsjælland","zip":"4000","country":"Denmark","geoPoint":{"lat":55.64152,"lon":12.08035}},{"facility":"Helsinki University Hospital","city":"Helsinki","state":"Southern","zip":"00290 HUS","country":"Finland","geoPoint":{"lat":60.16952,"lon":24.93545}},{"facility":"Turun yliopistollinen keskussairaala","city":"Turku","state":"Western","zip":"20521","country":"Finland","geoPoint":{"lat":60.45148,"lon":22.26869}},{"facility":"CHU CAEN - Hôpital de la Côte de Nacre","city":"Caen cedex 9","state":"Calvados","zip":"14033","country":"France","geoPoint":{"lat":49.18585,"lon":-0.35912}},{"facility":"CHU Besançon - Hôpital Jean Minjoz","city":"Besancon Cedex","state":"Doubs","zip":"25000","country":"France","geoPoint":{"lat":47.24878,"lon":6.01815}},{"facility":"CHU de Brest - Hôpital de la Cavale Blanche","city":"Brest cedex 2","state":"Finistere","zip":"29609","country":"France","geoPoint":{"lat":48.3903,"lon":-4.48628}},{"facility":"Groupe Hospitalier Pellegrin - Hôpital Pellegrin","city":"Bordeaux","state":"Gironde","zip":"33076","country":"France","geoPoint":{"lat":44.84044,"lon":-0.5805}},{"facility":"CHU Rennes - Hopital Pontchaillou","city":"Rennes cedex 09","state":"Ille-et-Vilaine","zip":"35033","country":"France","geoPoint":{"lat":48.11198,"lon":-1.67429}},{"facility":"CHU Nantes - Hopital Nord Laënnec","city":"Saint-Herblain","state":"Loire Atlantique","zip":"44800","country":"France","geoPoint":{"lat":47.21765,"lon":-1.64841}},{"facility":"CHU Nancy - Hôpital Central","city":"Nancy","state":"Meurthe Et Moselle","zip":"54035","country":"France","geoPoint":{"lat":48.68439,"lon":6.18496}},{"facility":"Hopital Roger Salengro - CHU Lille","city":"Lille Cedex","state":"Nord","zip":"59037","country":"France","geoPoint":{"lat":50.63297,"lon":3.05858}},{"facility":"Hôpital Bicêtre","city":"Le Kremlin Bicêtre cedex","state":"Val De Marne","zip":"94275","country":"France","geoPoint":{"lat":48.81471,"lon":2.36073}},{"facility":"Universitaetsklinikum Freiburg","city":"Freiburg","state":"Baden Wuerttemberg","zip":"79106","country":"Germany","geoPoint":{"lat":47.9959,"lon":7.85222}},{"facility":"Klinikum Augsburg","city":"Augsburg","state":"Bayern","zip":"86156","country":"Germany","geoPoint":{"lat":48.37154,"lon":10.89851}},{"facility":"Rhon-Klnikum Campus Bad Neustadt","city":"Bad Neustadt Saale","state":"Bayern","zip":"97616","country":"Germany"},{"facility":"Universitaetsklinikum Erlangen","city":"Erlangen","state":"Bayern","zip":"91054","country":"Germany","geoPoint":{"lat":49.59099,"lon":11.00783}},{"facility":"Klinikum der Johann Wolfgang Goethe-Universitaet","city":"Frankfurt","state":"Hessen","zip":"60528","country":"Germany","geoPoint":{"lat":50.11552,"lon":8.68417}},{"facility":"Klinikum Frankfurt Hoechst GmbH","city":"Frankfurt","state":"Hessen","zip":"65929","country":"Germany","geoPoint":{"lat":50.11552,"lon":8.68417}},{"facility":"Klinikum Kassel GmbH","city":"Kassel","state":"Hessen","zip":"34125","country":"Germany","geoPoint":{"lat":51.31667,"lon":9.5}},{"facility":"Universitaetsklinikum Essen","city":"Essen","state":"Nordrhein Westfalen","zip":"45147","country":"Germany","geoPoint":{"lat":51.45657,"lon":7.01228}},{"facility":"Universitaetsklinikum Muenster","city":"Muenster","state":"Nordrhein Westfalen","zip":"48149","country":"Germany","geoPoint":{"lat":51.96236,"lon":7.62571}},{"facility":"Klinikum Altenburger Land GmbH","city":"Altenburg","state":"Thueringen","zip":"04600","country":"Germany","geoPoint":{"lat":50.98763,"lon":12.43684}},{"facility":"Universitaetsklinikum Jena","city":"Jena","state":"Thueringen","zip":"07749","country":"Germany","geoPoint":{"lat":50.92878,"lon":11.5899}},{"facility":"Universitaetsklinikum Carl Gustav Carus TU Dresden","city":"Dresden","zip":"1307","country":"Germany","geoPoint":{"lat":51.05089,"lon":13.73832}},{"facility":"Pest Megyei Flor Ferenc Korhaz","city":"Kistarcsa","state":"Budapest","zip":"2143","country":"Hungary","geoPoint":{"lat":47.54757,"lon":19.26247}},{"facility":"Szegedi Tudomanyegyetem Szent-Gyorgyi Albert Klinikai Kozpont","city":"Szeged","state":"Csongrád-Csanád","zip":"6725","country":"Hungary","geoPoint":{"lat":46.253,"lon":20.14824}},{"facility":"Petz Aladar Egyetemi Oktato Korhaz","city":"Gyor","state":"Győr-Moson-Sopron","zip":"9023","country":"Hungary","geoPoint":{"lat":47.68333,"lon":17.63512}},{"facility":"Somogy Megyei Kaposi Mor Oktato Korhaz","city":"Kaposvar","state":"Somogy","zip":"7400","country":"Hungary","geoPoint":{"lat":46.36667,"lon":17.8}},{"facility":"SzSzB Megyei Korhazak es Egyetemi Oktatokorhaz","city":"Nyiregyhaza","state":"Szabolcs-Szatmár-Bereg","zip":"4400","country":"Hungary","geoPoint":{"lat":47.95539,"lon":21.71671}},{"facility":"Semmelweis Egyetem","city":"Budapest","zip":"1083","country":"Hungary","geoPoint":{"lat":47.49801,"lon":19.03991}},{"facility":"Rabin MC","city":"Petah Tikva","state":"Central","zip":"49100","country":"Israel","geoPoint":{"lat":32.08707,"lon":34.88747}},{"facility":"Soroka University Medical Center","city":"Beer-Sheva","state":"Southern","zip":"84001","country":"Israel","geoPoint":{"lat":31.25181,"lon":34.7913}},{"facility":"Rambam Health Care Center","city":"Haifa","zip":"3109601","country":"Israel","geoPoint":{"lat":32.81841,"lon":34.9885}},{"facility":"Shaare Zedek","city":"Jerusalem","zip":"9103102","country":"Israel","geoPoint":{"lat":31.76904,"lon":35.21633}},{"facility":"Hadassah University Hospital - Ein Kerem","city":"Jerusalem","zip":"9112001","country":"Israel","geoPoint":{"lat":31.76904,"lon":35.21633}},{"facility":"Tel Aviv Sourasky Medical Center","city":"Tel Aviv","zip":"64239","country":"Israel","geoPoint":{"lat":32.08088,"lon":34.78057}},{"facility":"Istituto Clinico Humanitas","city":"Rozzano","state":"Milano","zip":"20089","country":"Italy","geoPoint":{"lat":45.38193,"lon":9.1559}},{"facility":"Azienda Ospedaliera Universitaria Policlinico Tor Vergata","city":"Rome","state":"Roma","zip":"00133","country":"Italy","geoPoint":{"lat":41.89193,"lon":12.51133}},{"facility":"Policlinico Umberto I","city":"Rome","state":"Roma","zip":"00161","country":"Italy","geoPoint":{"lat":41.89193,"lon":12.51133}},{"facility":"Azienda Ospedaliera Sant'Andrea-Università di Roma La Sapienza","city":"Rome","state":"Roma","zip":"00189","country":"Italy","geoPoint":{"lat":41.89193,"lon":12.51133}},{"facility":"Azienda Socio Sanitaria Territoriale degli Spedali Civili di Brescia (Presidio Spedali Civili)","city":"Brescia","zip":"25123","country":"Italy","geoPoint":{"lat":45.53558,"lon":10.21472}},{"facility":"Azienda Ospedaliera Universitaria Careggi","city":"Firenze","zip":"50134","country":"Italy","geoPoint":{"lat":43.77925,"lon":11.24626}},{"facility":"IRCCS Ospedale Policlinico San Martino","city":"Genova","zip":"16132","country":"Italy","geoPoint":{"lat":44.40478,"lon":8.94438}},{"facility":"Fondazione IRCCS CA' Granda Ospedale Maggiore Policlinico","city":"Milano","zip":"20122","country":"Italy","geoPoint":{"lat":45.46427,"lon":9.18951}},{"facility":"Ospedale San Raffaele","city":"Milano","zip":"20132","country":"Italy","geoPoint":{"lat":45.46427,"lon":9.18951}},{"facility":"Azienda Socio Sanitaria Territoriale Niguarda (Grande Ospedale Metropolitano Niguarda)","city":"Milano","zip":"20162","country":"Italy","geoPoint":{"lat":45.46427,"lon":9.18951}},{"facility":"A.O.U. Senese Policlinico Santa Maria alle Scotte","city":"Siena","zip":"53100","country":"Italy","geoPoint":{"lat":43.31822,"lon":11.33064}},{"facility":"Toyota Memorial Hospital","city":"Toyota-shi","state":"Aichi-Ken","zip":"471-8513","country":"Japan","geoPoint":{"lat":35.08333,"lon":137.15}},{"facility":"Hachinohe Red Cross Hospital","city":"Hachinohe-shi","state":"Aomori-Ken","zip":"039-1104","country":"Japan","geoPoint":{"lat":40.5,"lon":141.5}},{"facility":"Kimitsu Chuo Hospital","city":"Kisarazu-shi","state":"Chiba-Ken","zip":"292-8535","country":"Japan","geoPoint":{"lat":35.38329,"lon":139.93254}},{"facility":"NHO Kyushu Medical Center","city":"Fukuoka-shi","state":"Fukuoka-Ken","zip":"810-8563","country":"Japan","geoPoint":{"lat":33.6,"lon":130.41667}},{"facility":"Chiyukai Fukuoka Wajiro Hospital","city":"Fukuoka-shi","state":"Fukuoka-Ken","zip":"811-0213","country":"Japan","geoPoint":{"lat":33.6,"lon":130.41667}},{"facility":"Chiyukai Fukuoka Shinmizumaki Hospital","city":"Onga-gun","state":"Fukuoka-Ken","zip":"807-0051","country":"Japan"},{"facility":"Chiyukai Shin Yukuhashi Hospital","city":"Yukuhashi-shi","state":"Fukuoka-Ken","zip":"824-0026","country":"Japan","geoPoint":{"lat":33.72873,"lon":130.983}},{"facility":"Southern Tohoku General Hospital","city":"Koriyama-shi","state":"Fukushima-Ken","zip":"963-8052","country":"Japan","geoPoint":{"lat":37.4,"lon":140.38333}},{"facility":"Gifu Prefectural General Medical Center","city":"Gifu-shi","state":"Gifu-Ken","zip":"500-8717","country":"Japan","geoPoint":{"lat":35.42291,"lon":136.76039}},{"facility":"Showakai Brain Attack Center Ota Memorial Hospital","city":"Fukuyama-shi","state":"Hiroshima-Ken","zip":"720-0825","country":"Japan","geoPoint":{"lat":34.48333,"lon":133.36667}},{"facility":"Asahikawa Red Cross Hospital","city":"Asahikawa-shi","state":"Hokkaido","zip":"070 8530","country":"Japan","geoPoint":{"lat":43.77063,"lon":142.36489}},{"facility":"Ohnishi Neurological Center","city":"Akashi-shi","state":"Hyogo-Ken","zip":"674-0064","country":"Japan","geoPoint":{"lat":34.65522,"lon":135.00687}},{"facility":"Kobe City Hospital Organization Kobe City Medical Center General Hospital","city":"Kobe-shi","state":"Hyogo-Ken","zip":"650-0047","country":"Japan","geoPoint":{"lat":34.6913,"lon":135.183}},{"facility":"Tsuchiura Kyodo General Hospital","city":"Tsuchiura-shi","state":"Ibaraki-Ken","zip":"300-0028","country":"Japan","geoPoint":{"lat":36.09047,"lon":140.21047}},{"facility":"Iwate Prefectural Central Hospital","city":"Morioka-shi","state":"Iwate-Ken","zip":"020-0066","country":"Japan","geoPoint":{"lat":39.7,"lon":141.15}},{"facility":"St. Marianna University Hospital","city":"Kawasaki-shi","state":"Kanagawa-Ken","zip":"216-8511","country":"Japan","geoPoint":{"lat":35.52056,"lon":139.71722}},{"facility":"NHO Sendai Medical Center","city":"Sendai-shi","state":"Miyagi-Ken","zip":"983-8520","country":"Japan","geoPoint":{"lat":38.26667,"lon":140.86667}},{"facility":"Kurashiki Central Hospital","city":"Kurashiki-shi","state":"Okayama-Ken","zip":"710-8602","country":"Japan","geoPoint":{"lat":34.58333,"lon":133.76667}},{"facility":"Okayama City General Medical Center Okayama City Hospital","city":"Okayama-shi","state":"Okayama-Ken","zip":"700-8557","country":"Japan","geoPoint":{"lat":34.65,"lon":133.93333}},{"facility":"National Cerebral and Cardiovascular Center","city":"Suita","state":"Osaka Prefecture","zip":"564-8565","country":"Japan","geoPoint":{"lat":34.76143,"lon":135.51567}},{"facility":"Rinku General Medical Center","city":"Izumisano-shi","state":"Osaka-Fu","zip":"598-8577","country":"Japan","geoPoint":{"lat":34.41663,"lon":135.31667}},{"facility":"Saitama Medical University International Medical Center","city":"Hidaka-shi","state":"Saitama-Ken","zip":"350 1298","country":"Japan"},{"facility":"Nippon Medical School Hospital","city":"Bunkyo-ku","state":"Tokyo-To","zip":"113-8603","country":"Japan","geoPoint":{"lat":35.37517,"lon":139.92991}},{"facility":"Tokyo Metropolitan Tama Medical Center","city":"Fuchu-shi","state":"Tokyo-To","zip":"183-8524","country":"Japan"},{"facility":"Kyorin University Hospital","city":"Mitaka-shi","state":"Tokyo-To","zip":"181-8611","country":"Japan","geoPoint":{"lat":35.68351,"lon":139.55963}},{"facility":"NHO Minami Wakayama Medical Center","city":"Tanabe-shi","state":"Wakayama-Ken","zip":"646 8558","country":"Japan","geoPoint":{"lat":33.73333,"lon":135.36667}},{"facility":"Yamaguchi University Hospital","city":"Ube-shi","state":"Yamaguchi-Ken","zip":"755-8505","country":"Japan","geoPoint":{"lat":33.94306,"lon":131.25111}},{"facility":"Yamanashi Prefectural Central Hospital","city":"Kofu-shi","state":"Yamanashi-Ken","zip":"400-8506","country":"Japan","geoPoint":{"lat":35.66669,"lon":138.56668}},{"facility":"Seoul National University Bundang Hospital","city":"Seongnam","state":"Gyeonggi-do","zip":"13620","country":"Korea, Republic of","geoPoint":{"lat":37.43861,"lon":127.13778}},{"facility":"Kyungpook National University Hospital","city":"Daegu","state":"Gyeongsangnam-do","zip":"41944","country":"Korea, Republic of","geoPoint":{"lat":35.87028,"lon":128.59111}},{"facility":"Dong-A University Hospital","city":"Busan","zip":"49201","country":"Korea, Republic of","geoPoint":{"lat":35.10278,"lon":129.04028}},{"facility":"Asan Medical Center","city":"Seoul","zip":"5505","country":"Korea, Republic of","geoPoint":{"lat":37.566,"lon":126.9784}},{"facility":"Hospital of Lithuanian University of Health Sciences Kaunas Clinics","city":"Kaunas","zip":"50161","country":"Lithuania","geoPoint":{"lat":54.90272,"lon":23.90961}},{"facility":"Republican Vilnius University Hospital, Public Institution","city":"Vilnius","zip":"04130","country":"Lithuania","geoPoint":{"lat":54.68916,"lon":25.2798}},{"facility":"Vilnius University Hospital Santariskiu Clinic, Public Institution","city":"Vilnius","zip":"08661","country":"Lithuania","geoPoint":{"lat":54.68916,"lon":25.2798}},{"facility":"Centro Hospitalar de Entre o Douro e Vouga, E.P.E. - Hospital de São Sebastião","city":"Santa Maria da Feira","state":"Aveiro","zip":"4520-211","country":"Portugal","geoPoint":{"lat":40.92726,"lon":-8.54839}},{"facility":"Unidade Local de Saúde de Matosinhos, E.P.E. - Hospital Pedro Hispano","city":"Matosinhos","state":"Porto","zip":"4454-509","country":"Portugal","geoPoint":{"lat":41.18207,"lon":-8.68908}},{"facility":"Hospital Garcia de Orta, EPE","city":"Almada","state":"Setubal","zip":"2801-915","country":"Portugal","geoPoint":{"lat":38.67902,"lon":-9.1569}},{"facility":"Centro Hospitalar e Universitário de Coimbra E.P.E. - Hospitais da Universidade de Coimbra","city":"Coimbra","zip":"3000-075","country":"Portugal","geoPoint":{"lat":40.20564,"lon":-8.41955}},{"facility":"Centro Hospitalar de Lisboa Ocidental, E.P.E. - Hospital de Egas Moniz","city":"Lisboa","zip":"1349-019","country":"Portugal","geoPoint":{"lat":38.71667,"lon":-9.13333}},{"facility":"Centro Hospitalar de Lisboa Norte, E.P.E. - Hospital de Santa Maria","city":"Lisboa","zip":"1649-035","country":"Portugal","geoPoint":{"lat":38.71667,"lon":-9.13333}},{"facility":"Centro Hospitalar de São João, E.P.E","city":"Porto","zip":"4200-319","country":"Portugal","geoPoint":{"lat":41.14961,"lon":-8.61099}},{"facility":"SPb SBIH 'City Hospital # 26'","city":"Saint Petersburg","state":"Leningrad","zip":"196247","country":"Russian Federation","geoPoint":{"lat":59.93863,"lon":30.31413}},{"facility":"Saint-Petersburg Scientific-Research Institute of Emergency Care","city":"St. Petersburg","state":"Leningrad","zip":"192242","country":"Russian Federation","geoPoint":{"lat":59.93863,"lon":30.31413}},{"facility":"SBEI HPE 'Kazan State Medical University' of the MoH of the RF","city":"Kazan","state":"Respublka Tatarstan","zip":"420061","country":"Russian Federation","geoPoint":{"lat":55.78874,"lon":49.12214}},{"facility":"SHI \"Territorial Clinical Hospital #1 n.a. S.V. Ochapovsky\"","city":"Krasnodar","zip":"350086","country":"Russian Federation","geoPoint":{"lat":45.04484,"lon":38.97603}},{"facility":"SBIH of Moscow 'City Clinical Hospital # 1 n. a. N. I. Pirogov'","city":"Moscow","zip":"119049","country":"Russian Federation","geoPoint":{"lat":55.75222,"lon":37.61556}},{"facility":"Hospital Universitari de Bellvitge","city":"L'Hospitalet de Llobregat","state":"Barcelona","zip":"08907","country":"Spain","geoPoint":{"lat":41.35967,"lon":2.10028}},{"facility":"Hospital Universitario Reina Sofia","city":"Cordoba","state":"Córdoba","zip":"14004","country":"Spain","geoPoint":{"lat":37.89155,"lon":-4.77275}},{"facility":"Complejo Hospitalario Universitario de Santiago","city":"Santiago de Compostela","state":"La Coruña","zip":"15706","country":"Spain","geoPoint":{"lat":42.88052,"lon":-8.54569}},{"facility":"Hospital Regional Universitario de Malaga","city":"Malaga","state":"Málaga","zip":"29010","country":"Spain","geoPoint":{"lat":36.72016,"lon":-4.42034}},{"facility":"Hospital del Mar","city":"Barcelona","zip":"08003","country":"Spain","geoPoint":{"lat":41.38879,"lon":2.15899}},{"facility":"Hospital Universitari Vall d'Hebron","city":"Barcelona","zip":"08035","country":"Spain","geoPoint":{"lat":41.38879,"lon":2.15899}},{"facility":"Hospital Universitari de Girona Dr Josep Trueta","city":"Girona","zip":"17007","country":"Spain","geoPoint":{"lat":41.98311,"lon":2.82493}},{"facility":"Hospital Universitario Ramon y Cajal","city":"Madrid","zip":"28034","country":"Spain","geoPoint":{"lat":40.4165,"lon":-3.70256}},{"facility":"Hospital Universitario Virgen del Rocio","city":"Sevilla","zip":"41013","country":"Spain","geoPoint":{"lat":37.38283,"lon":-5.97317}},{"facility":"Hospital Universitario Virgen Macarena","city":"Sevilla","zip":"41071","country":"Spain","geoPoint":{"lat":37.38283,"lon":-5.97317}},{"facility":"Hospital Universitari i Politecnic La Fe","city":"Valencia","zip":"46026","country":"Spain","geoPoint":{"lat":39.46975,"lon":-0.37739}},{"facility":"Hospital Clinico Universitario de Valladolid","city":"Valladolid","zip":"47005","country":"Spain","geoPoint":{"lat":41.65518,"lon":-4.72372}},{"facility":"Ospedale Regionale di Lugano","city":"Lugano","state":"Ticino","zip":"6900","country":"Switzerland","geoPoint":{"lat":46.01008,"lon":8.96004}},{"facility":"Inselspital - Universitaetsspital Bern","city":"Bern","zip":"3010","country":"Switzerland","geoPoint":{"lat":46.94809,"lon":7.44744}},{"facility":"Kaohsiung Chang Gung Memorial Hospital","city":"Kaohsiung","zip":"833","country":"Taiwan","geoPoint":{"lat":22.61626,"lon":120.31333}},{"facility":"National Cheng Kung University Hospital","city":"Tainan","zip":"70403","country":"Taiwan","geoPoint":{"lat":22.99083,"lon":120.21333}},{"facility":"National Taiwan University Hospital","city":"Taipei","zip":"10002","country":"Taiwan","geoPoint":{"lat":25.04776,"lon":121.53185}},{"facility":"Chang Gung Memorial Hospital,Linkou","city":"Taoyuan","zip":"333","country":"Taiwan","geoPoint":{"lat":24.95233,"lon":121.20193}},{"facility":"Addenbrooke's Hospital","city":"Cambridge","state":"Cambridgeshire","zip":"CB2 0QQ","country":"United Kingdom","geoPoint":{"lat":52.2,"lon":0.11667}},{"facility":"King's College Hospital","city":"London","state":"Greater London","zip":"SE5 8EF","country":"United Kingdom","geoPoint":{"lat":51.50853,"lon":-0.12574}},{"facility":"Imp Coll Health Nhst 1","city":"London","state":"Greater London","zip":"W6 8RF","country":"United Kingdom","geoPoint":{"lat":51.50853,"lon":-0.12574}},{"facility":"The National Hospital for Neurology & Neurosurgery","city":"London","state":"Greater London","zip":"WC1N 3BG","country":"United Kingdom","geoPoint":{"lat":51.50853,"lon":-0.12574}},{"facility":"Nottingham University Hospitals City Campus","city":"Nottingham","state":"Nottinghamshire","zip":"NG5 1PB","country":"United Kingdom","geoPoint":{"lat":52.9536,"lon":-1.15047}},{"facility":"Queen Elizabeth University Hospital Campus","city":"Glasgow","state":"Strathclyde","zip":"G51 4TF","country":"United Kingdom","geoPoint":{"lat":55.86515,"lon":-4.25763}},{"facility":"Newcastle University- Clinical Ageing Research Unit","city":"Newcastle upon Tyne","state":"Tyne & Wear","zip":"NE4 5PL","country":"United Kingdom","geoPoint":{"lat":54.97328,"lon":-1.61396}}]},"ipdSharingStatementModule":{"ipdSharing":"NO"}},"resultsSection":{"participantFlowModule":{"preAssignmentDetails":"A total of 535 participants were enrolled and randomised, out of which 518 participants were dosed with BIIB093 or a matching placebo.","recruitmentDetails":"Participants were enrolled at investigative sites in the United States, Brazil, China, Spain, Japan, Australia, Portugal, Germany, United Kingdom, Finland, Canada, Israel, France, Taiwan, Hungary, Czech Republic, Italy, Belgium, Lithuania, Russia and South Korea from 29 August 2018 to 18 August 2023.","groups":[{"id":"FG000","title":"Placebo","description":"Participants were administered with BIIB093 matching placebo as an intravenous (IV) bolus on Day 1 followed by a continuous IV infusion for over 72 hours."},{"id":"FG001","title":"BIIB093","description":"Participants were administered with BIIB093 as an IV bolus on Day 1 followed by continuous IV infusion for over 72 hours."}],"periods":[{"title":"Overall Study","milestones":[{"type":"STARTED","achievements":[{"groupId":"FG000","numSubjects":"268"},{"groupId":"FG001","numSubjects":"267"}]},{"type":"COMPLETED","achievements":[{"groupId":"FG000","numSubjects":"215"},{"groupId":"FG001","numSubjects":"213"}]},{"type":"NOT COMPLETED","achievements":[{"groupId":"FG000","numSubjects":"53"},{"groupId":"FG001","numSubjects":"54"}]}],"dropWithdraws":[{"type":"Adverse Event","reasons":[{"groupId":"FG000","numSubjects":"22"},{"groupId":"FG001","numSubjects":"19"}]},{"type":"Withdrawal by Subject","reasons":[{"groupId":"FG000","numSubjects":"1"},{"groupId":"FG001","numSubjects":"0"}]},{"type":"Physician Decision","reasons":[{"groupId":"FG000","numSubjects":"4"},{"groupId":"FG001","numSubjects":"2"}]},{"type":"Death","reasons":[{"groupId":"FG000","numSubjects":"3"},{"groupId":"FG001","numSubjects":"13"}]},{"type":"Reason not specified","reasons":[{"groupId":"FG000","numSubjects":"14"},{"groupId":"FG001","numSubjects":"12"}]},{"type":"Withdrew Prior to Dosing","reasons":[{"groupId":"FG000","numSubjects":"9"},{"groupId":"FG001","numSubjects":"8"}]}]}]},"baselineCharacteristicsModule":{"populationDescription":"The Intent-to-treat (ITT) population included all randomized participants.","groups":[{"id":"BG000","title":"Placebo","description":"Participants were administered with BIIB093 matching placebo as an IV bolus on Day 1 followed by a continuous IV infusion for over 72 hours."},{"id":"BG001","title":"BIIB093","description":"Participants were administered with BIIB093 as an IV bolus on Day 1 followed by continuous IV infusion for over 72 hours."},{"id":"BG002","title":"Total","description":"Total of all reporting groups"}],"denoms":[{"units":"Participants","counts":[{"groupId":"BG000","value":"268"},{"groupId":"BG001","value":"267"},{"groupId":"BG002","value":"535"}]}],"measures":[{"title":"Age, Continuous","paramType":"MEAN","dispersionType":"STANDARD_DEVIATION","unitOfMeasure":"years","classes":[{"categories":[{"measurements":[{"groupId":"BG000","value":"61.6","spread":"10.81"},{"groupId":"BG001","value":"60.5","spread":"11.17"},{"groupId":"BG002","value":"61.1","spread":"11"}]}]}]},{"title":"Sex: Female, Male","paramType":"COUNT_OF_PARTICIPANTS","unitOfMeasure":"Participants","classes":[{"categories":[{"title":"Female","measurements":[{"groupId":"BG000","value":"104"},{"groupId":"BG001","value":"98"},{"groupId":"BG002","value":"202"}]},{"title":"Male","measurements":[{"groupId":"BG000","value":"164"},{"groupId":"BG001","value":"169"},{"groupId":"BG002","value":"333"}]}]}]},{"title":"Race/Ethnicity, Customized","paramType":"COUNT_OF_PARTICIPANTS","unitOfMeasure":"Participants","classes":[{"title":"Ethnicity","categories":[{"title":"Missing","measurements":[{"groupId":"BG000","value":"1"},{"groupId":"BG001","value":"2"},{"groupId":"BG002","value":"3"}]},{"title":"Hispanic or Latino","measurements":[{"groupId":"BG000","value":"36"},{"groupId":"BG001","value":"41"},{"groupId":"BG002","value":"77"}]},{"title":"Not Hispanic or Latino","measurements":[{"groupId":"BG000","value":"228"},{"groupId":"BG001","value":"223"},{"groupId":"BG002","value":"451"}]},{"title":"Not reported","measurements":[{"groupId":"BG000","value":"3"},{"groupId":"BG001","value":"1"},{"groupId":"BG002","value":"4"}]}]}]},{"title":"Race/Ethnicity, Customized","paramType":"COUNT_OF_PARTICIPANTS","unitOfMeasure":"Participants","classes":[{"title":"Race","categories":[{"title":"Missing","measurements":[{"groupId":"BG000","value":"3"},{"groupId":"BG001","value":"2"},{"groupId":"BG002","value":"5"}]},{"title":"American Indian or Alaska Native","measurements":[{"groupId":"BG000","value":"1"},{"groupId":"BG001","value":"1"},{"groupId":"BG002","value":"2"}]},{"title":"Asian","measurements":[{"groupId":"BG000","value":"53"},{"groupId":"BG001","value":"51"},{"groupId":"BG002","value":"104"}]},{"title":"Black or African American","measurements":[{"groupId":"BG000","value":"21"},{"groupId":"BG001","value":"19"},{"groupId":"BG002","value":"40"}]},{"title":"Native Hawaiian or Other Pacific Islander","measurements":[{"groupId":"BG000","value":"2"},{"groupId":"BG001","value":"0"},{"groupId":"BG002","value":"2"}]},{"title":"White","measurements":[{"groupId":"BG000","value":"173"},{"groupId":"BG001","value":"177"},{"groupId":"BG002","value":"350"}]},{"title":"Not reported due to confidentiality regulations","measurements":[{"groupId":"BG000","value":"3"},{"groupId":"BG001","value":"1"},{"groupId":"BG002","value":"4"}]},{"title":"Other","measurements":[{"groupId":"BG000","value":"12"},{"groupId":"BG001","value":"16"},{"groupId":"BG002","value":"28"}]}]}]}]},"outcomeMeasuresModule":{"outcomeMeasures":[{"type":"PRIMARY","title":"Part 1: Percentage of Participants With Improvement in Functional Outcome at Day 90 Assessed Via the Modified Rankin Scale (mRS)","description":"The mRS measures the degree of functional independence following stroke. In this study, 7-category ordinal mRS scale was condensed to the following 5-categories: 0/1, 2, 3, 4, 5/6 where 0 and 1 reflect no disability and near-normal functioning while 5 and 6 represent severe disability and death, respectively.","populationDescription":"The modified intent to treat (mITT) population included participants aged 18 to 70 years (inclusive) at the time of randomization, who had received any study drug, and who had at least 1 post-baseline mRS before or at Day 90 visit. Here, 'Overall number of participants analyzed' signifies the number of participants with data available for outcome measure analysis.","reportingStatus":"POSTED","paramType":"NUMBER","unitOfMeasure":"percentage of participants","timeFrame":"Day 90","groups":[{"id":"OG000","title":"Placebo","description":"Participants were administered with BIIB093 matching placebo as an IV bolus on Day 1 followed by a continuous IV infusion for over 72 hours."},{"id":"OG001","title":"BIIB093","description":"Participants were administered with BIIB093 as an IV bolus on Day 1 followed by continuous IV infusion for over 72 hours."}],"denoms":[{"units":"Participants","counts":[{"groupId":"OG000","value":"214"},{"groupId":"OG001","value":"217"}]}],"classes":[{"title":"Score: 0/1","categories":[{"measurements":[{"groupId":"OG000","value":"1.4"},{"groupId":"OG001","value":"3.2"}]}]},{"title":"Score: 2","categories":[{"measurements":[{"groupId":"OG000","value":"2.8"},{"groupId":"OG001","value":"5.1"}]}]},{"title":"Score: 3","categories":[{"measurements":[{"groupId":"OG000","value":"12.6"},{"groupId":"OG001","value":"12.0"}]}]},{"title":"Score: 4","categories":[{"measurements":[{"groupId":"OG000","value":"25.2"},{"groupId":"OG001","value":"23.5"}]}]},{"title":"Score: 5/6","categories":[{"measurements":[{"groupId":"OG000","value":"57.9"},{"groupId":"OG001","value":"56.2"}]}]}],"analyses":[{"groupIds":["OG000","OG001"],"nonInferiorityType":"SUPERIORITY","pValue":"=0.4150","pValueComment":"P-value was analyzed by ordinal logistic regression adjusting for covariates: region, and IRT stratification factors including rtPA usage (yes/no), thrombectomy usage (yes/no), use of ASPECTS for screening (yes/no), baseline NIHSS (\\<=20 vs. \\>20).","statisticalMethod":"Regression, Logistic","paramType":"Odds Ratio (OR)","paramValue":"1.17","ciPctValue":"95","ciNumSides":"TWO_SIDED","ciLowerLimit":"0.80","ciUpperLimit":"1.71"}]},{"type":"SECONDARY","title":"Part 1: Time to All-Cause Death Through Day 90","description":"Time to all-cause death is defined as the time from randomization to the time of death.","populationDescription":"The mITT population included participants aged 18 to 70 years (inclusive) at the time of randomization, who received any study drug, and who had at least 1 post-baseline mRS before or at the Day 90 visit. Here, 'Overall number of participants analyzed' signifies number of participants with data available for outcome measure analysis.","reportingStatus":"POSTED","paramType":"MEDIAN","dispersionType":"Inter-Quartile Range","unitOfMeasure":"days","timeFrame":"Randomization up to Day 90","groups":[{"id":"OG000","title":"Placebo","description":"Participants were administered with BIIB093 matching placebo as an IV bolus on Day 1 followed by a continuous IV infusion for over 72 hours."},{"id":"OG001","title":"BIIB093","description":"Participants were administered with BIIB093 as an IV bolus on Day 1 followed by continuous IV infusion for over 72 hours."}],"denoms":[{"units":"Participants","counts":[{"groupId":"OG000","value":"214"},{"groupId":"OG001","value":"217"}]}],"classes":[{"categories":[{"measurements":[{"groupId":"OG000","value":"NA","lowerLimit":"37","upperLimit":"NA","comment":"Median and upper limit of inter quartile range were not reached due to insufficient number of participants with events."},{"groupId":"OG001","value":"NA","lowerLimit":"18","upperLimit":"NA","comment":"Median and upper limit of inter quartile range were not reached due to insufficient number of participants with events."}]}]}]},{"type":"SECONDARY","title":"Part 1: Percentage of Participants Who Achieved mRS 0-4 at Day 90","description":"The mRS measures the degree of functional independence following stroke. In this study, the 7-category ordinal mRS scale was condensed to the following 5-categories: 0/1, 2, 3, 4, 5/6 where 0 and 1 reflect no disability and near-normal functioning while 5 and 6 represent severe disability and death, respectively.","populationDescription":"The mITT population included participants aged 18 to 70 years (inclusive) at the time of randomization, who received any study drug, and who had at least 1 post-baseline mRS before or at the Day 90 visit. Here, 'Overall number of participants analyzed' signifies number of participants with data available for outcome measure analysis.","reportingStatus":"POSTED","paramType":"NUMBER","unitOfMeasure":"percentage of participants","timeFrame":"Day 90","groups":[{"id":"OG000","title":"Placebo","description":"Participants were administered with BIIB093 matching placebo as an IV bolus on Day 1 followed by a continuous IV infusion for over 72 hours."},{"id":"OG001","title":"BIIB093","description":"Participants were administered with BIIB093 as an IV bolus on Day 1 followed by continuous IV infusion for over 72 hours."}],"denoms":[{"units":"Participants","counts":[{"groupId":"OG000","value":"214"},{"groupId":"OG001","value":"217"}]}],"classes":[{"categories":[{"measurements":[{"groupId":"OG000","value":"41.6"},{"groupId":"OG001","value":"42.9"}]}]}],"analyses":[{"groupIds":["OG000","OG001"],"nonInferiorityType":"SUPERIORITY","pValue":"=0.7413","pValueComment":"A logistic regression model was used to estimate an odds ratio (and 95% CI) of improvement on the mRS dichotomized as 0-4 vs. 5-6 at Day 90.","statisticalMethod":"Regression, Logistic","paramType":"Odds Ratio (OR)","paramValue":"1.07","ciPctValue":"95","ciNumSides":"TWO_SIDED","ciLowerLimit":"0.72","ciUpperLimit":"1.60"}]},{"type":"SECONDARY","title":"Part 1: Midline Shift at 72 Hours as Assessed by Non-contrast Computed Tomography (NCCT) or Magnetic Resonance Imaging (MRI)","description":"Midline shift is the perpendicular distance between the septum pellucidum and the line drawn between the anterior and posterior attachments of the falx to the inner table of the skull.","populationDescription":"The mITT population included participants aged 18 to 70 years (inclusive) at the time of randomization, who received any study drug, and who had at least 1 post-baseline mRS before or at the Day 90 visit. Here, 'Overall number of participants analyzed' signifies the number of participants with data available for outcome measure analysis.","reportingStatus":"POSTED","paramType":"MEAN","dispersionType":"Standard Deviation","unitOfMeasure":"millimeters (mm)","timeFrame":"At 72 hours","groups":[{"id":"OG000","title":"Placebo","description":"Participants were administered with BIIB093 matching placebo as an IV bolus on Day 1 followed by a continuous IV infusion for over 72 hours."},{"id":"OG001","title":"BIIB093","description":"Participants were administered with BIIB093 as an IV bolus on Day 1 followed by continuous IV infusion for over 72 hours."}],"denoms":[{"units":"Participants","counts":[{"groupId":"OG000","value":"150"},{"groupId":"OG001","value":"155"}]}],"classes":[{"categories":[{"measurements":[{"groupId":"OG000","value":"6.32","spread":"4.760"},{"groupId":"OG001","value":"7.02","spread":"4.565"}]}]}],"analyses":[{"groupIds":["OG000","OG001"],"nonInferiorityType":"SUPERIORITY","pValue":"=0.1242","pValueComment":"Analysis of Variance (ANOVA) was used to compare the two study arms to assess the treatment effects on midline shift.","statisticalMethod":"ANOVA","paramType":"Mean Difference (Final Values)","paramValue":"0.82","ciPctValue":"95","ciNumSides":"TWO_SIDED","ciLowerLimit":"-0.23","ciUpperLimit":"1.87"}]},{"type":"SECONDARY","title":"Part 1: Percentage of Participants With Adverse Events (AEs) and Serious Adverse Events (SAEs)","description":"An AE is any untoward medical occurrence in a participant or clinical investigation participant administered a pharmaceutical product and that does not necessarily have a causal relationship with this treatment. An AE can therefore be any unfavorable and unintended sign (including an abnormal laboratory finding), symptom, or disease temporally associated with the use of a medicinal (investigational) product, whether or not related to the medicinal (investigational) product. A SAE is any untoward medical occurrence that at any dose results in death, life-threatening event, requires inpatient hospitalization, significant disability/incapacity or congenital anomaly.","populationDescription":"The safety population included all participants who were enrolled and had received any portion of the infusion of study treatment (placebo or BIIB093). Here, 'Overall number of participants analyzed' signifies the number of participants with data available for outcome measure analysis.","reportingStatus":"POSTED","paramType":"NUMBER","unitOfMeasure":"percentage of participants","timeFrame":"From the signing of informed consent up to the last follow-up visit (up to 4 years 11 months)","groups":[{"id":"OG000","title":"Placebo","description":"Participants were administered with BIIB093 matching placebo as an IV bolus on Day 1 followed by a continuous IV infusion for over 72 hours."},{"id":"OG001","title":"BIIB093","description":"Participants were administered with BIIB093 as an IV bolus on Day 1 followed by continuous IV infusion for over 72 hours."}],"denoms":[{"units":"Participants","counts":[{"groupId":"OG000","value":"259"},{"groupId":"OG001","value":"259"}]}],"classes":[{"title":"AEs","categories":[{"measurements":[{"groupId":"OG000","value":"95.4"},{"groupId":"OG001","value":"97.3"}]}]},{"title":"SAEs","categories":[{"measurements":[{"groupId":"OG000","value":"68.3"},{"groupId":"OG001","value":"76.8"}]}]}]}]},"adverseEventsModule":{"frequencyThreshold":"5","timeFrame":"From the signing of informed consent up to the last follow-up visit (up to 4 years 11 months)","description":"The safety population included all participants who were enrolled and had received any portion of the infusion of study treatment (placebo or BIIB093).","eventGroups":[{"id":"EG000","title":"Placebo","description":"Participants were administered with BIIB093 matching placebo as an IV bolus followed by a continuous IV infusion for over 72 hours.","deathsNumAffected":97,"deathsNumAtRisk":259,"seriousNumAffected":177,"seriousNumAtRisk":259,"otherNumAffected":199,"otherNumAtRisk":259},{"id":"EG001","title":"BIIB093","description":"Participants were administered with BIIB093 as an IV bolus followed by continuous IV infusion for over 72 hours.","deathsNumAffected":103,"deathsNumAtRisk":259,"seriousNumAffected":199,"seriousNumAtRisk":259,"otherNumAffected":201,"otherNumAtRisk":259}],"seriousEvents":[{"term":"Anaemia","organSystem":"Blood and lymphatic system disorders","sourceVocabulary":"MedDRA 26.0","assessmentType":"SYSTEMATIC_ASSESSMENT","stats":[{"groupId":"EG000","numAffected":3,"numAtRisk":259},{"groupId":"EG001","numAffected":2,"numAtRisk":259}]},{"term":"Blood loss anaemia","organSystem":"Blood and lymphatic system disorders","sourceVocabulary":"MedDRA 26.0","assessmentType":"SYSTEMATIC_ASSESSMENT","stats":[{"groupId":"EG000","numAffected":1,"numAtRisk":259},{"groupId":"EG001","numAffected":0,"numAtRisk":259}]},{"term":"Disseminated intravascular coagulation","organSystem":"Blood and lymphatic system disorders","sourceVocabulary":"MedDRA 26.0","assessmentType":"SYSTEMATIC_ASSESSMENT","stats":[{"groupId":"EG000","numAffected":0,"numAtRisk":259},{"groupId":"EG001","numAffected":1,"numAtRisk":259}]},{"term":"Neutropenia","organSystem":"Blood and lymphatic system disorders","sourceVocabulary":"MedDRA 26.0","assessmentType":"SYSTEMATIC_ASSESSMENT","stats":[{"groupId":"EG000","numAffected":1,"numAtRisk":259},{"groupId":"EG001","numAffected":0,"numAtRisk":259}]},{"term":"Acute coronary syndrome","organSystem":"Cardiac disorders","sourceVocabulary":"MedDRA 26.0","assessmentType":"SYSTEMATIC_ASSESSMENT","stats":[{"groupId":"EG000","numAffected":1,"numAtRisk":259},{"groupId":"EG001","numAffected":0,"numAtRisk":259}]},{"term":"Acute myocardial infarction","organSystem":"Cardiac disorders","sourceVocabulary":"MedDRA 26.0","assessmentType":"SYSTEMATIC_ASSESSMENT","stats":[{"groupId":"EG000","numAffected":2,"numAtRisk":259},{"groupId":"EG001","numAffected":1,"numAtRisk":259}]},{"term":"Atrial fibrillation","organSystem":"Cardiac disorders","sourceVocabulary":"MedDRA 26.0","assessmentType":"SYSTEMATIC_ASSESSMENT","stats":[{"groupId":"EG000","numAffected":4,"numAtRisk":259},{"groupId":"EG001","numAffected":2,"numAtRisk":259}]},{"term":"Atrial flutter","organSystem":"Cardiac disorders","sourceVocabulary":"MedDRA 26.0","assessmentType":"SYSTEMATIC_ASSESSMENT","stats":[{"groupId":"EG000","numAffected":1,"numAtRisk":259},{"groupId":"EG001","numAffected":0,"numAtRisk":259}]},{"term":"Bradycardia","organSystem":"Cardiac disorders","sourceVocabulary":"MedDRA 26.0","assessmentType":"SYSTEMATIC_ASSESSMENT","stats":[{"groupId":"EG000","numAffected":1,"numAtRisk":259},{"groupId":"EG001","numAffected":1,"numAtRisk":259}]},{"term":"Cardiac arrest","organSystem":"Cardiac disorders","sourceVocabulary":"MedDRA 26.0","assessmentType":"SYSTEMATIC_ASSESSMENT","stats":[{"groupId":"EG000","numAffected":5,"numAtRisk":259},{"groupId":"EG001","numAffected":5,"numAtRisk":259}]},{"term":"Cardiac failure","organSystem":"Cardiac disorders","sourceVocabulary":"MedDRA 26.0","assessmentType":"SYSTEMATIC_ASSESSMENT","stats":[{"groupId":"EG000","numAffected":2,"numAtRisk":259},{"groupId":"EG001","numAffected":1,"numAtRisk":259}]},{"term":"Cardiac failure congestive","organSystem":"Cardiac disorders","sourceVocabulary":"MedDRA 26.0","assessmentType":"SYSTEMATIC_ASSESSMENT","stats":[{"groupId":"EG000","numAffected":2,"numAtRisk":259},{"groupId":"EG001","numAffected":0,"numAtRisk":259}]},{"term":"Cardiac ventricular thrombosis","organSystem":"Cardiac disorders","sourceVocabulary":"MedDRA 26.0","assessmentType":"SYSTEMATIC_ASSESSMENT","stats":[{"groupId":"EG000","numAffected":0,"numAtRisk":259},{"groupId":"EG001","numAffected":2,"numAtRisk":259}]},{"term":"Cardio-respiratory arrest","organSystem":"Cardiac disorders","sourceVocabulary":"MedDRA 26.0","assessmentType":"SYSTEMATIC_ASSESSMENT","stats":[{"groupId":"EG000","numAffected":2,"numAtRisk":259},{"groupId":"EG001","numAffected":1,"numAtRisk":259}]},{"term":"Cardiogenic shock","organSystem":"Cardiac disorders","sourceVocabulary":"MedDRA 26.0","assessmentType":"SYSTEMATIC_ASSESSMENT","stats":[{"groupId":"EG000","numAffected":1,"numAtRisk":259},{"groupId":"EG001","numAffected":1,"numAtRisk":259}]},{"term":"Cardiomyopathy","organSystem":"Cardiac disorders","sourceVocabulary":"MedDRA 26.0","assessmentType":"SYSTEMATIC_ASSESSMENT","stats":[{"groupId":"EG000","numAffected":1,"numAtRisk":259},{"groupId":"EG001","numAffected":0,"numAtRisk":259}]},{"term":"Cardiopulmonary failure","organSystem":"Cardiac disorders","sourceVocabulary":"MedDRA 26.0","assessmentType":"SYSTEMATIC_ASSESSMENT","stats":[{"groupId":"EG000","numAffected":1,"numAtRisk":259},{"groupId":"EG001","numAffected":2,"numAtRisk":259}]},{"term":"Dilated cardiomyopathy","organSystem":"Cardiac disorders","sourceVocabulary":"MedDRA 26.0","assessmentType":"SYSTEMATIC_ASSESSMENT","stats":[{"groupId":"EG000","numAffected":1,"numAtRisk":259},{"groupId":"EG001","numAffected":0,"numAtRisk":259}]},{"term":"Myocardial infarction","organSystem":"Cardiac disorders","sourceVocabulary":"MedDRA 26.0","assessmentType":"SYSTEMATIC_ASSESSMENT","stats":[{"groupId":"EG000","numAffected":1,"numAtRisk":259},{"groupId":"EG001","numAffected":1,"numAtRisk":259}]},{"term":"Myocardial ischaemia","organSystem":"Cardiac disorders","sourceVocabulary":"MedDRA 26.0","assessmentType":"SYSTEMATIC_ASSESSMENT","stats":[{"groupId":"EG000","numAffected":1,"numAtRisk":259},{"groupId":"EG001","numAffected":0,"numAtRisk":259}]},{"term":"Pericardial effusion","organSystem":"Cardiac disorders","sourceVocabulary":"MedDRA 26.0","assessmentType":"SYSTEMATIC_ASSESSMENT","stats":[{"groupId":"EG000","numAffected":1,"numAtRisk":259},{"groupId":"EG001","numAffected":0,"numAtRisk":259}]},{"term":"Sinus tachycardia","organSystem":"Cardiac disorders","sourceVocabulary":"MedDRA 26.0","assessmentType":"SYSTEMATIC_ASSESSMENT","stats":[{"groupId":"EG000","numAffected":0,"numAtRisk":259},{"groupId":"EG001","numAffected":1,"numAtRisk":259}]},{"term":"Tachycardia paroxysmal","organSystem":"Cardiac disorders","sourceVocabulary":"MedDRA 26.0","assessmentType":"SYSTEMATIC_ASSESSMENT","stats":[{"groupId":"EG000","numAffected":0,"numAtRisk":259},{"groupId":"EG001","numAffected":1,"numAtRisk":259}]},{"term":"Ventricular fibrillation","organSystem":"Cardiac disorders","sourceVocabulary":"MedDRA 26.0","assessmentType":"SYSTEMATIC_ASSESSMENT","stats":[{"groupId":"EG000","numAffected":1,"numAtRisk":259},{"groupId":"EG001","numAffected":1,"numAtRisk":259}]},{"term":"Ventricular tachycardia","organSystem":"Cardiac disorders","sourceVocabulary":"MedDRA 26.0","assessmentType":"SYSTEMATIC_ASSESSMENT","stats":[{"groupId":"EG000","numAffected":2,"numAtRisk":259},{"groupId":"EG001","numAffected":0,"numAtRisk":259}]},{"term":"Atrial septal defect","organSystem":"Congenital, familial and genetic disorders","sourceVocabulary":"MedDRA 26.0","assessmentType":"SYSTEMATIC_ASSESSMENT","stats":[{"groupId":"EG000","numAffected":1,"numAtRisk":259},{"groupId":"EG001","numAffected":0,"numAtRisk":259}]},{"term":"Diabetes insipidus","organSystem":"Endocrine disorders","sourceVocabulary":"MedDRA 26.0","assessmentType":"SYSTEMATIC_ASSESSMENT","stats":[{"groupId":"EG000","numAffected":1,"numAtRisk":259},{"groupId":"EG001","numAffected":1,"numAtRisk":259}]},{"term":"Inappropriate antidiuretic hormone secretion","organSystem":"Endocrine disorders","sourceVocabulary":"MedDRA 26.0","assessmentType":"SYSTEMATIC_ASSESSMENT","stats":[{"groupId":"EG000","numAffected":0,"numAtRisk":259},{"groupId":"EG001","numAffected":1,"numAtRisk":259}]},{"term":"Ascites","organSystem":"Gastrointestinal disorders","sourceVocabulary":"MedDRA 26.0","assessmentType":"SYSTEMATIC_ASSESSMENT","stats":[{"groupId":"EG000","numAffected":0,"numAtRisk":259},{"groupId":"EG001","numAffected":1,"numAtRisk":259}]},{"term":"Colitis ulcerative","organSystem":"Gastrointestinal disorders","sourceVocabulary":"MedDRA 26.0","assessmentType":"SYSTEMATIC_ASSESSMENT","stats":[{"groupId":"EG000","numAffected":1,"numAtRisk":259},{"groupId":"EG001","numAffected":0,"numAtRisk":259}]},{"term":"Constipation","organSystem":"Gastrointestinal disorders","sourceVocabulary":"MedDRA 26.0","assessmentType":"SYSTEMATIC_ASSESSMENT","stats":[{"groupId":"EG000","numAffected":0,"numAtRisk":259},{"groupId":"EG001","numAffected":1,"numAtRisk":259}]},{"term":"Dysphagia","organSystem":"Gastrointestinal disorders","sourceVocabulary":"MedDRA 26.0","assessmentType":"SYSTEMATIC_ASSESSMENT","stats":[{"groupId":"EG000","numAffected":1,"numAtRisk":259},{"groupId":"EG001","numAffected":2,"numAtRisk":259}]},{"term":"Gastritis","organSystem":"Gastrointestinal disorders","sourceVocabulary":"MedDRA 26.0","assessmentType":"SYSTEMATIC_ASSESSMENT","stats":[{"groupId":"EG000","numAffected":0,"numAtRisk":259},{"groupId":"EG001","numAffected":1,"numAtRisk":259}]},{"term":"Ileus","organSystem":"Gastrointestinal disorders","sourceVocabulary":"MedDRA 26.0","assessmentType":"SYSTEMATIC_ASSESSMENT","stats":[{"groupId":"EG000","numAffected":1,"numAtRisk":259},{"groupId":"EG001","numAffected":1,"numAtRisk":259}]},{"term":"Pelvic floor hernia","organSystem":"Gastrointestinal disorders","sourceVocabulary":"MedDRA 26.0","assessmentType":"SYSTEMATIC_ASSESSMENT","stats":[{"groupId":"EG000","numAffected":0,"numAtRisk":259},{"groupId":"EG001","numAffected":1,"numAtRisk":259}]},{"term":"Retroperitoneal haematoma","organSystem":"Gastrointestinal disorders","sourceVocabulary":"MedDRA 26.0","assessmentType":"SYSTEMATIC_ASSESSMENT","stats":[{"groupId":"EG000","numAffected":0,"numAtRisk":259},{"groupId":"EG001","numAffected":1,"numAtRisk":259}]},{"term":"Cardiac death","organSystem":"General disorders","sourceVocabulary":"MedDRA 26.0","assessmentType":"SYSTEMATIC_ASSESSMENT","stats":[{"groupId":"EG000","numAffected":1,"numAtRisk":259},{"groupId":"EG001","numAffected":0,"numAtRisk":259}]},{"term":"Chest pain","organSystem":"General disorders","sourceVocabulary":"MedDRA 26.0","assessmentType":"SYSTEMATIC_ASSESSMENT","stats":[{"groupId":"EG000","numAffected":2,"numAtRisk":259},{"groupId":"EG001","numAffected":1,"numAtRisk":259}]},{"term":"Death","organSystem":"General disorders","sourceVocabulary":"MedDRA 26.0","assessmentType":"SYSTEMATIC_ASSESSMENT","stats":[{"groupId":"EG000","numAffected":2,"numAtRisk":259},{"groupId":"EG001","numAffected":3,"numAtRisk":259}]},{"term":"Malaise","organSystem":"General disorders","sourceVocabulary":"MedDRA 26.0","assessmentType":"SYSTEMATIC_ASSESSMENT","stats":[{"groupId":"EG000","numAffected":0,"numAtRisk":259},{"groupId":"EG001","numAffected":1,"numAtRisk":259}]},{"term":"Multiple organ dysfunction syndrome","organSystem":"General disorders","sourceVocabulary":"MedDRA 26.0","assessmentType":"SYSTEMATIC_ASSESSMENT","stats":[{"groupId":"EG000","numAffected":1,"numAtRisk":259},{"groupId":"EG001","numAffected":1,"numAtRisk":259}]},{"term":"Pyrexia","organSystem":"General disorders","sourceVocabulary":"MedDRA 26.0","assessmentType":"SYSTEMATIC_ASSESSMENT","stats":[{"groupId":"EG000","numAffected":0,"numAtRisk":259},{"groupId":"EG001","numAffected":3,"numAtRisk":259}]},{"term":"Bile duct stone","organSystem":"Hepatobiliary disorders","sourceVocabulary":"MedDRA 26.0","assessmentType":"SYSTEMATIC_ASSESSMENT","stats":[{"groupId":"EG000","numAffected":1,"numAtRisk":259},{"groupId":"EG001","numAffected":0,"numAtRisk":259}]},{"term":"Abdominal wall abscess","organSystem":"Infections and infestations","sourceVocabulary":"MedDRA 26.0","assessmentType":"SYSTEMATIC_ASSESSMENT","stats":[{"groupId":"EG000","numAffected":0,"numAtRisk":259},{"groupId":"EG001","numAffected":1,"numAtRisk":259}]},{"term":"Acinetobacter infection","organSystem":"Infections and infestations","sourceVocabulary":"MedDRA 26.0","assessmentType":"SYSTEMATIC_ASSESSMENT","stats":[{"groupId":"EG000","numAffected":1,"numAtRisk":259},{"groupId":"EG001","numAffected":0,"numAtRisk":259}]},{"term":"Bacterial infection","organSystem":"Infections and infestations","sourceVocabulary":"MedDRA 26.0","assessmentType":"SYSTEMATIC_ASSESSMENT","stats":[{"groupId":"EG000","numAffected":1,"numAtRisk":259},{"groupId":"EG001","numAffected":0,"numAtRisk":259}]},{"term":"Bacterial sepsis","organSystem":"Infections and infestations","sourceVocabulary":"MedDRA 26.0","assessmentType":"SYSTEMATIC_ASSESSMENT","stats":[{"groupId":"EG000","numAffected":0,"numAtRisk":259},{"groupId":"EG001","numAffected":1,"numAtRisk":259}]},{"term":"Cellulitis","organSystem":"Infections and infestations","sourceVocabulary":"MedDRA 26.0","assessmentType":"SYSTEMATIC_ASSESSMENT","stats":[{"groupId":"EG000","numAffected":0,"numAtRisk":259},{"groupId":"EG001","numAffected":1,"numAtRisk":259}]},{"term":"Clostridium difficile colitis","organSystem":"Infections and infestations","sourceVocabulary":"MedDRA 26.0","assessmentType":"SYSTEMATIC_ASSESSMENT","stats":[{"groupId":"EG000","numAffected":0,"numAtRisk":259},{"groupId":"EG001","numAffected":3,"numAtRisk":259}]},{"term":"Covid-19","organSystem":"Infections and infestations","sourceVocabulary":"MedDRA 26.0","assessmentType":"SYSTEMATIC_ASSESSMENT","stats":[{"groupId":"EG000","numAffected":1,"numAtRisk":259},{"groupId":"EG001","numAffected":1,"numAtRisk":259}]},{"term":"Covid-19 pneumonia","organSystem":"Infections and infestations","sourceVocabulary":"MedDRA 26.0","assessmentType":"SYSTEMATIC_ASSESSMENT","stats":[{"groupId":"EG000","numAffected":1,"numAtRisk":259},{"groupId":"EG001","numAffected":0,"numAtRisk":259}]},{"term":"Cystitis","organSystem":"Infections and infestations","sourceVocabulary":"MedDRA 26.0","assessmentType":"SYSTEMATIC_ASSESSMENT","stats":[{"groupId":"EG000","numAffected":0,"numAtRisk":259},{"groupId":"EG001","numAffected":1,"numAtRisk":259}]},{"term":"Cytomegalovirus enteritis","organSystem":"Infections and infestations","sourceVocabulary":"MedDRA 26.0","assessmentType":"SYSTEMATIC_ASSESSMENT","stats":[{"groupId":"EG000","numAffected":0,"numAtRisk":259},{"groupId":"EG001","numAffected":1,"numAtRisk":259}]},{"term":"Device related infection","organSystem":"Infections and infestations","sourceVocabulary":"MedDRA 26.0","assessmentType":"SYSTEMATIC_ASSESSMENT","stats":[{"groupId":"EG000","numAffected":0,"numAtRisk":259},{"groupId":"EG001","numAffected":1,"numAtRisk":259}]},{"term":"Enterobacter pneumonia","organSystem":"Infections and infestations","sourceVocabulary":"MedDRA 26.0","assessmentType":"SYSTEMATIC_ASSESSMENT","stats":[{"groupId":"EG000","numAffected":0,"numAtRisk":259},{"groupId":"EG001","numAffected":1,"numAtRisk":259}]},{"term":"Enterococcal sepsis","organSystem":"Infections and infestations","sourceVocabulary":"MedDRA 26.0","assessmentType":"SYSTEMATIC_ASSESSMENT","stats":[{"groupId":"EG000","numAffected":1,"numAtRisk":259},{"groupId":"EG001","numAffected":0,"numAtRisk":259}]},{"term":"Escherichia sepsis","organSystem":"Infections and infestations","sourceVocabulary":"MedDRA 26.0","assessmentType":"SYSTEMATIC_ASSESSMENT","stats":[{"groupId":"EG000","numAffected":1,"numAtRisk":259},{"groupId":"EG001","numAffected":2,"numAtRisk":259}]},{"term":"Gas gangrene","organSystem":"Infections and infestations","sourceVocabulary":"MedDRA 26.0","assessmentType":"SYSTEMATIC_ASSESSMENT","stats":[{"groupId":"EG000","numAffected":0,"numAtRisk":259},{"groupId":"EG001","numAffected":1,"numAtRisk":259}]},{"term":"Haematological infection","organSystem":"Infections and infestations","sourceVocabulary":"MedDRA 26.0","assessmentType":"SYSTEMATIC_ASSESSMENT","stats":[{"groupId":"EG000","numAffected":1,"numAtRisk":259},{"groupId":"EG001","numAffected":1,"numAtRisk":259}]},{"term":"Klebsiella sepsis","organSystem":"Infections and infestations","sourceVocabulary":"MedDRA 26.0","assessmentType":"SYSTEMATIC_ASSESSMENT","stats":[{"groupId":"EG000","numAffected":1,"numAtRisk":259},{"groupId":"EG001","numAffected":0,"numAtRisk":259}]},{"term":"Klebsiella urinary tract infection","organSystem":"Infections and infestations","sourceVocabulary":"MedDRA 26.0","assessmentType":"SYSTEMATIC_ASSESSMENT","stats":[{"groupId":"EG000","numAffected":1,"numAtRisk":259},{"groupId":"EG001","numAffected":0,"numAtRisk":259}]},{"term":"Neurosyphilis","organSystem":"Infections and infestations","sourceVocabulary":"MedDRA 26.0","assessmentType":"SYSTEMATIC_ASSESSMENT","stats":[{"groupId":"EG000","numAffected":1,"numAtRisk":259},{"groupId":"EG001","numAffected":0,"numAtRisk":259}]},{"term":"Pneumonia","organSystem":"Infections and infestations","sourceVocabulary":"MedDRA 26.0","assessmentType":"SYSTEMATIC_ASSESSMENT","stats":[{"groupId":"EG000","numAffected":18,"numAtRisk":259},{"groupId":"EG001","numAffected":13,"numAtRisk":259}]},{"term":"Pneumonia aspiration","organSystem":"Infections and infestations","sourceVocabulary":"MedDRA 26.0","assessmentType":"SYSTEMATIC_ASSESSMENT","stats":[{"groupId":"EG000","numAffected":5,"numAtRisk":259},{"groupId":"EG001","numAffected":5,"numAtRisk":259}]},{"term":"Pneumonia bacterial","organSystem":"Infections and infestations","sourceVocabulary":"MedDRA 26.0","assessmentType":"SYSTEMATIC_ASSESSMENT","stats":[{"groupId":"EG000","numAffected":1,"numAtRisk":259},{"groupId":"EG001","numAffected":5,"numAtRisk":259}]},{"term":"Pneumonia haemophilus","organSystem":"Infections and infestations","sourceVocabulary":"MedDRA 26.0","assessmentType":"SYSTEMATIC_ASSESSMENT","stats":[{"groupId":"EG000","numAffected":1,"numAtRisk":259},{"groupId":"EG001","numAffected":1,"numAtRisk":259}]},{"term":"Pneumonia klebsiella","organSystem":"Infections and infestations","sourceVocabulary":"MedDRA 26.0","assessmentType":"SYSTEMATIC_ASSESSMENT","stats":[{"groupId":"EG000","numAffected":1,"numAtRisk":259},{"groupId":"EG001","numAffected":0,"numAtRisk":259}]},{"term":"Pneumonia staphylococcal","organSystem":"Infections and infestations","sourceVocabulary":"MedDRA 26.0","assessmentType":"SYSTEMATIC_ASSESSMENT","stats":[{"groupId":"EG000","numAffected":1,"numAtRisk":259},{"groupId":"EG001","numAffected":3,"numAtRisk":259}]},{"term":"Post procedural infection","organSystem":"Infections and infestations","sourceVocabulary":"MedDRA 26.0","assessmentType":"SYSTEMATIC_ASSESSMENT","stats":[{"groupId":"EG000","numAffected":1,"numAtRisk":259},{"groupId":"EG001","numAffected":0,"numAtRisk":259}]},{"term":"Postoperative wound infection","organSystem":"Infections and infestations","sourceVocabulary":"MedDRA 26.0","assessmentType":"SYSTEMATIC_ASSESSMENT","stats":[{"groupId":"EG000","numAffected":1,"numAtRisk":259},{"groupId":"EG001","numAffected":0,"numAtRisk":259}]},{"term":"Proteus infection","organSystem":"Infections and infestations","sourceVocabulary":"MedDRA 26.0","assessmentType":"SYSTEMATIC_ASSESSMENT","stats":[{"groupId":"EG000","numAffected":1,"numAtRisk":259},{"groupId":"EG001","numAffected":1,"numAtRisk":259}]},{"term":"Pseudomonal sepsis","organSystem":"Infections and infestations","sourceVocabulary":"MedDRA 26.0","assessmentType":"SYSTEMATIC_ASSESSMENT","stats":[{"groupId":"EG000","numAffected":1,"numAtRisk":259},{"groupId":"EG001","numAffected":0,"numAtRisk":259}]},{"term":"Pulmonary sepsis","organSystem":"Infections and infestations","sourceVocabulary":"MedDRA 26.0","assessmentType":"SYSTEMATIC_ASSESSMENT","stats":[{"groupId":"EG000","numAffected":4,"numAtRisk":259},{"groupId":"EG001","numAffected":0,"numAtRisk":259}]},{"term":"Pyelonephritis","organSystem":"Infections and infestations","sourceVocabulary":"MedDRA 26.0","assessmentType":"SYSTEMATIC_ASSESSMENT","stats":[{"groupId":"EG000","numAffected":0,"numAtRisk":259},{"groupId":"EG001","numAffected":1,"numAtRisk":259}]},{"term":"Respiratory tract infection","organSystem":"Infections and infestations","sourceVocabulary":"MedDRA 26.0","assessmentType":"SYSTEMATIC_ASSESSMENT","stats":[{"groupId":"EG000","numAffected":0,"numAtRisk":259},{"groupId":"EG001","numAffected":1,"numAtRisk":259}]},{"term":"Sepsis","organSystem":"Infections and infestations","sourceVocabulary":"MedDRA 26.0","assessmentType":"SYSTEMATIC_ASSESSMENT","stats":[{"groupId":"EG000","numAffected":4,"numAtRisk":259},{"groupId":"EG001","numAffected":6,"numAtRisk":259}]},{"term":"Septic shock","organSystem":"Infections and infestations","sourceVocabulary":"MedDRA 26.0","assessmentType":"SYSTEMATIC_ASSESSMENT","stats":[{"groupId":"EG000","numAffected":4,"numAtRisk":259},{"groupId":"EG001","numAffected":6,"numAtRisk":259}]},{"term":"Staphylococcal bacteraemia","organSystem":"Infections and infestations","sourceVocabulary":"MedDRA 26.0","assessmentType":"SYSTEMATIC_ASSESSMENT","stats":[{"groupId":"EG000","numAffected":2,"numAtRisk":259},{"groupId":"EG001","numAffected":1,"numAtRisk":259}]},{"term":"Streptococcal abscess","organSystem":"Infections and infestations","sourceVocabulary":"MedDRA 26.0","assessmentType":"SYSTEMATIC_ASSESSMENT","stats":[{"groupId":"EG000","numAffected":1,"numAtRisk":259},{"groupId":"EG001","numAffected":0,"numAtRisk":259}]},{"term":"Streptococcal sepsis","organSystem":"Infections and infestations","sourceVocabulary":"MedDRA 26.0","assessmentType":"SYSTEMATIC_ASSESSMENT","stats":[{"groupId":"EG000","numAffected":0,"numAtRisk":259},{"groupId":"EG001","numAffected":1,"numAtRisk":259}]},{"term":"Tracheobronchitis","organSystem":"Infections and infestations","sourceVocabulary":"MedDRA 26.0","assessmentType":"SYSTEMATIC_ASSESSMENT","stats":[{"groupId":"EG000","numAffected":0,"numAtRisk":259},{"groupId":"EG001","numAffected":3,"numAtRisk":259}]},{"term":"Urinary tract infection","organSystem":"Infections and infestations","sourceVocabulary":"MedDRA 26.0","assessmentType":"SYSTEMATIC_ASSESSMENT","stats":[{"groupId":"EG000","numAffected":4,"numAtRisk":259},{"groupId":"EG001","numAffected":6,"numAtRisk":259}]},{"term":"Urinary tract infection pseudomonal","organSystem":"Infections and infestations","sourceVocabulary":"MedDRA 26.0","assessmentType":"SYSTEMATIC_ASSESSMENT","stats":[{"groupId":"EG000","numAffected":0,"numAtRisk":259},{"groupId":"EG001","numAffected":1,"numAtRisk":259}]},{"term":"Urosepsis","organSystem":"Infections and infestations","sourceVocabulary":"MedDRA 26.0","assessmentType":"SYSTEMATIC_ASSESSMENT","stats":[{"groupId":"EG000","numAffected":1,"numAtRisk":259},{"groupId":"EG001","numAffected":4,"numAtRisk":259}]},{"term":"Wound infection staphylococcal","organSystem":"Infections and infestations","sourceVocabulary":"MedDRA 26.0","assessmentType":"SYSTEMATIC_ASSESSMENT","stats":[{"groupId":"EG000","numAffected":2,"numAtRisk":259},{"groupId":"EG001","numAffected":0,"numAtRisk":259}]},{"term":"Anastomotic ulcer haemorrhage","organSystem":"Injury, poisoning and procedural complications","sourceVocabulary":"MedDRA 26.0","assessmentType":"SYSTEMATIC_ASSESSMENT","stats":[{"groupId":"EG000","numAffected":0,"numAtRisk":259},{"groupId":"EG001","numAffected":1,"numAtRisk":259}]},{"term":"Brain herniation","organSystem":"Injury, poisoning and procedural complications","sourceVocabulary":"MedDRA 26.0","assessmentType":"SYSTEMATIC_ASSESSMENT","stats":[{"groupId":"EG000","numAffected":16,"numAtRisk":259},{"groupId":"EG001","numAffected":19,"numAtRisk":259}]},{"term":"Fall","organSystem":"Injury, poisoning and procedural complications","sourceVocabulary":"MedDRA 26.0","assessmentType":"SYSTEMATIC_ASSESSMENT","stats":[{"groupId":"EG000","numAffected":1,"numAtRisk":259},{"groupId":"EG001","numAffected":4,"numAtRisk":259}]},{"term":"Hip fracture","organSystem":"Injury, poisoning and procedural complications","sourceVocabulary":"MedDRA 26.0","assessmentType":"SYSTEMATIC_ASSESSMENT","stats":[{"groupId":"EG000","numAffected":0,"numAtRisk":259},{"groupId":"EG001","numAffected":1,"numAtRisk":259}]},{"term":"Intentional overdose","organSystem":"Injury, poisoning and procedural complications","sourceVocabulary":"MedDRA 26.0","assessmentType":"SYSTEMATIC_ASSESSMENT","stats":[{"groupId":"EG000","numAffected":1,"numAtRisk":259},{"groupId":"EG001","numAffected":1,"numAtRisk":259}]},{"term":"Neurological procedural complication","organSystem":"Injury, poisoning and procedural complications","sourceVocabulary":"MedDRA 26.0","assessmentType":"SYSTEMATIC_ASSESSMENT","stats":[{"groupId":"EG000","numAffected":12,"numAtRisk":259},{"groupId":"EG001","numAffected":11,"numAtRisk":259}]},{"term":"Post procedural haematoma","organSystem":"Injury, poisoning and procedural complications","sourceVocabulary":"MedDRA 26.0","assessmentType":"SYSTEMATIC_ASSESSMENT","stats":[{"groupId":"EG000","numAffected":0,"numAtRisk":259},{"groupId":"EG001","numAffected":2,"numAtRisk":259}]},{"term":"Post procedural haemorrhage","organSystem":"Injury, poisoning and procedural complications","sourceVocabulary":"MedDRA 26.0","assessmentType":"SYSTEMATIC_ASSESSMENT","stats":[{"groupId":"EG000","numAffected":0,"numAtRisk":259},{"groupId":"EG001","numAffected":2,"numAtRisk":259}]},{"term":"Subdural haemorrhage","organSystem":"Injury, poisoning and procedural complications","sourceVocabulary":"MedDRA 26.0","assessmentType":"SYSTEMATIC_ASSESSMENT","stats":[{"groupId":"EG000","numAffected":0,"numAtRisk":259},{"groupId":"EG001","numAffected":1,"numAtRisk":259}]},{"term":"Toxicity to various agents","organSystem":"Injury, poisoning and procedural complications","sourceVocabulary":"MedDRA 26.0","assessmentType":"SYSTEMATIC_ASSESSMENT","stats":[{"groupId":"EG000","numAffected":1,"numAtRisk":259},{"groupId":"EG001","numAffected":0,"numAtRisk":259}]},{"term":"Anticoagulation drug level below therapeutic","organSystem":"Investigations","sourceVocabulary":"MedDRA 26.0","assessmentType":"SYSTEMATIC_ASSESSMENT","stats":[{"groupId":"EG000","numAffected":0,"numAtRisk":259},{"groupId":"EG001","numAffected":1,"numAtRisk":259}]},{"term":"Neurological examination abnormal","organSystem":"Investigations","sourceVocabulary":"MedDRA 26.0","assessmentType":"SYSTEMATIC_ASSESSMENT","stats":[{"groupId":"EG000","numAffected":1,"numAtRisk":259},{"groupId":"EG001","numAffected":0,"numAtRisk":259}]},{"term":"Cachexia","organSystem":"Metabolism and nutrition disorders","sourceVocabulary":"MedDRA 26.0","assessmentType":"SYSTEMATIC_ASSESSMENT","stats":[{"groupId":"EG000","numAffected":0,"numAtRisk":259},{"groupId":"EG001","numAffected":1,"numAtRisk":259}]},{"term":"Decreased appetite","organSystem":"Metabolism and nutrition disorders","sourceVocabulary":"MedDRA 26.0","assessmentType":"SYSTEMATIC_ASSESSMENT","stats":[{"groupId":"EG000","numAffected":0,"numAtRisk":259},{"groupId":"EG001","numAffected":1,"numAtRisk":259}]},{"term":"Dehydration","organSystem":"Metabolism and nutrition disorders","sourceVocabulary":"MedDRA 26.0","assessmentType":"SYSTEMATIC_ASSESSMENT","stats":[{"groupId":"EG000","numAffected":1,"numAtRisk":259},{"groupId":"EG001","numAffected":0,"numAtRisk":259}]},{"term":"Diabetic ketoacidosis","organSystem":"Metabolism and nutrition disorders","sourceVocabulary":"MedDRA 26.0","assessmentType":"SYSTEMATIC_ASSESSMENT","stats":[{"groupId":"EG000","numAffected":1,"numAtRisk":259},{"groupId":"EG001","numAffected":1,"numAtRisk":259}]},{"term":"Failure to thrive","organSystem":"Metabolism and nutrition disorders","sourceVocabulary":"MedDRA 26.0","assessmentType":"SYSTEMATIC_ASSESSMENT","stats":[{"groupId":"EG000","numAffected":1,"numAtRisk":259},{"groupId":"EG001","numAffected":0,"numAtRisk":259}]},{"term":"Hyperkalaemia","organSystem":"Metabolism and nutrition disorders","sourceVocabulary":"MedDRA 26.0","assessmentType":"SYSTEMATIC_ASSESSMENT","stats":[{"groupId":"EG000","numAffected":0,"numAtRisk":259},{"groupId":"EG001","numAffected":1,"numAtRisk":259}]},{"term":"Hypernatraemia","organSystem":"Metabolism and nutrition disorders","sourceVocabulary":"MedDRA 26.0","assessmentType":"SYSTEMATIC_ASSESSMENT","stats":[{"groupId":"EG000","numAffected":1,"numAtRisk":259},{"groupId":"EG001","numAffected":1,"numAtRisk":259}]},{"term":"Hypoalbuminaemia","organSystem":"Metabolism and nutrition disorders","sourceVocabulary":"MedDRA 26.0","assessmentType":"SYSTEMATIC_ASSESSMENT","stats":[{"groupId":"EG000","numAffected":0,"numAtRisk":259},{"groupId":"EG001","numAffected":1,"numAtRisk":259}]},{"term":"Hypoglycaemia","organSystem":"Metabolism and nutrition disorders","sourceVocabulary":"MedDRA 26.0","assessmentType":"SYSTEMATIC_ASSESSMENT","stats":[{"groupId":"EG000","numAffected":4,"numAtRisk":259},{"groupId":"EG001","numAffected":15,"numAtRisk":259}]},{"term":"Hypokalaemia","organSystem":"Metabolism and nutrition disorders","sourceVocabulary":"MedDRA 26.0","assessmentType":"SYSTEMATIC_ASSESSMENT","stats":[{"groupId":"EG000","numAffected":1,"numAtRisk":259},{"groupId":"EG001","numAffected":1,"numAtRisk":259}]},{"term":"Hyponatraemia","organSystem":"Metabolism and nutrition disorders","sourceVocabulary":"MedDRA 26.0","assessmentType":"SYSTEMATIC_ASSESSMENT","stats":[{"groupId":"EG000","numAffected":0,"numAtRisk":259},{"groupId":"EG001","numAffected":1,"numAtRisk":259}]},{"term":"Metabolic acidosis","organSystem":"Metabolism and nutrition disorders","sourceVocabulary":"MedDRA 26.0","assessmentType":"SYSTEMATIC_ASSESSMENT","stats":[{"groupId":"EG000","numAffected":0,"numAtRisk":259},{"groupId":"EG001","numAffected":1,"numAtRisk":259}]},{"term":"Gouty arthritis","organSystem":"Musculoskeletal and connective tissue disorders","sourceVocabulary":"MedDRA 26.0","assessmentType":"SYSTEMATIC_ASSESSMENT","stats":[{"groupId":"EG000","numAffected":0,"numAtRisk":259},{"groupId":"EG001","numAffected":1,"numAtRisk":259}]},{"term":"Neck pain","organSystem":"Musculoskeletal and connective tissue disorders","sourceVocabulary":"MedDRA 26.0","assessmentType":"SYSTEMATIC_ASSESSMENT","stats":[{"groupId":"EG000","numAffected":1,"numAtRisk":259},{"groupId":"EG001","numAffected":0,"numAtRisk":259}]},{"term":"Adenocarcinoma of colon","organSystem":"Neoplasms benign, malignant and unspecified (incl cysts and polyps)","sourceVocabulary":"MedDRA 26.0","assessmentType":"SYSTEMATIC_ASSESSMENT","stats":[{"groupId":"EG000","numAffected":1,"numAtRisk":259},{"groupId":"EG001","numAffected":0,"numAtRisk":259}]},{"term":"Cardiac myxoma","organSystem":"Neoplasms benign, malignant and unspecified (incl cysts and polyps)","sourceVocabulary":"MedDRA 26.0","assessmentType":"SYSTEMATIC_ASSESSMENT","stats":[{"groupId":"EG000","numAffected":0,"numAtRisk":259},{"groupId":"EG001","numAffected":1,"numAtRisk":259}]},{"term":"Lung cancer metastatic","organSystem":"Neoplasms benign, malignant and unspecified (incl cysts and polyps)","sourceVocabulary":"MedDRA 26.0","assessmentType":"SYSTEMATIC_ASSESSMENT","stats":[{"groupId":"EG000","numAffected":1,"numAtRisk":259},{"groupId":"EG001","numAffected":1,"numAtRisk":259}]},{"term":"Lung neoplasm malignant","organSystem":"Neoplasms benign, malignant and unspecified (incl cysts and polyps)","sourceVocabulary":"MedDRA 26.0","assessmentType":"SYSTEMATIC_ASSESSMENT","stats":[{"groupId":"EG000","numAffected":0,"numAtRisk":259},{"groupId":"EG001","numAffected":1,"numAtRisk":259}]},{"term":"Ovarian clear cell carcinoma","organSystem":"Neoplasms benign, malignant and unspecified (incl cysts and polyps)","sourceVocabulary":"MedDRA 26.0","assessmentType":"SYSTEMATIC_ASSESSMENT","stats":[{"groupId":"EG000","numAffected":1,"numAtRisk":259},{"groupId":"EG001","numAffected":0,"numAtRisk":259}]},{"term":"Ovarian epithelial cancer metastatic","organSystem":"Neoplasms benign, malignant and unspecified (incl cysts and polyps)","sourceVocabulary":"MedDRA 26.0","assessmentType":"SYSTEMATIC_ASSESSMENT","stats":[{"groupId":"EG000","numAffected":0,"numAtRisk":259},{"groupId":"EG001","numAffected":1,"numAtRisk":259}]},{"term":"Pancreatic carcinoma metastatic","organSystem":"Neoplasms benign, malignant and unspecified (incl cysts and polyps)","sourceVocabulary":"MedDRA 26.0","assessmentType":"SYSTEMATIC_ASSESSMENT","stats":[{"groupId":"EG000","numAffected":1,"numAtRisk":259},{"groupId":"EG001","numAffected":1,"numAtRisk":259}]},{"term":"Prostate cancer metastatic","organSystem":"Neoplasms benign, malignant and unspecified (incl cysts and polyps)","sourceVocabulary":"MedDRA 26.0","assessmentType":"SYSTEMATIC_ASSESSMENT","stats":[{"groupId":"EG000","numAffected":1,"numAtRisk":259},{"groupId":"EG001","numAffected":0,"numAtRisk":259}]},{"term":"Renal cell carcinoma","organSystem":"Neoplasms benign, malignant and unspecified (incl cysts and polyps)","sourceVocabulary":"MedDRA 26.0","assessmentType":"SYSTEMATIC_ASSESSMENT","stats":[{"groupId":"EG000","numAffected":0,"numAtRisk":259},{"groupId":"EG001","numAffected":1,"numAtRisk":259}]},{"term":"Uterine leiomyoma","organSystem":"Neoplasms benign, malignant and unspecified (incl cysts and polyps)","sourceVocabulary":"MedDRA 26.0","assessmentType":"SYSTEMATIC_ASSESSMENT","stats":[{"groupId":"EG000","numAffected":1,"numAtRisk":259},{"groupId":"EG001","numAffected":0,"numAtRisk":259}]},{"term":"Brain compression","organSystem":"Nervous system disorders","sourceVocabulary":"MedDRA 26.0","assessmentType":"SYSTEMATIC_ASSESSMENT","stats":[{"groupId":"EG000","numAffected":0,"numAtRisk":259},{"groupId":"EG001","numAffected":1,"numAtRisk":259}]},{"term":"Brain oedema","organSystem":"Nervous system disorders","sourceVocabulary":"MedDRA 26.0","assessmentType":"SYSTEMATIC_ASSESSMENT","stats":[{"groupId":"EG000","numAffected":79,"numAtRisk":259},{"groupId":"EG001","numAffected":72,"numAtRisk":259}]},{"term":"Brain stem haemorrhage","organSystem":"Nervous system disorders","sourceVocabulary":"MedDRA 26.0","assessmentType":"SYSTEMATIC_ASSESSMENT","stats":[{"groupId":"EG000","numAffected":0,"numAtRisk":259},{"groupId":"EG001","numAffected":1,"numAtRisk":259}]},{"term":"Cerebellar haemorrhage","organSystem":"Nervous system disorders","sourceVocabulary":"MedDRA 26.0","assessmentType":"SYSTEMATIC_ASSESSMENT","stats":[{"groupId":"EG000","numAffected":0,"numAtRisk":259},{"groupId":"EG001","numAffected":1,"numAtRisk":259}]},{"term":"Cerebral artery occlusion","organSystem":"Nervous system disorders","sourceVocabulary":"MedDRA 26.0","assessmentType":"SYSTEMATIC_ASSESSMENT","stats":[{"groupId":"EG000","numAffected":0,"numAtRisk":259},{"groupId":"EG001","numAffected":1,"numAtRisk":259}]},{"term":"Cerebral haemorrhage","organSystem":"Nervous system disorders","sourceVocabulary":"MedDRA 26.0","assessmentType":"SYSTEMATIC_ASSESSMENT","stats":[{"groupId":"EG000","numAffected":1,"numAtRisk":259},{"groupId":"EG001","numAffected":1,"numAtRisk":259}]},{"term":"Cerebral infarction","organSystem":"Nervous system disorders","sourceVocabulary":"MedDRA 26.0","assessmentType":"SYSTEMATIC_ASSESSMENT","stats":[{"groupId":"EG000","numAffected":8,"numAtRisk":259},{"groupId":"EG001","numAffected":10,"numAtRisk":259}]},{"term":"Cerebral mass effect","organSystem":"Nervous system disorders","sourceVocabulary":"MedDRA 26.0","assessmentType":"SYSTEMATIC_ASSESSMENT","stats":[{"groupId":"EG000","numAffected":2,"numAtRisk":259},{"groupId":"EG001","numAffected":4,"numAtRisk":259}]},{"term":"Cerebrovascular accident","organSystem":"Nervous system disorders","sourceVocabulary":"MedDRA 26.0","assessmentType":"SYSTEMATIC_ASSESSMENT","stats":[{"groupId":"EG000","numAffected":5,"numAtRisk":259},{"groupId":"EG001","numAffected":17,"numAtRisk":259}]},{"term":"Cerebrovascular insufficiency","organSystem":"Nervous system disorders","sourceVocabulary":"MedDRA 26.0","assessmentType":"SYSTEMATIC_ASSESSMENT","stats":[{"groupId":"EG000","numAffected":0,"numAtRisk":259},{"groupId":"EG001","numAffected":1,"numAtRisk":259}]},{"term":"Embolic cerebral infarction","organSystem":"Nervous system disorders","sourceVocabulary":"MedDRA 26.0","assessmentType":"SYSTEMATIC_ASSESSMENT","stats":[{"groupId":"EG000","numAffected":1,"numAtRisk":259},{"groupId":"EG001","numAffected":0,"numAtRisk":259}]},{"term":"Epilepsy","organSystem":"Nervous system disorders","sourceVocabulary":"MedDRA 26.0","assessmentType":"SYSTEMATIC_ASSESSMENT","stats":[{"groupId":"EG000","numAffected":2,"numAtRisk":259},{"groupId":"EG001","numAffected":2,"numAtRisk":259}]},{"term":"Facial paralysis","organSystem":"Nervous system disorders","sourceVocabulary":"MedDRA 26.0","assessmentType":"SYSTEMATIC_ASSESSMENT","stats":[{"groupId":"EG000","numAffected":1,"numAtRisk":259},{"groupId":"EG001","numAffected":0,"numAtRisk":259}]},{"term":"Haemorrhage intracranial","organSystem":"Nervous system disorders","sourceVocabulary":"MedDRA 26.0","assessmentType":"SYSTEMATIC_ASSESSMENT","stats":[{"groupId":"EG000","numAffected":1,"numAtRisk":259},{"groupId":"EG001","numAffected":1,"numAtRisk":259}]},{"term":"Haemorrhagic cerebellar infarction","organSystem":"Nervous system disorders","sourceVocabulary":"MedDRA 26.0","assessmentType":"SYSTEMATIC_ASSESSMENT","stats":[{"groupId":"EG000","numAffected":1,"numAtRisk":259},{"groupId":"EG001","numAffected":0,"numAtRisk":259}]},{"term":"Haemorrhagic cerebral infarction","organSystem":"Nervous system disorders","sourceVocabulary":"MedDRA 26.0","assessmentType":"SYSTEMATIC_ASSESSMENT","stats":[{"groupId":"EG000","numAffected":2,"numAtRisk":259},{"groupId":"EG001","numAffected":1,"numAtRisk":259}]},{"term":"Haemorrhagic transformation stroke","organSystem":"Nervous system disorders","sourceVocabulary":"MedDRA 26.0","assessmentType":"SYSTEMATIC_ASSESSMENT","stats":[{"groupId":"EG000","numAffected":16,"numAtRisk":259},{"groupId":"EG001","numAffected":14,"numAtRisk":259}]},{"term":"Hydrocephalus","organSystem":"Nervous system disorders","sourceVocabulary":"MedDRA 26.0","assessmentType":"SYSTEMATIC_ASSESSMENT","stats":[{"groupId":"EG000","numAffected":1,"numAtRisk":259},{"groupId":"EG001","numAffected":0,"numAtRisk":259}]},{"term":"Intensive care unit acquired weakness","organSystem":"Nervous system disorders","sourceVocabulary":"MedDRA 26.0","assessmentType":"SYSTEMATIC_ASSESSMENT","stats":[{"groupId":"EG000","numAffected":0,"numAtRisk":259},{"groupId":"EG001","numAffected":1,"numAtRisk":259}]},{"term":"Ischaemic stroke","organSystem":"Nervous system disorders","sourceVocabulary":"MedDRA 26.0","assessmentType":"SYSTEMATIC_ASSESSMENT","stats":[{"groupId":"EG000","numAffected":3,"numAtRisk":259},{"groupId":"EG001","numAffected":8,"numAtRisk":259}]},{"term":"Lacunar infarction","organSystem":"Nervous system disorders","sourceVocabulary":"MedDRA 26.0","assessmentType":"SYSTEMATIC_ASSESSMENT","stats":[{"groupId":"EG000","numAffected":1,"numAtRisk":259},{"groupId":"EG001","numAffected":0,"numAtRisk":259}]},{"term":"Lacunar stroke","organSystem":"Nervous system disorders","sourceVocabulary":"MedDRA 26.0","assessmentType":"SYSTEMATIC_ASSESSMENT","stats":[{"groupId":"EG000","numAffected":1,"numAtRisk":259},{"groupId":"EG001","numAffected":0,"numAtRisk":259}]},{"term":"Malignant middle cerebral artery syndrome","organSystem":"Nervous system disorders","sourceVocabulary":"MedDRA 26.0","assessmentType":"SYSTEMATIC_ASSESSMENT","stats":[{"groupId":"EG000","numAffected":1,"numAtRisk":259},{"groupId":"EG001","numAffected":2,"numAtRisk":259}]},{"term":"Migraine","organSystem":"Nervous system disorders","sourceVocabulary":"MedDRA 26.0","assessmentType":"SYSTEMATIC_ASSESSMENT","stats":[{"groupId":"EG000","numAffected":0,"numAtRisk":259},{"groupId":"EG001","numAffected":1,"numAtRisk":259}]},{"term":"Neurological decompensation","organSystem":"Nervous system disorders","sourceVocabulary":"MedDRA 26.0","assessmentType":"SYSTEMATIC_ASSESSMENT","stats":[{"groupId":"EG000","numAffected":0,"numAtRisk":259},{"groupId":"EG001","numAffected":3,"numAtRisk":259}]},{"term":"Post stroke epilepsy","organSystem":"Nervous system disorders","sourceVocabulary":"MedDRA 26.0","assessmentType":"SYSTEMATIC_ASSESSMENT","stats":[{"groupId":"EG000","numAffected":0,"numAtRisk":259},{"groupId":"EG001","numAffected":4,"numAtRisk":259}]},{"term":"Psychogenic seizure","organSystem":"Nervous system disorders","sourceVocabulary":"MedDRA 26.0","assessmentType":"SYSTEMATIC_ASSESSMENT","stats":[{"groupId":"EG000","numAffected":0,"numAtRisk":259},{"groupId":"EG001","numAffected":1,"numAtRisk":259}]},{"term":"Seizure","organSystem":"Nervous system disorders","sourceVocabulary":"MedDRA 26.0","assessmentType":"SYSTEMATIC_ASSESSMENT","stats":[{"groupId":"EG000","numAffected":10,"numAtRisk":259},{"groupId":"EG001","numAffected":6,"numAtRisk":259}]},{"term":"Status epilepticus","organSystem":"Nervous system disorders","sourceVocabulary":"MedDRA 26.0","assessmentType":"SYSTEMATIC_ASSESSMENT","stats":[{"groupId":"EG000","numAffected":4,"numAtRisk":259},{"groupId":"EG001","numAffected":1,"numAtRisk":259}]},{"term":"Stroke in evolution","organSystem":"Nervous system disorders","sourceVocabulary":"MedDRA 26.0","assessmentType":"SYSTEMATIC_ASSESSMENT","stats":[{"groupId":"EG000","numAffected":6,"numAtRisk":259},{"groupId":"EG001","numAffected":14,"numAtRisk":259}]},{"term":"Subarachnoid haemorrhage","organSystem":"Nervous system disorders","sourceVocabulary":"MedDRA 26.0","assessmentType":"SYSTEMATIC_ASSESSMENT","stats":[{"groupId":"EG000","numAffected":1,"numAtRisk":259},{"groupId":"EG001","numAffected":0,"numAtRisk":259}]},{"term":"Subdural hygroma","organSystem":"Nervous system disorders","sourceVocabulary":"MedDRA 26.0","assessmentType":"SYSTEMATIC_ASSESSMENT","stats":[{"groupId":"EG000","numAffected":1,"numAtRisk":259},{"groupId":"EG001","numAffected":0,"numAtRisk":259}]},{"term":"Device dislocation","organSystem":"Product Issues","sourceVocabulary":"MedDRA 26.0","assessmentType":"SYSTEMATIC_ASSESSMENT","stats":[{"groupId":"EG000","numAffected":0,"numAtRisk":259},{"groupId":"EG001","numAffected":1,"numAtRisk":259}]},{"term":"Agitation","organSystem":"Psychiatric disorders","sourceVocabulary":"MedDRA 26.0","assessmentType":"SYSTEMATIC_ASSESSMENT","stats":[{"groupId":"EG000","numAffected":1,"numAtRisk":259},{"groupId":"EG001","numAffected":0,"numAtRisk":259}]},{"term":"Confusional state","organSystem":"Psychiatric disorders","sourceVocabulary":"MedDRA 26.0","assessmentType":"SYSTEMATIC_ASSESSMENT","stats":[{"groupId":"EG000","numAffected":1,"numAtRisk":259},{"groupId":"EG001","numAffected":0,"numAtRisk":259}]},{"term":"Delirium","organSystem":"Psychiatric disorders","sourceVocabulary":"MedDRA 26.0","assessmentType":"SYSTEMATIC_ASSESSMENT","stats":[{"groupId":"EG000","numAffected":1,"numAtRisk":259},{"groupId":"EG001","numAffected":0,"numAtRisk":259}]},{"term":"Delirium tremens","organSystem":"Psychiatric disorders","sourceVocabulary":"MedDRA 26.0","assessmentType":"SYSTEMATIC_ASSESSMENT","stats":[{"groupId":"EG000","numAffected":0,"numAtRisk":259},{"groupId":"EG001","numAffected":1,"numAtRisk":259}]},{"term":"Depression","organSystem":"Psychiatric disorders","sourceVocabulary":"MedDRA 26.0","assessmentType":"SYSTEMATIC_ASSESSMENT","stats":[{"groupId":"EG000","numAffected":0,"numAtRisk":259},{"groupId":"EG001","numAffected":1,"numAtRisk":259}]},{"term":"Depression suicidal","organSystem":"Psychiatric disorders","sourceVocabulary":"MedDRA 26.0","assessmentType":"SYSTEMATIC_ASSESSMENT","stats":[{"groupId":"EG000","numAffected":0,"numAtRisk":259},{"groupId":"EG001","numAffected":2,"numAtRisk":259}]},{"term":"Mental status changes","organSystem":"Psychiatric disorders","sourceVocabulary":"MedDRA 26.0","assessmentType":"SYSTEMATIC_ASSESSMENT","stats":[{"groupId":"EG000","numAffected":2,"numAtRisk":259},{"groupId":"EG001","numAffected":1,"numAtRisk":259}]},{"term":"Suicide attempt","organSystem":"Psychiatric disorders","sourceVocabulary":"MedDRA 26.0","assessmentType":"SYSTEMATIC_ASSESSMENT","stats":[{"groupId":"EG000","numAffected":1,"numAtRisk":259},{"groupId":"EG001","numAffected":1,"numAtRisk":259}]},{"term":"Acute kidney injury","organSystem":"Renal and urinary disorders","sourceVocabulary":"MedDRA 26.0","assessmentType":"SYSTEMATIC_ASSESSMENT","stats":[{"groupId":"EG000","numAffected":3,"numAtRisk":259},{"groupId":"EG001","numAffected":7,"numAtRisk":259}]},{"term":"Renal failure","organSystem":"Renal and urinary disorders","sourceVocabulary":"MedDRA 26.0","assessmentType":"SYSTEMATIC_ASSESSMENT","stats":[{"groupId":"EG000","numAffected":2,"numAtRisk":259},{"groupId":"EG001","numAffected":0,"numAtRisk":259}]},{"term":"Renal tubular necrosis","organSystem":"Renal and urinary disorders","sourceVocabulary":"MedDRA 26.0","assessmentType":"SYSTEMATIC_ASSESSMENT","stats":[{"groupId":"EG000","numAffected":0,"numAtRisk":259},{"groupId":"EG001","numAffected":1,"numAtRisk":259}]},{"term":"Tubulointerstitial nephritis","organSystem":"Renal and urinary disorders","sourceVocabulary":"MedDRA 26.0","assessmentType":"SYSTEMATIC_ASSESSMENT","stats":[{"groupId":"EG000","numAffected":1,"numAtRisk":259},{"groupId":"EG001","numAffected":0,"numAtRisk":259}]},{"term":"Acute respiratory failure","organSystem":"Respiratory, thoracic and mediastinal disorders","sourceVocabulary":"MedDRA 26.0","assessmentType":"SYSTEMATIC_ASSESSMENT","stats":[{"groupId":"EG000","numAffected":6,"numAtRisk":259},{"groupId":"EG001","numAffected":6,"numAtRisk":259}]},{"term":"Aspiration","organSystem":"Respiratory, thoracic and mediastinal disorders","sourceVocabulary":"MedDRA 26.0","assessmentType":"SYSTEMATIC_ASSESSMENT","stats":[{"groupId":"EG000","numAffected":1,"numAtRisk":259},{"groupId":"EG001","numAffected":0,"numAtRisk":259}]},{"term":"Bronchospasm","organSystem":"Respiratory, thoracic and mediastinal disorders","sourceVocabulary":"MedDRA 26.0","assessmentType":"SYSTEMATIC_ASSESSMENT","stats":[{"groupId":"EG000","numAffected":0,"numAtRisk":259},{"groupId":"EG001","numAffected":1,"numAtRisk":259}]},{"term":"Choking","organSystem":"Respiratory, thoracic and mediastinal disorders","sourceVocabulary":"MedDRA 26.0","assessmentType":"SYSTEMATIC_ASSESSMENT","stats":[{"groupId":"EG000","numAffected":1,"numAtRisk":259},{"groupId":"EG001","numAffected":0,"numAtRisk":259}]},{"term":"Chronic obstructive pulmonary disease","organSystem":"Respiratory, thoracic and mediastinal disorders","sourceVocabulary":"MedDRA 26.0","assessmentType":"SYSTEMATIC_ASSESSMENT","stats":[{"groupId":"EG000","numAffected":0,"numAtRisk":259},{"groupId":"EG001","numAffected":1,"numAtRisk":259}]},{"term":"Chronic respiratory failure","organSystem":"Respiratory, thoracic and mediastinal disorders","sourceVocabulary":"MedDRA 26.0","assessmentType":"SYSTEMATIC_ASSESSMENT","stats":[{"groupId":"EG000","numAffected":0,"numAtRisk":259},{"groupId":"EG001","numAffected":1,"numAtRisk":259}]},{"term":"Hypoxia","organSystem":"Respiratory, thoracic and mediastinal disorders","sourceVocabulary":"MedDRA 26.0","assessmentType":"SYSTEMATIC_ASSESSMENT","stats":[{"groupId":"EG000","numAffected":2,"numAtRisk":259},{"groupId":"EG001","numAffected":0,"numAtRisk":259}]},{"term":"Laryngeal oedema","organSystem":"Respiratory, thoracic and mediastinal disorders","sourceVocabulary":"MedDRA 26.0","assessmentType":"SYSTEMATIC_ASSESSMENT","stats":[{"groupId":"EG000","numAffected":1,"numAtRisk":259},{"groupId":"EG001","numAffected":0,"numAtRisk":259}]},{"term":"Obstructive airways disorder","organSystem":"Respiratory, thoracic and mediastinal disorders","sourceVocabulary":"MedDRA 26.0","assessmentType":"SYSTEMATIC_ASSESSMENT","stats":[{"groupId":"EG000","numAffected":0,"numAtRisk":259},{"groupId":"EG001","numAffected":1,"numAtRisk":259}]},{"term":"Pleural effusion","organSystem":"Respiratory, thoracic and mediastinal disorders","sourceVocabulary":"MedDRA 26.0","assessmentType":"SYSTEMATIC_ASSESSMENT","stats":[{"groupId":"EG000","numAffected":0,"numAtRisk":259},{"groupId":"EG001","numAffected":1,"numAtRisk":259}]},{"term":"Pneumomediastinum","organSystem":"Respiratory, thoracic and mediastinal disorders","sourceVocabulary":"MedDRA 26.0","assessmentType":"SYSTEMATIC_ASSESSMENT","stats":[{"groupId":"EG000","numAffected":0,"numAtRisk":259},{"groupId":"EG001","numAffected":1,"numAtRisk":259}]},{"term":"Pneumothorax","organSystem":"Respiratory, thoracic and mediastinal disorders","sourceVocabulary":"MedDRA 26.0","assessmentType":"SYSTEMATIC_ASSESSMENT","stats":[{"groupId":"EG000","numAffected":0,"numAtRisk":259},{"groupId":"EG001","numAffected":2,"numAtRisk":259}]},{"term":"Pulmonary embolism","organSystem":"Respiratory, thoracic and mediastinal disorders","sourceVocabulary":"MedDRA 26.0","assessmentType":"SYSTEMATIC_ASSESSMENT","stats":[{"groupId":"EG000","numAffected":8,"numAtRisk":259},{"groupId":"EG001","numAffected":8,"numAtRisk":259}]},{"term":"Pulmonary oedema","organSystem":"Respiratory, thoracic and mediastinal disorders","sourceVocabulary":"MedDRA 26.0","assessmentType":"SYSTEMATIC_ASSESSMENT","stats":[{"groupId":"EG000","numAffected":2,"numAtRisk":259},{"groupId":"EG001","numAffected":1,"numAtRisk":259}]},{"term":"Respiratory acidosis","organSystem":"Respiratory, thoracic and mediastinal disorders","sourceVocabulary":"MedDRA 26.0","assessmentType":"SYSTEMATIC_ASSESSMENT","stats":[{"groupId":"EG000","numAffected":0,"numAtRisk":259},{"groupId":"EG001","numAffected":1,"numAtRisk":259}]},{"term":"Respiratory arrest","organSystem":"Respiratory, thoracic and mediastinal disorders","sourceVocabulary":"MedDRA 26.0","assessmentType":"SYSTEMATIC_ASSESSMENT","stats":[{"groupId":"EG000","numAffected":1,"numAtRisk":259},{"groupId":"EG001","numAffected":0,"numAtRisk":259}]},{"term":"Respiratory depression","organSystem":"Respiratory, thoracic and mediastinal disorders","sourceVocabulary":"MedDRA 26.0","assessmentType":"SYSTEMATIC_ASSESSMENT","stats":[{"groupId":"EG000","numAffected":1,"numAtRisk":259},{"groupId":"EG001","numAffected":0,"numAtRisk":259}]},{"term":"Respiratory distress","organSystem":"Respiratory, thoracic and mediastinal disorders","sourceVocabulary":"MedDRA 26.0","assessmentType":"SYSTEMATIC_ASSESSMENT","stats":[{"groupId":"EG000","numAffected":0,"numAtRisk":259},{"groupId":"EG001","numAffected":2,"numAtRisk":259}]},{"term":"Respiratory failure","organSystem":"Respiratory, thoracic and mediastinal disorders","sourceVocabulary":"MedDRA 26.0","assessmentType":"SYSTEMATIC_ASSESSMENT","stats":[{"groupId":"EG000","numAffected":11,"numAtRisk":259},{"groupId":"EG001","numAffected":10,"numAtRisk":259}]},{"term":"Decubitus ulcer","organSystem":"Skin and subcutaneous tissue disorders","sourceVocabulary":"MedDRA 26.0","assessmentType":"SYSTEMATIC_ASSESSMENT","stats":[{"groupId":"EG000","numAffected":0,"numAtRisk":259},{"groupId":"EG001","numAffected":2,"numAtRisk":259}]},{"term":"Arteriosclerosis","organSystem":"Vascular disorders","sourceVocabulary":"MedDRA 26.0","assessmentType":"SYSTEMATIC_ASSESSMENT","stats":[{"groupId":"EG000","numAffected":0,"numAtRisk":259},{"groupId":"EG001","numAffected":1,"numAtRisk":259}]},{"term":"Circulatory collapse","organSystem":"Vascular disorders","sourceVocabulary":"MedDRA 26.0","assessmentType":"SYSTEMATIC_ASSESSMENT","stats":[{"groupId":"EG000","numAffected":1,"numAtRisk":259},{"groupId":"EG001","numAffected":1,"numAtRisk":259}]},{"term":"Deep vein thrombosis","organSystem":"Vascular disorders","sourceVocabulary":"MedDRA 26.0","assessmentType":"SYSTEMATIC_ASSESSMENT","stats":[{"groupId":"EG000","numAffected":2,"numAtRisk":259},{"groupId":"EG001","numAffected":5,"numAtRisk":259}]},{"term":"Haemodynamic instability","organSystem":"Vascular disorders","sourceVocabulary":"MedDRA 26.0","assessmentType":"SYSTEMATIC_ASSESSMENT","stats":[{"groupId":"EG000","numAffected":0,"numAtRisk":259},{"groupId":"EG001","numAffected":1,"numAtRisk":259}]},{"term":"Hypertensive urgency","organSystem":"Vascular disorders","sourceVocabulary":"MedDRA 26.0","assessmentType":"SYSTEMATIC_ASSESSMENT","stats":[{"groupId":"EG000","numAffected":1,"numAtRisk":259},{"groupId":"EG001","numAffected":0,"numAtRisk":259}]},{"term":"Hypotension","organSystem":"Vascular disorders","sourceVocabulary":"MedDRA 26.0","assessmentType":"SYSTEMATIC_ASSESSMENT","stats":[{"groupId":"EG000","numAffected":2,"numAtRisk":259},{"groupId":"EG001","numAffected":0,"numAtRisk":259}]},{"term":"Peripheral artery occlusion","organSystem":"Vascular disorders","sourceVocabulary":"MedDRA 26.0","assessmentType":"SYSTEMATIC_ASSESSMENT","stats":[{"groupId":"EG000","numAffected":1,"numAtRisk":259},{"groupId":"EG001","numAffected":0,"numAtRisk":259}]},{"term":"Peripheral artery thrombosis","organSystem":"Vascular disorders","sourceVocabulary":"MedDRA 26.0","assessmentType":"SYSTEMATIC_ASSESSMENT","stats":[{"groupId":"EG000","numAffected":1,"numAtRisk":259},{"groupId":"EG001","numAffected":0,"numAtRisk":259}]},{"term":"Reperfusion injury","organSystem":"Vascular disorders","sourceVocabulary":"MedDRA 26.0","assessmentType":"SYSTEMATIC_ASSESSMENT","stats":[{"groupId":"EG000","numAffected":0,"numAtRisk":259},{"groupId":"EG001","numAffected":1,"numAtRisk":259}]},{"term":"Shock","organSystem":"Vascular disorders","sourceVocabulary":"MedDRA 26.0","assessmentType":"SYSTEMATIC_ASSESSMENT","stats":[{"groupId":"EG000","numAffected":3,"numAtRisk":259},{"groupId":"EG001","numAffected":1,"numAtRisk":259}]},{"term":"Thrombosis","organSystem":"Vascular disorders","sourceVocabulary":"MedDRA 26.0","assessmentType":"SYSTEMATIC_ASSESSMENT","stats":[{"groupId":"EG000","numAffected":0,"numAtRisk":259},{"groupId":"EG001","numAffected":1,"numAtRisk":259}]},{"term":"Venous thrombosis","organSystem":"Vascular disorders","sourceVocabulary":"MedDRA 26.0","assessmentType":"SYSTEMATIC_ASSESSMENT","stats":[{"groupId":"EG000","numAffected":0,"numAtRisk":259},{"groupId":"EG001","numAffected":1,"numAtRisk":259}]}],"otherEvents":[{"term":"Anaemia","organSystem":"Blood and lymphatic system disorders","sourceVocabulary":"MedDRA 26.0","assessmentType":"SYSTEMATIC_ASSESSMENT","stats":[{"groupId":"EG000","numAffected":28,"numAtRisk":259},{"groupId":"EG001","numAffected":25,"numAtRisk":259}]},{"term":"Leukocytosis","organSystem":"Blood and lymphatic system disorders","sourceVocabulary":"MedDRA 26.0","assessmentType":"SYSTEMATIC_ASSESSMENT","stats":[{"groupId":"EG000","numAffected":21,"numAtRisk":259},{"groupId":"EG001","numAffected":16,"numAtRisk":259}]},{"term":"Atrial fibrillation","organSystem":"Cardiac disorders","sourceVocabulary":"MedDRA 26.0","assessmentType":"SYSTEMATIC_ASSESSMENT","stats":[{"groupId":"EG000","numAffected":22,"numAtRisk":259},{"groupId":"EG001","numAffected":17,"numAtRisk":259}]},{"term":"Bradycardia","organSystem":"Cardiac disorders","sourceVocabulary":"MedDRA 26.0","assessmentType":"SYSTEMATIC_ASSESSMENT","stats":[{"groupId":"EG000","numAffected":13,"numAtRisk":259},{"groupId":"EG001","numAffected":13,"numAtRisk":259}]},{"term":"Constipation","organSystem":"Gastrointestinal disorders","sourceVocabulary":"MedDRA 26.0","assessmentType":"SYSTEMATIC_ASSESSMENT","stats":[{"groupId":"EG000","numAffected":54,"numAtRisk":259},{"groupId":"EG001","numAffected":40,"numAtRisk":259}]},{"term":"Diarrhoea","organSystem":"Gastrointestinal disorders","sourceVocabulary":"MedDRA 26.0","assessmentType":"SYSTEMATIC_ASSESSMENT","stats":[{"groupId":"EG000","numAffected":24,"numAtRisk":259},{"groupId":"EG001","numAffected":13,"numAtRisk":259}]},{"term":"Dysphagia","organSystem":"Gastrointestinal disorders","sourceVocabulary":"MedDRA 26.0","assessmentType":"SYSTEMATIC_ASSESSMENT","stats":[{"groupId":"EG000","numAffected":6,"numAtRisk":259},{"groupId":"EG001","numAffected":13,"numAtRisk":259}]},{"term":"Nausea","organSystem":"Gastrointestinal disorders","sourceVocabulary":"MedDRA 26.0","assessmentType":"SYSTEMATIC_ASSESSMENT","stats":[{"groupId":"EG000","numAffected":17,"numAtRisk":259},{"groupId":"EG001","numAffected":13,"numAtRisk":259}]},{"term":"Vomiting","organSystem":"Gastrointestinal disorders","sourceVocabulary":"MedDRA 26.0","assessmentType":"SYSTEMATIC_ASSESSMENT","stats":[{"groupId":"EG000","numAffected":26,"numAtRisk":259},{"groupId":"EG001","numAffected":22,"numAtRisk":259}]},{"term":"Pain","organSystem":"General disorders","sourceVocabulary":"MedDRA 26.0","assessmentType":"SYSTEMATIC_ASSESSMENT","stats":[{"groupId":"EG000","numAffected":8,"numAtRisk":259},{"groupId":"EG001","numAffected":14,"numAtRisk":259}]},{"term":"Pyrexia","organSystem":"General disorders","sourceVocabulary":"MedDRA 26.0","assessmentType":"SYSTEMATIC_ASSESSMENT","stats":[{"groupId":"EG000","numAffected":57,"numAtRisk":259},{"groupId":"EG001","numAffected":66,"numAtRisk":259}]},{"term":"Pneumonia","organSystem":"Infections and infestations","sourceVocabulary":"MedDRA 26.0","assessmentType":"SYSTEMATIC_ASSESSMENT","stats":[{"groupId":"EG000","numAffected":40,"numAtRisk":259},{"groupId":"EG001","numAffected":32,"numAtRisk":259}]},{"term":"Pneumonia aspiration","organSystem":"Infections and infestations","sourceVocabulary":"MedDRA 26.0","assessmentType":"SYSTEMATIC_ASSESSMENT","stats":[{"groupId":"EG000","numAffected":14,"numAtRisk":259},{"groupId":"EG001","numAffected":15,"numAtRisk":259}]},{"term":"Urinary tract infection","organSystem":"Infections and infestations","sourceVocabulary":"MedDRA 26.0","assessmentType":"SYSTEMATIC_ASSESSMENT","stats":[{"groupId":"EG000","numAffected":41,"numAtRisk":259},{"groupId":"EG001","numAffected":29,"numAtRisk":259}]},{"term":"Electrocardiogram qt prolonged","organSystem":"Investigations","sourceVocabulary":"MedDRA 26.0","assessmentType":"SYSTEMATIC_ASSESSMENT","stats":[{"groupId":"EG000","numAffected":13,"numAtRisk":259},{"groupId":"EG001","numAffected":6,"numAtRisk":259}]},{"term":"Hyperglycaemia","organSystem":"Metabolism and nutrition disorders","sourceVocabulary":"MedDRA 26.0","assessmentType":"SYSTEMATIC_ASSESSMENT","stats":[{"groupId":"EG000","numAffected":15,"numAtRisk":259},{"groupId":"EG001","numAffected":14,"numAtRisk":259}]},{"term":"Hypernatraemia","organSystem":"Metabolism and nutrition disorders","sourceVocabulary":"MedDRA 26.0","assessmentType":"SYSTEMATIC_ASSESSMENT","stats":[{"groupId":"EG000","numAffected":23,"numAtRisk":259},{"groupId":"EG001","numAffected":26,"numAtRisk":259}]},{"term":"Hypocalcaemia","organSystem":"Metabolism and nutrition disorders","sourceVocabulary":"MedDRA 26.0","assessmentType":"SYSTEMATIC_ASSESSMENT","stats":[{"groupId":"EG000","numAffected":11,"numAtRisk":259},{"groupId":"EG001","numAffected":13,"numAtRisk":259}]},{"term":"Hypoglycaemia","organSystem":"Metabolism and nutrition disorders","sourceVocabulary":"MedDRA 26.0","assessmentType":"SYSTEMATIC_ASSESSMENT","stats":[{"groupId":"EG000","numAffected":8,"numAtRisk":259},{"groupId":"EG001","numAffected":31,"numAtRisk":259}]},{"term":"Hypokalaemia","organSystem":"Metabolism and nutrition disorders","sourceVocabulary":"MedDRA 26.0","assessmentType":"SYSTEMATIC_ASSESSMENT","stats":[{"groupId":"EG000","numAffected":32,"numAtRisk":259},{"groupId":"EG001","numAffected":35,"numAtRisk":259}]},{"term":"Hyponatraemia","organSystem":"Metabolism and nutrition disorders","sourceVocabulary":"MedDRA 26.0","assessmentType":"SYSTEMATIC_ASSESSMENT","stats":[{"groupId":"EG000","numAffected":18,"numAtRisk":259},{"groupId":"EG001","numAffected":18,"numAtRisk":259}]},{"term":"Hypophosphataemia","organSystem":"Metabolism and nutrition disorders","sourceVocabulary":"MedDRA 26.0","assessmentType":"SYSTEMATIC_ASSESSMENT","stats":[{"groupId":"EG000","numAffected":23,"numAtRisk":259},{"groupId":"EG001","numAffected":14,"numAtRisk":259}]},{"term":"Brain oedema","organSystem":"Nervous system disorders","sourceVocabulary":"MedDRA 26.0","assessmentType":"SYSTEMATIC_ASSESSMENT","stats":[{"groupId":"EG000","numAffected":28,"numAtRisk":259},{"groupId":"EG001","numAffected":28,"numAtRisk":259}]},{"term":"Haemorrhagic transformation stroke","organSystem":"Nervous system disorders","sourceVocabulary":"MedDRA 26.0","assessmentType":"SYSTEMATIC_ASSESSMENT","stats":[{"groupId":"EG000","numAffected":24,"numAtRisk":259},{"groupId":"EG001","numAffected":16,"numAtRisk":259}]},{"term":"Headache","organSystem":"Nervous system disorders","sourceVocabulary":"MedDRA 26.0","assessmentType":"SYSTEMATIC_ASSESSMENT","stats":[{"groupId":"EG000","numAffected":27,"numAtRisk":259},{"groupId":"EG001","numAffected":22,"numAtRisk":259}]},{"term":"Acute kidney injury","organSystem":"Renal and urinary disorders","sourceVocabulary":"MedDRA 26.0","assessmentType":"SYSTEMATIC_ASSESSMENT","stats":[{"groupId":"EG000","numAffected":11,"numAtRisk":259},{"groupId":"EG001","numAffected":17,"numAtRisk":259}]},{"term":"Urinary retention","organSystem":"Renal and urinary disorders","sourceVocabulary":"MedDRA 26.0","assessmentType":"SYSTEMATIC_ASSESSMENT","stats":[{"groupId":"EG000","numAffected":20,"numAtRisk":259},{"groupId":"EG001","numAffected":10,"numAtRisk":259}]},{"term":"Deep vein thrombosis","organSystem":"Vascular disorders","sourceVocabulary":"MedDRA 26.0","assessmentType":"SYSTEMATIC_ASSESSMENT","stats":[{"groupId":"EG000","numAffected":9,"numAtRisk":259},{"groupId":"EG001","numAffected":16,"numAtRisk":259}]},{"term":"Hypertension","organSystem":"Vascular disorders","sourceVocabulary":"MedDRA 26.0","assessmentType":"SYSTEMATIC_ASSESSMENT","stats":[{"groupId":"EG000","numAffected":13,"numAtRisk":259},{"groupId":"EG001","numAffected":7,"numAtRisk":259}]},{"term":"Hypotension","organSystem":"Vascular disorders","sourceVocabulary":"MedDRA 26.0","assessmentType":"SYSTEMATIC_ASSESSMENT","stats":[{"groupId":"EG000","numAffected":18,"numAtRisk":259},{"groupId":"EG001","numAffected":14,"numAtRisk":259}]}]},"moreInfoModule":{"limitationsAndCaveats":{"description":"Early termination of trial due to operational challenges and other strategic considerations, not for efficacy or safety reasons."},"certainAgreement":{"piSponsorEmployee":false,"restrictionType":"OTHER","restrictiveAgreement":true,"otherDetails":"Our agreement is subject to confidentiality but generally the PI can publish, for noncommercial purposes only, results and methods of the trial, but no other Sponsor Confidential Information. PI must give Sponsor no less than 60 days to review any manuscript for a proposed publication and must delay publication for up to an additional 90 days thereafter if Sponsor needs to file any patent application to protect any of Sponsor's intellectual property contained in the proposed publication."},"pointOfContact":{"title":"US Biogen Clinical Trial Center","organization":"Biogen","email":"clinicaltrials@biogen.com","phone":"866-633-4636"}}},"documentSection":{"largeDocumentModule":{"largeDocs":[{"typeAbbrev":"Prot","hasProtocol":true,"hasSap":false,"hasIcf":false,"label":"Study Protocol","date":"2021-06-11","uploadDate":"2023-12-19T05:09","filename":"Prot_000.pdf","size":1718632},{"typeAbbrev":"SAP","hasProtocol":false,"hasSap":true,"hasIcf":false,"label":"Statistical Analysis Plan","date":"2023-07-11","uploadDate":"2023-12-19T05:09","filename":"SAP_001.pdf","size":1385809}]}},"derivedSection":{"miscInfoModule":{"versionHolder":"2024-02-14"},"conditionBrowseModule":{"meshes":[{"id":"D000020521","term":"Stroke"},{"id":"D000001929","term":"Brain Edema"},{"id":"D000007238","term":"Infarction"},{"id":"D000004487","term":"Edema"}],"ancestors":[{"id":"D000007511","term":"Ischemia"},{"id":"D000010335","term":"Pathologic Processes"},{"id":"D000009336","term":"Necrosis"},{"id":"D000002561","term":"Cerebrovascular Disorders"},{"id":"D000001927","term":"Brain Diseases"},{"id":"D000002493","term":"Central Nervous System Diseases"},{"id":"D000009422","term":"Nervous System Diseases"},{"id":"D000014652","term":"Vascular Diseases"},{"id":"D000002318","term":"Cardiovascular Diseases"}],"browseLeaves":[{"id":"M21996","name":"Stroke","asFound":"Stroke, Acute","relevance":"HIGH"},{"id":"M11974","name":"Necrosis","relevance":"LOW"},{"id":"M9972","name":"Infarction","asFound":"Infarction","relevance":"HIGH"},{"id":"M4894","name":"Brain Diseases","relevance":"LOW"},{"id":"M5500","name":"Cerebrovascular Disorders","relevance":"LOW"},{"id":"M17090","name":"Vascular Diseases","relevance":"LOW"},{"id":"M5432","name":"Central Nervous System Diseases","relevance":"LOW"},{"id":"M7347","name":"Edema","asFound":"Edema","relevance":"HIGH"},{"id":"M4896","name":"Brain Edema","asFound":"Brain Edema","relevance":"HIGH"},{"id":"M10233","name":"Ischemia","relevance":"LOW"},{"id":"T170","name":"Acute Graft Versus Host Disease","relevance":"LOW"}],"browseBranches":[{"abbrev":"BC10","name":"Nervous System Diseases"},{"abbrev":"BC14","name":"Heart and Blood Diseases"},{"abbrev":"All","name":"All Conditions"},{"abbrev":"BC23","name":"Symptoms and General Pathology"},{"abbrev":"Rare","name":"Rare Diseases"}]},"interventionBrowseModule":{"meshes":[{"id":"D000005905","term":"Glyburide"}],"ancestors":[{"id":"D000007004","term":"Hypoglycemic Agents"},{"id":"D000045505","term":"Physiological Effects of Drugs"}],"browseLeaves":[{"id":"M9744","name":"Hypoglycemic Agents","relevance":"LOW"},{"id":"M8707","name":"Glyburide","asFound":"Pre-exposure Prophylaxis","relevance":"HIGH"}],"browseBranches":[{"abbrev":"Hypo","name":"Hypoglycemic Agents"},{"abbrev":"All","name":"All Drugs and Chemicals"}]}},"hasResults":true}