{"protocolSection":{"identificationModule":{"nctId":"NCT02897752","orgStudyIdInfo":{"id":"TRIORTHO1523"},"secondaryIdInfos":[{"id":"UMIN-CTR","type":"OTHER","domain":"UMIN000020458"}],"organization":{"fullName":"Translational Research Center for Medical Innovation, Kobe, Hyogo, Japan","class":"OTHER"},"briefTitle":"Clinical Effects of Peroneal Nerve Functional Electrical Stimulation (WalkAide[R]) for Chronic Stroke Patients","officialTitle":"Clinical Effects of Peroneal Nerve Functional Electrical Stimulation (WalkAide[R]) for the Lower Extremities in Chronic Stroke Patients With Hemiplegia: A Multicenter, Prospective, Randomized Controlled Trial","acronym":"PLEASURE"},"statusModule":{"statusVerifiedDate":"2018-04","overallStatus":"COMPLETED","expandedAccessInfo":{"hasExpandedAccess":false},"startDateStruct":{"date":"2016-03-23","type":"ACTUAL"},"primaryCompletionDateStruct":{"date":"2017-12-07","type":"ACTUAL"},"completionDateStruct":{"date":"2017-12-07","type":"ACTUAL"},"studyFirstSubmitDate":"2016-08-05","studyFirstSubmitQcDate":"2016-09-07","studyFirstPostDateStruct":{"date":"2016-09-13","type":"ESTIMATED"},"lastUpdateSubmitDate":"2018-04-17","lastUpdatePostDateStruct":{"date":"2018-04-18","type":"ACTUAL"}},"sponsorCollaboratorsModule":{"responsibleParty":{"type":"SPONSOR"},"leadSponsor":{"name":"Translational Research Center for Medical Innovation, Kobe, Hyogo, Japan","class":"OTHER"},"collaborators":[{"name":"Moji Medical Center, Kyusyu Rosai Hospital","class":"UNKNOWN"}]},"oversightModule":{"oversightHasDmc":true},"descriptionModule":{"briefSummary":"RATIONALE:\n\nThe previous study resulted that the gait training using Functional Electrical Stimulation (FES) improved the ankle joint function and the walking ability for the chronic stroke patients with foot drop.\n\nIn addition, the further exploratory study in multicenter obtained the result that the training with WA were especially good adaptation to the patients who have slight paralysis and can walk independently.\n\nPURPOSE:\n\nThis multicenter prospective trial is studying to reveal whether the gait training with the WalkAide\\[R\\](WA) for chronic stroke patients who can walk independently is superior to gait training with a physical therapist.","detailedDescription":"OBJECTIVE:\n\nTo reveal whether gait training with the WA for chronic stroke patients who can walk independently (Functional Ambulation Classification \\[FAC\\] 5 or 6) is superior to gait training with a physical therapist.\n\nOUTLINE:\n\nThis is a multicenter study. Patients continue gait training with WA or without WA for 4 weeks. The effect of rehabilitation is evaluated by 6 Minute Walk Test without device."},"conditionsModule":{"conditions":["Stroke"],"keywords":["stroke","Rehabilitation","WalkAide (WA)","Functional Electrical Stimulation (FES)"]},"designModule":{"studyType":"INTERVENTIONAL","phases":["NA"],"designInfo":{"allocation":"RANDOMIZED","interventionModel":"PARALLEL","primaryPurpose":"TREATMENT","maskingInfo":{"masking":"NONE"}},"enrollmentInfo":{"count":120,"type":"ESTIMATED"}},"armsInterventionsModule":{"armGroups":[{"label":"WalkAide","type":"EXPERIMENTAL","interventionNames":["Device: gait training with WA"]},{"label":"Usual gait Training","type":"ACTIVE_COMPARATOR","interventionNames":["Other: usual gait training"]}],"interventions":[{"type":"DEVICE","name":"gait training with WA","description":"Thirty seven units (1 unit=20 minutes) of gait training with WA by a physical therapist for the WA group for 4 weeks (+/- 1 week). Thirteen and 24 of the 37 units are training by a physical therapist and self-training, respectively.","armGroupLabels":["WalkAide"]},{"type":"OTHER","name":"usual gait training","description":"Thirty seven units of usual gait training by a physical therapist for the UT group for 4 weeks (+/- 1 week). Thirteen and 24 of the 37 units are training by a physical therapist and self-training, respectively.","armGroupLabels":["Usual gait Training"]}]},"outcomesModule":{"primaryOutcomes":[{"measure":"6 Minute Walk Test (6MWT; walking distance during a 6-minute walk with maximum effort)","description":"An evaluation of the effectiveness of WA-assisted gait training using the 6MWT without any device before and after each intervention in the WA-assisted training group (WA group) and usual training group (UT group).","timeFrame":"4weeks"}],"secondaryOutcomes":[{"measure":"Lower extremity subscale of the Fugl-Meyer Assessment","description":"An evaluation of the severity of lower extremity using the total score of lower extremity subscale of the Fugl-Meyer Assessment (perfect score: 34 points).","timeFrame":"4weeks"},{"measure":"Muscle strength of the ankle dorsiflexor muscle","description":"An evaluation of the value(Newton/kg) using the ankle back flexor force of three times measured on average, divided by the weight value.","timeFrame":"4weeks"},{"measure":"Ankle dorsiflexion range of motion","description":"An evaluation of range of motion (ROM) as the angle of the ankle succumbed back from the knee joint flexed position in the chair seat position (5 Â° increments).","timeFrame":"4weeks"},{"measure":"Modified Ashworth Scale for the plantar flexor muscle","description":"An evaluation of Modified Ashworth Scale (MAS) as the degree of muscle tone six levels ( 0 , 1 , 1+ , 2 , 3 , 4 ) .\n\nThe extent of MAS number indicating the muscle tone degree.","timeFrame":"4weeks"},{"measure":"10 Meter Walk Test (10MWT; speed while walking a set distance of 10 m at the patient's preferred speed).","description":"An evaluation of the effectiveness of WA-assisted gait training using the 10MWT without any device before and after each intervention in the WA and UT groups.","timeFrame":"4weeks"},{"measure":"Stroke Impact Scale","description":"An evaluation of summation score of the total score and physical domain (sixth domain) score.","timeFrame":"4weeks"},{"measure":"Adverse event assessment","description":"A frequency counting of the adverse events. LLT code will be assigned to the reported adverse event using the MedDRA dictionary.\n\nThe origin date of the term until adverse events define the start date of the protocol treatment.","timeFrame":"4weeks"}],"otherOutcomes":[{"measure":"Improvement of QOL","description":"Exploratory outcome for improvement of QOL","timeFrame":"4weeks"}]},"eligibilityModule":{"eligibilityCriteria":"Inclusion Criteria:\n\n* 1)First-ever hemiplegic patients 4 months after the stroke onset\n* 2)Patients whose the lower extremity paralysis is estimated to be stage IV, V or VI according to the Brunnstrom stage\n* 3)Patients whose spasticity of the plantar flexor muscle is estimated at 2 or less according to the Modified Ashworth Scale\n* 4)Patients whose ankle dorsiflexion range of motion is 0 degree or more\n* 5)Patients whose gait performance is estimated to be 5 or 6 according to the FAC\n* 6)Patients who can understand the purpose and instructions of this study and complete the training\n* 7)Patients who agree to participate in this study and provide their written informed consent\n\nExclusion Criteria:\n\n* 1)Patients whose ankle dorsiflexion is not induced by the WA due to peripheral neuropathy\n* 2)Patients who are contraindicated for the WA (e.g., patients with a metallic implant or implantable medical electrical equipment such as a cardiac pacemaker, and patients with a previous or suspected history of seizure)\n* 3)Patients who underwent Botox treatment in the lower extremities within 3 months of this study registry\n* 4)Patients who have nervous system (excluding stroke), cardio-respiratory system, or musculoskeletal system disorders, which may affect gait and training\n* 5)Patients who had fallen down within a week prior to the registry and are regarded to be at a high risk of falling down by an attending physician\n* 6)Patients whose impairment severities changed between the prior and initial assessments\n\n  * Definition of an alteration\n\n    1. Brunnstrom stage for the lower extremity: Confirm whether the stages of the prior and initial assessments are the same value. If these stages are different, this is considered to be an alteration, and the patient with this alteration should be excluded from the study.\n    2. Lower extremity subscale of the Fugl-Meyer Assessment: Confirm whether the change in the score between the prior and initial assessments is 5 or less. If the change is 6 or more, then this is considered to be an alteration, and the patient with this alteration should be excluded from the study.\n    3. Functional Ambulation Classification: Confirm whether the categories of the prior and initial assessments are the same value. If these categories are different, then this is considered to be an alteration, and the patient with this alteration should be excluded from the study.\n* 7) Patients who are regarded to be ineligible for this study by the principal investigator or co-investigators","healthyVolunteers":false,"sex":"ALL","stdAges":["CHILD","ADULT","OLDER_ADULT"]},"contactsLocationsModule":{"overallOfficials":[{"name":"Kenji Hachisuka, MD, Ph.D","affiliation":"Moji Medical Center, Kyusyu Rosai Hospital, Japan Labour Health Welfare Organization","role":"STUDY_CHAIR"}],"locations":[{"facility":"Fukuoka Mirai Hospital","city":"Fukuoka-city","state":"Fukuoka-prefecture","zip":"813-0017","country":"Japan","geoPoint":{"lat":33.6,"lon":130.41667}},{"facility":"Nagao Hospital","city":"Fukuoka-city","state":"Fukuoka-prefecture","zip":"814-0153","country":"Japan","geoPoint":{"lat":33.6,"lon":130.41667}},{"facility":"Hakujuji Hospital","city":"Fukuoka-city","state":"Fukuoka-prefecture","zip":"819-8511","country":"Japan","geoPoint":{"lat":33.6,"lon":130.41667}},{"facility":"Kitakyushu Abeyamakouen Hospital","city":"Kitakyusyu-city","state":"Fukuoka-prefecture","zip":"800-0257","country":"Japan"},{"facility":"Moji Medical Center, Kyusyu Rosai Hospital, Japan Labour Health Welfare Organization","city":"Kitakyusyu-city","state":"Fukuoka-prefecture","zip":"801-8502","country":"Japan"},{"facility":"Tobata Rehabilitation Hospital","city":"Kitakyusyu-city","state":"Fukuoka-prefecture","zip":"804-0092","country":"Japan"},{"facility":"Kitakyushu Yahata Higashi Hospital","city":"Kitakyusyu-city","state":"Fukuoka-prefecture","zip":"805-0061","country":"Japan"},{"facility":"Shin-Oji Hospital","city":"Kitakyusyu-city","state":"Fukuoka-prefecture","zip":"806-0057","country":"Japan"},{"facility":"Tochiku Hospital","city":"Kitakyusyu-city","state":"Fukuoka-prefecture","zip":"807-0856","country":"Japan"},{"facility":"Hospital of the University of Occupational and Environmental Health, Japan","city":"Kitakyusyu-city","state":"Fukuoka-prefecture","zip":"807-8555","country":"Japan"},{"facility":"Yoshino Hospital","city":"Kitakyusyu-city","state":"Fukuoka-prefecture","zip":"808-0034","country":"Japan"},{"facility":"Sapporo Shiroishi Memorial Hospital","city":"Sapporo-city","state":"Hokkaido-prefecture","zip":"003-0026","country":"Japan","geoPoint":{"lat":43.06667,"lon":141.35}},{"facility":"Tokeidai Memorial Hospital","city":"Sapporo-city","state":"Hokkaido-prefecture","zip":"060-0031","country":"Japan","geoPoint":{"lat":43.06667,"lon":141.35}},{"facility":"Hyogo Prefectural Rehabilitation Central Hospital","city":"Kobe-city","state":"Hyogo-prefecture","zip":"651-2181","country":"Japan","geoPoint":{"lat":34.6913,"lon":135.183}},{"facility":"Yoshida Hospital, Cerebrovascular Research Institute","city":"Kobe-city","state":"Hyogo-prefecture","zip":"652-0803","country":"Japan","geoPoint":{"lat":34.6913,"lon":135.183}},{"facility":"Yamaga Onsen Rehabilitation Hospital","city":"Yamaga-city","state":"Kumamoto-prefecture","zip":"861-0514","country":"Japan","geoPoint":{"lat":33.01667,"lon":130.68909}},{"facility":"Nichinan Municipal Chubu Hospital","city":"Nichinan-city","state":"Miyazaki-prefecture","zip":"889-3141","country":"Japan","geoPoint":{"lat":31.6,"lon":131.36667}},{"facility":"Nagasakikita Hospital","city":"Nishisonogi-gun","state":"Nagasaki-prefecture","zip":"851-2103","country":"Japan"},{"facility":"Beppu Rehabilitation Center","city":"Beppu-city","state":"Oita-prefecture","zip":"874-8611","country":"Japan","geoPoint":{"lat":33.27945,"lon":131.49751}},{"facility":"Ginowan Memorial Hospital","city":"Ginowan-city","state":"Okinawa-prefecture","zip":"901-2211","country":"Japan","geoPoint":{"lat":26.26265,"lon":127.76147}},{"facility":"Chuzan Hospital","city":"Okinawa-city","state":"Okinawa-prefecture","zip":"904-2151","country":"Japan","geoPoint":{"lat":26.33583,"lon":127.80139}},{"facility":"Nanbu-Tokushukai Hospital","city":"Shimajiri-gun","state":"Okinawa-prefecture","zip":"901-0493","country":"Japan"},{"facility":"Saitama Misato Sogo Rehabilitation Hospital","city":"Misato-city","state":"Saitama-prefecture","zip":"341-0034","country":"Japan"},{"facility":"Showa Hospital","city":"Shimonoseki-city","state":"Yamaguchi-prefecture","zip":"750-0059","country":"Japan","geoPoint":{"lat":33.95001,"lon":130.94999}}]}},"derivedSection":{"miscInfoModule":{"versionHolder":"2024-02-14"},"conditionBrowseModule":{"meshes":[{"id":"D000020521","term":"Stroke"}],"ancestors":[{"id":"D000002561","term":"Cerebrovascular Disorders"},{"id":"D000001927","term":"Brain Diseases"},{"id":"D000002493","term":"Central Nervous System Diseases"},{"id":"D000009422","term":"Nervous System Diseases"},{"id":"D000014652","term":"Vascular Diseases"},{"id":"D000002318","term":"Cardiovascular Diseases"}],"browseLeaves":[{"id":"M21996","name":"Stroke","asFound":"Stroke","relevance":"HIGH"},{"id":"M9205","name":"Hemiplegia","relevance":"LOW"},{"id":"M5500","name":"Cerebrovascular Disorders","relevance":"LOW"},{"id":"M4894","name":"Brain Diseases","relevance":"LOW"},{"id":"M5432","name":"Central Nervous System Diseases","relevance":"LOW"},{"id":"M17090","name":"Vascular Diseases","relevance":"LOW"},{"id":"T1303","name":"Chronic Graft Versus Host Disease","relevance":"LOW"}],"browseBranches":[{"abbrev":"BC10","name":"Nervous System Diseases"},{"abbrev":"BC14","name":"Heart and Blood Diseases"},{"abbrev":"All","name":"All Conditions"},{"abbrev":"BC23","name":"Symptoms and General Pathology"},{"abbrev":"Rare","name":"Rare Diseases"}]}},"hasResults":false}