{"protocolSection":{"identificationModule":{"nctId":"NCT00144014","orgStudyIdInfo":{"id":"V10153-2S-01"},"organization":{"fullName":"Vernalis (R&D) Ltd","class":"INDUSTRY"},"briefTitle":"Safety and Efficacy Study in Acute Ischaemic Stroke","officialTitle":"A Phase II, Multi-centre, Two-part Study to Evaluate the Safety and Efficacy of Study Drug in Acute Ischaemic Stroke.","acronym":"VASST"},"statusModule":{"statusVerifiedDate":"2016-05","overallStatus":"COMPLETED","expandedAccessInfo":{"hasExpandedAccess":false},"startDateStruct":{"date":"2005-08"},"primaryCompletionDateStruct":{"date":"2008-11","type":"ACTUAL"},"completionDateStruct":{"date":"2009-03","type":"ACTUAL"},"studyFirstSubmitDate":"2005-09-01","studyFirstSubmitQcDate":"2005-09-01","studyFirstPostDateStruct":{"date":"2005-09-02","type":"ESTIMATED"},"dispFirstSubmitDate":"2016-05-04","dispFirstSubmitQcDate":"2016-05-04","dispFirstPostDateStruct":{"date":"2016-06-03","type":"ESTIMATED"},"lastUpdateSubmitDate":"2016-05-04","lastUpdatePostDateStruct":{"date":"2016-06-03","type":"ESTIMATED"}},"sponsorCollaboratorsModule":{"responsibleParty":{"type":"SPONSOR"},"leadSponsor":{"name":"Vernalis (R&D) Ltd","class":"INDUSTRY"}},"oversightModule":{"oversightHasDmc":true},"descriptionModule":{"briefSummary":"A Phase II study to evaluate the safety and efficacy of five dose levels of study drug in acute ischaemic stroke","detailedDescription":"An open label, dose escalation study where patients with acute ischaemic stroke will receive a single intravenous dose of study drug. There will be five dose levels with groups of 10 patients in each. Escalation to higher doses will occur following review of safety data from the previous dose."},"conditionsModule":{"conditions":["Stroke"],"keywords":["Acute","Ischaemic","Stroke"]},"designModule":{"studyType":"INTERVENTIONAL","phases":["PHASE2"],"designInfo":{"allocation":"NON_RANDOMIZED","interventionModel":"PARALLEL","primaryPurpose":"TREATMENT","maskingInfo":{"masking":"NONE"}},"enrollmentInfo":{"count":49,"type":"ACTUAL"}},"armsInterventionsModule":{"armGroups":[{"label":"V10153, 1.0 mg/kg","type":"EXPERIMENTAL","description":"Single acute intravenous bolus dose","interventionNames":["Drug: V10153"]},{"label":"V10153, 2.5 mg/kg","type":"EXPERIMENTAL","description":"Single acute intravenous bolus dose","interventionNames":["Drug: V10153"]},{"label":"V10153, 5.0 mg/kg","type":"EXPERIMENTAL","description":"Single acute intravenous bolus dose","interventionNames":["Drug: V10153"]},{"label":"V10153, 7.5 mg/kg","type":"EXPERIMENTAL","description":"Single acute intravenous bolus dose","interventionNames":["Drug: V10153"]},{"label":"V10153, 10 mg/kg","type":"EXPERIMENTAL","description":"Single acute intravenous bolus dose","interventionNames":["Drug: V10153"]}],"interventions":[{"type":"DRUG","name":"V10153","description":"Single acute intravenous bolus dose up to 10 mg/kg","armGroupLabels":["V10153, 1.0 mg/kg","V10153, 10 mg/kg","V10153, 2.5 mg/kg","V10153, 5.0 mg/kg","V10153, 7.5 mg/kg"],"otherNames":["Code Names: V10153, BB-10153","CAS Registry Number: 931101-84-7","Proposed INN: Troplasminogen alfa"]}]},"outcomesModule":{"primaryOutcomes":[{"measure":"To establish the safety of five dose levels (1.0, 2.5, 5, 7.5 and 10 mg/kg)of V10153 in patients with acute ischaemic stroke.","timeFrame":"Ongoing"}],"secondaryOutcomes":[{"measure":"To compare recanalisation rates across dose levels.","timeFrame":"Ongoing"},{"measure":"To compare clinical outcome between treatments by NIHSS, Modified Rankin Scale and Barthel Index.","timeFrame":"Post-study completion"}]},"eligibilityModule":{"eligibilityCriteria":"Summary of Inclusion Criteria:\n\n1. Onset of new neurological signs of stroke within 3 to 9 hours of the time to initiation of treatment\n2. Aged 18 and above\n3. Provide consent\n4. Cerebral CT scan to show findings of early ischaemic changes consistent with the clinical diagnosis and an ASPECT score of between 5 and 10 inclusive.\n5. NIHSS score greater than 5 or less than or equal to 20.\n\nSummary of Exclusion Criteria:\n\n1. Coma\n2. Stroke with unknown time of onset\n3. Minor stroke symptoms and sings (\\<6 points on the NIHSS) which are rapidly improving by the time of randomisation.\n4. Major stroke symptoms and signs (\\>20 on the NIHSS)\n5. History of stroke in previous 6 weeks\n6. History of brain tumours\n7. CT scan results in an ASPECT score of \\<5\n8. Haemorrhagic risk\n9. Abnormal laboratory values\n10. Positive urine pregnancy test, lactation or parturition within previous 30 days.\n11. Weight \\>135 kg\n12. Uncontrolled hypertension.\n13. Raised blood glucose\n14. History of or current serious illness\n15. Participation in another clinical trial within 4 weeks of drug administration\n\n    -","healthyVolunteers":false,"sex":"ALL","minimumAge":"18 Years","stdAges":["ADULT","OLDER_ADULT"]},"contactsLocationsModule":{"overallOfficials":[{"name":"Michael Hill","affiliation":"Foothills Hosptial","role":"PRINCIPAL_INVESTIGATOR"}],"locations":[{"facility":"Stroke Centre, Mayo Clinic","city":"Scottsdale","state":"Arizona","zip":"85054","country":"United States","geoPoint":{"lat":33.50921,"lon":-111.89903}},{"facility":"UCLA Stroke Network","city":"Los Angeles","state":"California","zip":"90024","country":"United States","geoPoint":{"lat":34.05223,"lon":-118.24368}},{"facility":"Neurology Medical Group of Diablo Valley","city":"Walnut Creek","state":"California","zip":"94598","country":"United States","geoPoint":{"lat":37.90631,"lon":-122.06496}},{"facility":"Bethesda Memorial Hospital","city":"Boynton Beach","state":"Florida","zip":"33435","country":"United States","geoPoint":{"lat":26.52535,"lon":-80.06643}},{"facility":"Bradenton Research Centre","city":"Bradenton","state":"Florida","zip":"34205","country":"United States","geoPoint":{"lat":27.49893,"lon":-82.57482}},{"facility":"Ocala Neurodiagnostic Centre","city":"Ocala","state":"Florida","zip":"34470","country":"United States","geoPoint":{"lat":29.1872,"lon":-82.14009}},{"facility":"Florida Hospital of Neuroscience Institute","city":"Orlando","state":"Florida","zip":"32804","country":"United States","geoPoint":{"lat":28.53834,"lon":-81.37924}},{"facility":"Tallahassee Memorial Hospital","city":"Tallahassee","state":"Florida","zip":"32308","country":"United States","geoPoint":{"lat":30.43826,"lon":-84.28073}},{"facility":"Florida Neurovascular Institue Stroke Center","city":"Tampa","state":"Florida","zip":"33606","country":"United States","geoPoint":{"lat":27.94752,"lon":-82.45843}},{"facility":"Vascular Neurology, Loyola University Medical Center","city":"Maywood","state":"Illinois","zip":"60153","country":"United States","geoPoint":{"lat":41.8792,"lon":-87.84312}},{"facility":"Center for Advanced Medicine, Jewish Hospital","city":"Louisville","state":"Kentucky","zip":"40202","country":"United States","geoPoint":{"lat":38.25424,"lon":-85.75941}},{"facility":"University of Louisville Hospital","city":"Louisville","state":"Kentucky","zip":"40202","country":"United States","geoPoint":{"lat":38.25424,"lon":-85.75941}},{"facility":"UMAS Memorial Medical Centre","city":"Worcester","state":"Massachusetts","zip":"01655","country":"United States","geoPoint":{"lat":42.26259,"lon":-71.80229}},{"facility":"Sunrise Hospital and Medical Centre","city":"Las Vegas","state":"Nevada","zip":"89109","country":"United States","geoPoint":{"lat":36.17497,"lon":-115.13722}},{"facility":"Washoe Stroke Center","city":"Reno","state":"Nevada","zip":"89502","country":"United States","geoPoint":{"lat":39.52963,"lon":-119.8138}},{"facility":"Stroke Centre, Neurological Institute, Carolinas Medical Centre","city":"Charlotte","state":"North Carolina","zip":"28203","country":"United States","geoPoint":{"lat":35.22709,"lon":-80.84313}},{"facility":"Forsyth Medical Center","city":"Winston Salem","state":"North Carolina","zip":"27103","country":"United States","geoPoint":{"lat":36.09986,"lon":-80.24422}},{"facility":"Lancaster General Hospital","city":"Lancaster","state":"Pennsylvania","zip":"17602","country":"United States","geoPoint":{"lat":40.03788,"lon":-76.30551}},{"facility":"University of Pennsylvania Medical Center","city":"Philadelphia","state":"Pennsylvania","zip":"19104","country":"United States","geoPoint":{"lat":39.95233,"lon":-75.16379}},{"facility":"Medical University South Carolina Hospitals and Clinics","city":"Charleston","state":"South Carolina","zip":"29425","country":"United States","geoPoint":{"lat":32.77657,"lon":-79.93092}},{"facility":"Erlanger Health System","city":"Chattanooga","state":"Tennessee","zip":"37404","country":"United States","geoPoint":{"lat":35.04563,"lon":-85.30968}},{"facility":"Neurological Institute, The Methodist Hospital","city":"Houston","state":"Texas","zip":"77030","country":"United States","geoPoint":{"lat":29.76328,"lon":-95.36327}},{"facility":"Division of Neuro-Ophthalmology, Virginia Commonwealth University","city":"Richmond","state":"Virginia","zip":"23298-0599","country":"United States","geoPoint":{"lat":37.55376,"lon":-77.46026}},{"facility":"Gordon & Leslie Diamond Health Care Centre","city":"Vancouver","state":"British Columbia","zip":"V5Z 1M9","country":"Canada","geoPoint":{"lat":49.24966,"lon":-123.11934}},{"facility":"Centre for Stroke Research, Vancouver Island Health Research Centre","city":"Victoria","state":"British Columbia","zip":"V8R 1J8","country":"Canada","geoPoint":{"lat":48.43294,"lon":-123.3693}},{"facility":"71 King Street West","city":"Mississauga","state":"Ontario","zip":"L5B 4A2","country":"Canada","geoPoint":{"lat":43.5789,"lon":-79.6583}},{"facility":"Royal University Hospital","city":"Saskatoon","state":"Saskatchewan","zip":"S7K 0L4","country":"Canada","geoPoint":{"lat":52.13238,"lon":-106.66892}},{"facility":"Hospital Charles LeMoyne","city":"Quebec","zip":"J4V 2H1","country":"Canada","geoPoint":{"lat":46.81228,"lon":-71.21454}}]},"ipdSharingStatementModule":{"ipdSharing":"UNDECIDED"}},"derivedSection":{"miscInfoModule":{"versionHolder":"2024-02-14"},"conditionBrowseModule":{"meshes":[{"id":"D000020521","term":"Stroke"},{"id":"D000083242","term":"Ischemic Stroke"}],"ancestors":[{"id":"D000002561","term":"Cerebrovascular Disorders"},{"id":"D000001927","term":"Brain Diseases"},{"id":"D000002493","term":"Central Nervous System Diseases"},{"id":"D000009422","term":"Nervous System Diseases"},{"id":"D000014652","term":"Vascular Diseases"},{"id":"D000002318","term":"Cardiovascular Diseases"}],"browseLeaves":[{"id":"M21996","name":"Stroke","asFound":"Stroke","relevance":"HIGH"},{"id":"M10233","name":"Ischemia","relevance":"LOW"},{"id":"M2401","name":"Ischemic Stroke","asFound":"Ischemic Stroke","relevance":"HIGH"},{"id":"M5500","name":"Cerebrovascular Disorders","relevance":"LOW"},{"id":"M4894","name":"Brain Diseases","relevance":"LOW"},{"id":"M5432","name":"Central Nervous System Diseases","relevance":"LOW"},{"id":"M17090","name":"Vascular Diseases","relevance":"LOW"},{"id":"T170","name":"Acute Graft Versus Host Disease","relevance":"LOW"}],"browseBranches":[{"abbrev":"BC10","name":"Nervous System Diseases"},{"abbrev":"BC14","name":"Heart and Blood Diseases"},{"abbrev":"All","name":"All Conditions"},{"abbrev":"BC23","name":"Symptoms and General Pathology"},{"abbrev":"Rare","name":"Rare Diseases"}]}},"hasResults":false}