{"protocolSection":{"identificationModule":{"nctId":"NCT04304508","orgStudyIdInfo":{"id":"19766"},"secondaryIdInfos":[{"id":"2019-003431-33","type":"EUDRACT_NUMBER"}],"organization":{"fullName":"Bayer","class":"INDUSTRY"},"briefTitle":"Study to Gather Information About Proper Dosing and Safety of the Oral FXIa Inhibitor BAY 2433334 in Patients Following a Recent Non Cardioembolic Ischemic Stroke Which Occurs When a Blood Clot Has Formed Somewhere in the Human Body (But Not in the Heart) Travelled to the Brain.","officialTitle":"Multicenter, Randomized, Placebo-controlled, Double-blind, Parallel Group, Dose-finding Phase 2 Study to Evaluate Efficacy and Safety of BAY2433334 in Patients Following an Acute Non-cardioembolic Ischemic Stroke","acronym":"PACIFIC-STROKE"},"statusModule":{"statusVerifiedDate":"2023-04","overallStatus":"COMPLETED","expandedAccessInfo":{"hasExpandedAccess":false},"startDateStruct":{"date":"2020-06-15","type":"ACTUAL"},"primaryCompletionDateStruct":{"date":"2022-02-18","type":"ACTUAL"},"completionDateStruct":{"date":"2022-02-18","type":"ACTUAL"},"studyFirstSubmitDate":"2020-03-08","studyFirstSubmitQcDate":"2020-03-08","studyFirstPostDateStruct":{"date":"2020-03-11","type":"ACTUAL"},"resultsFirstSubmitDate":"2023-02-15","resultsFirstSubmitQcDate":"2023-04-17","resultsFirstPostDateStruct":{"date":"2023-04-19","type":"ACTUAL"},"lastUpdateSubmitDate":"2023-04-17","lastUpdatePostDateStruct":{"date":"2023-04-19","type":"ACTUAL"}},"sponsorCollaboratorsModule":{"responsibleParty":{"type":"SPONSOR"},"leadSponsor":{"name":"Bayer","class":"INDUSTRY"},"collaborators":[{"name":"Population Health Research Institute","class":"OTHER"}]},"oversightModule":{"oversightHasDmc":true,"isFdaRegulatedDrug":true,"isFdaRegulatedDevice":false},"descriptionModule":{"briefSummary":"The purpose of this study is to try to find the best dose of the new drug BAY 2433334 to give to participants and to look at how well BAY 2433334 works on top of antiplatelet therapy in patients following a recent non cardioembolic ischemic stroke which occurs when a blood clot that has not formed in the heart travelled to the brain. BAY 2433334, works by blocking a step of the blood clotting process in our body and thins the blood and is a so called oral FXIa inhibitor."},"conditionsModule":{"conditions":["Acute Non-cardioembolic Ischemic Stroke"]},"designModule":{"studyType":"INTERVENTIONAL","phases":["PHASE2"],"designInfo":{"allocation":"RANDOMIZED","interventionModel":"PARALLEL","primaryPurpose":"TREATMENT","maskingInfo":{"masking":"QUADRUPLE","whoMasked":["PARTICIPANT","CARE_PROVIDER","INVESTIGATOR","OUTCOMES_ASSESSOR"]}},"enrollmentInfo":{"count":1808,"type":"ACTUAL"}},"armsInterventionsModule":{"armGroups":[{"label":"BAY2433334 high dose","type":"EXPERIMENTAL","interventionNames":["Drug: BAY2433334"]},{"label":"BAY2433334 medium dose","type":"EXPERIMENTAL","interventionNames":["Drug: BAY2433334"]},{"label":"BAY2433334 low dose","type":"EXPERIMENTAL","interventionNames":["Drug: BAY2433334"]},{"label":"BAY2433334 matching placebo","type":"PLACEBO_COMPARATOR","interventionNames":["Other: BAY2433334 matching placebo"]}],"interventions":[{"type":"DRUG","name":"BAY2433334","description":"Tablet, taken orally once a day.","armGroupLabels":["BAY2433334 high dose","BAY2433334 low dose","BAY2433334 medium dose"]},{"type":"OTHER","name":"BAY2433334 matching placebo","description":"Tablet, taken orally once a day.","armGroupLabels":["BAY2433334 matching placebo"]}]},"outcomesModule":{"primaryOutcomes":[{"measure":"Efficacy-Number of Participants With Composite of Symptomatic Ischemic Stroke or Covert Brain Infarcts Detected by Magnetic Resonance Imaging (MRI)","description":"Ischemic stroke was defined as either of : 1) Rapid onset (or present on awakening) of a new focal neurological deficit with clinical (\\>24 hours symptoms/signs) or imaging evidence of infarction that was not attributable to a non-ischemic cause; 2) Acute worsening of an existing focal neurological deficit that was judged to be attributable to a new infarction or extension of the previous infarction in the same vascular territory, based on persisting symptoms/signs or imaging evidence of infarction and no evidence of a non-ischemic etiology. If imaging was inconclusive, persistent symptoms/signs must be significant (worsening of NIHSS score of 4 or more) and sustained (duration of ≥24 hours or until death). Covert brain infarcts were defined as incident infarcts detected by serial MRI in the absence of an adjudicated stroke consistent with the location of the infarct. MRI criteria for brain infarction were available in the MRI procedures manual.","timeFrame":"From baseline up to 26 weeks"},{"measure":"Safety-Number of Participants With Composite of International Society on Thrombosis and Hemostasis (ISTH) Major Bleeding and Clinically Relevant Non-major (CRNM) Bleeding","description":"ISTH Major Bleeding criteria: 1. Fatal bleeding, and/or 2. Symptomatic bleeding in a critical area or organ (intracranial, intraocular, intraspinal, pericardial, retroperitoneal, intraarticular, or intramuscular with compartment syndrome), and/or 3. Clinically overt bleeding associated with a recent decrease in the hemoglobin level of ≥ 2 g/dL (20 g/L; 1.24 mmol/L) compared to the most recent hemoglobin value available before the event, and/or 4. Clinically overt bleeding leading to transfusion of 2 or more units of packed red blood cells or whole blood. ISTH Clinically Relevant Non-Major Bleeding is considered any sign or symptom of hemorrhage that does not fit the criteria for the ISTH definition of major bleeding, but does meet at least one of the following criteria 1. requiring medical intervention by a healthcare professional. 2. leading to hospitalization or increased level of care. 3. prompting a face to face (i.e. not just a telephone or electronic communication) evaluation.","timeFrame":"From baseline up to 52 weeks"}],"secondaryOutcomes":[{"measure":"Efficacy-Number of Participants With Composite of Symptomatic Ischemic Stroke and Covert Brain Infarcts Detected by MRI, Cardiovascular (CV) Death, Myocardial Infarction (MI) and Systemic Embolism.","description":"CV death included death due to stroke, MI, heart failure or cardiogenic shock, sudden death or any other death due to other cardiovascular causes. Death due to non-traumatic hemorrhage was included. Acute MI was used when there was evidence of myocardial necrosis in a clinical setting consistent with acute myocardial ischemia. According to MI Universal Definition from 2018 the diagnosis of MI required the combination of: 1) Presence of acute myocardial injury, and 2) Evidence of acute myocardial ischemia derived from the clinical presentation, electrocardiographic changes, or the results of myocardial or coronary artery imaging, or in case of post-mortem pathological findings irrespective of biomarker values. Systemic embolism was defined as abrupt vascular insufficiency associated with clinical or radiological evidence of arterial occlusion in the absence of other likely mechanisms (this did not include thromboembolism of the pulmonary vasculature or venous thrombosis).","timeFrame":"From baseline up to 26 weeks"},{"measure":"Efficacy-Number of Participants With Symptomatic Ischemic Stroke","description":"Definition of symptomatic ischemic stroke can be referred to first Primary endpoint.","timeFrame":"From baseline up to 52 weeks"},{"measure":"Efficacy-Number of Participants With Covert Brain Infarcts Detected by MRI","description":"Definition of covert brain infarcts can be referred to first Primary endpoint.","timeFrame":"From baseline up to 26 weeks"},{"measure":"Efficacy-Number of Participants With Symptomatic Ischemic Stroke, CV Death, MI","description":"Definition of symptomatic ischemic stroke can be referred to first Primary endpoint. Definition of CV death and MI can be referred to first Second endpoint.","timeFrame":"From baseline up to 52 weeks"},{"measure":"Efficacy-Number of Participants With Symptomatic Ischemic and Hemorrhagic Stroke","description":"Definition of symptomatic ischemic can be referred to fourth secondary endpoint. Hemorrhagic stroke was defined as an acute, atraumatic extravasation of blood into the brain parenchyma, intraventricular or subarachnoid space with associated neurological symptoms. This did not include microbleeds or hemorrhagic transformation of an ischemic stroke.","timeFrame":"From baseline up to 52 weeks"},{"measure":"Efficacy-Number of Participants With Disabling Stroke (mRS≥4)","description":"Modified ranking score (mRS): 0-No symptoms at all; 1-No significant disability despite symptoms; despite symptoms, able to carry out all usual duties and activities; 2-Slight disability; unable to carry out all previous activities but able to look after own affairs without assistance; 3-Moderate disability; requiring some help, but able to walk without assistance; 4-Moderately severe disability; unable to walk without assistance and unable to attend to own bodily needs without assistance; 5-Severe disability; bedridden, incontinent and requiring constant nursing care and attention; 6-Death.","timeFrame":"From baseline up to 52 weeks"},{"measure":"Efficacy-Number of Participants With All-cause Mortality","timeFrame":"From baseline up to 52 weeks"},{"measure":"Safety-Number of Participants With All Bleeding","description":"All bleeding events occurred from first intake of study intervention until 2 days after the last intake of study intervention.","timeFrame":"From baseline up to 52 weeks"},{"measure":"Safety-Number of Participants With ISTH Major Bleeding","description":"Definition of ISTH major bleeding can be referred to second Primary endpoint.","timeFrame":"From baseline up to 52 weeks"},{"measure":"Safety-Number of Participants With ISTH CRNM Bleeding","description":"Definition of ISTH CRNM bleeding can be referred to second Primary endpoint.","timeFrame":"From baseline up to 52 weeks"},{"measure":"Safety-Number of Participants With ISTH Minor Bleeding","description":"All other overt bleeding episodes not meeting the above criteria for ISTH major or CRNM bleeding were classified as minor bleeding (e.g. bleeding from a minor wound that does not prompt a face-to-face evaluation for a physical examination or laboratory testing).","timeFrame":"From baseline up to 52 weeks"},{"measure":"Safety-Number of Participants With Intracerebral Hemorrhage (Non-traumatic)","description":"Non-traumatic intracerebral hemorrhage was defined as a hemorrhagic stroke on the \"recurrent stroke\" CRF page that is in addition classified as a bleeding with bleeding site intracranial (-subarachnoid, -intraparenchymal \\[excluding microbleeds\\], or -intraventricular) and spontaneous causality of bleeding, excluding all symptomatic and hemorrhagic transformation (defined by the PT \"hemorrhagic transformation\").","timeFrame":"From baseline up to 52 weeks"}]},"eligibilityModule":{"eligibilityCriteria":"Inclusion Criteria:\n\n* Participant must be 45 years of age and older at the time of signing the informed consent\n* Non-cardioembolic ischemic stroke with\n\n  * persistent signs and symptoms of stroke lasting for ≥ 24 hours OR\n  * acute brain infarction documented by computed tomography (CT) or MRI AND\n  * with the intention to be treated with antiplatelet therapy during the study conduct\n* Imaging of brain (CT or MRI) ruling out hemorrhagic stroke or another pathology that could explain symptoms (e.g. brain tumor, abscess, vascular malformation)\n* Severity of index event nearest the time of randomization:\n\n  * Part A: minor stroke (defined as National Institutes of Health Stroke Scale (NIHSS) ≤ 7) can be enrolled\n  * Part B: participants with minor or moderate stroke and NIHSS ≤ 15 can be enrolled. Participants undergoing thrombolysis or endovascular therapy (mechanical thrombectomy) can be enrolled but at the earliest 24 hours after the intervention\n* Randomization within 48 hours after the onset of symptoms of the index event (or after patients were last known to be without symptoms in case of wake-up stroke)\n* Ability to conduct an MRI either before randomization or within 72 hours after randomization\n\nExclusion Criteria:\n\n* Prior ischemic stroke within last 30 days of index event\n* History of atrial fibrillation or suspicion of cardioembolic source of stroke\n* Dysphagia with inability to safely swallow study medication\n* Contraindication to perform brain MRI\n* Part A only: thrombolysis or endovascular therapy (mechanical thrombectomy) performed for index event\n* Active bleeding; known bleeding disorder, history of major bleeding (intracranial, retroperitoneal, intraocular) or clinically significant gastrointestinal bleeding within last 6 months of randomization.","healthyVolunteers":false,"sex":"ALL","minimumAge":"45 Years","stdAges":["ADULT","OLDER_ADULT"]},"contactsLocationsModule":{"locations":[{"facility":"Univ.of South Florida College of Medicine","city":"Tampa","state":"Florida","zip":"33606","country":"United States","geoPoint":{"lat":27.94752,"lon":-82.45843}},{"facility":"Minneapolis Clinic of Neurology, Ltd.","city":"Golden Valley","state":"Minnesota","zip":"55422","country":"United States","geoPoint":{"lat":45.00969,"lon":-93.34912}},{"facility":"St. Luke's Hospital of Kansas City","city":"Kansas City","state":"Missouri","zip":"64111","country":"United States","geoPoint":{"lat":39.09973,"lon":-94.57857}},{"facility":"Guilford Neurologic Associates","city":"Greensboro","state":"North Carolina","zip":"27405","country":"United States","geoPoint":{"lat":36.07264,"lon":-79.79198}},{"facility":"University of Pittsburgh Medical Center Hamot","city":"Erie","state":"Pennsylvania","zip":"16550","country":"United States","geoPoint":{"lat":42.12922,"lon":-80.08506}},{"facility":"Liverpool Hospital","city":"Liverpool","state":"New South Wales","zip":"2170","country":"Australia","geoPoint":{"lat":-33.90011,"lon":150.93328}},{"facility":"John Hunter Hospital","city":"New Lambton","state":"New South Wales","zip":"2305","country":"Australia","geoPoint":{"lat":-32.95,"lon":151.68333}},{"facility":"Royal North Shore Hospital","city":"Sydney","state":"New South Wales","zip":"2065","country":"Australia","geoPoint":{"lat":-33.86785,"lon":151.20732}},{"facility":"Sunshine Coast University Hospital","city":"Birtinya","state":"Queensland","zip":"4575","country":"Australia","geoPoint":{"lat":-26.74322,"lon":153.11913}},{"facility":"Gold Coast University Hospital","city":"Southport","state":"Queensland","zip":"4215","country":"Australia","geoPoint":{"lat":-27.96724,"lon":153.39796}},{"facility":"Royal Adelaide Hospital","city":"Adelaide","state":"South Australia","zip":"5000","country":"Australia","geoPoint":{"lat":-34.92866,"lon":138.59863}},{"facility":"Grampians Health Ballarat","city":"Ballarat","state":"Victoria","zip":"3350","country":"Australia","geoPoint":{"lat":-37.56622,"lon":143.84957}},{"facility":"Eastern Clinical Research Unit - Box Hill","city":"Box Hill","state":"Victoria","zip":"3128","country":"Australia","geoPoint":{"lat":-37.81887,"lon":145.12545}},{"facility":"Royal Melbourne Hospital","city":"Parkville","state":"Victoria","zip":"3052","country":"Australia","geoPoint":{"lat":-37.78333,"lon":144.95}},{"facility":"The Alfred Hospital","city":"Prahran","state":"Victoria","zip":"3004","country":"Australia","geoPoint":{"lat":-37.85114,"lon":144.99318}},{"facility":"Fiona Stanley Hospital","city":"Murdoch","state":"Western Australia","zip":"6961","country":"Australia","geoPoint":{"lat":-32.06987,"lon":115.83757}},{"facility":"Krankenhaus der Barmherzigen Brüder Eisenstadt","city":"Eisenstadt","state":"Burgenland","zip":"7000","country":"Austria","geoPoint":{"lat":47.84565,"lon":16.52327}},{"facility":"Konventhospital Barmherzige Brüder Linz","city":"Linz","state":"Oberösterreich","zip":"4021","country":"Austria","geoPoint":{"lat":48.30639,"lon":14.28611}},{"facility":"Medizinische Universität Innsbruck","city":"Innsbruck","state":"Tirol","zip":"6020","country":"Austria","geoPoint":{"lat":47.26266,"lon":11.39454}},{"facility":"Christian-Doppler-Klinik","city":"Salzburg","zip":"5020","country":"Austria","geoPoint":{"lat":47.79941,"lon":13.04399}},{"facility":"Krankenhaus der Barmherzigen Brüder","city":"Wien","zip":"1020","country":"Austria","geoPoint":{"lat":48.20849,"lon":16.37208}},{"facility":"Universitätsklinikum AKH Wien","city":"Wien","zip":"1090","country":"Austria","geoPoint":{"lat":48.20849,"lon":16.37208}},{"facility":"Klinik Favoriten - Sozialmedizinisches Zentrum Süd","city":"Wien","zip":"1100","country":"Austria","geoPoint":{"lat":48.20849,"lon":16.37208}},{"facility":"Jessa Ziekenhuis","city":"Hasselt","state":"Limburg","zip":"3500","country":"Belgium","geoPoint":{"lat":50.93106,"lon":5.33781}},{"facility":"CHC MontLégia","city":"Liege","state":"Liège","zip":"4000","country":"Belgium","geoPoint":{"lat":50.63373,"lon":5.56749}},{"facility":"AZ Klina / Neurology","city":"Brasschaat","zip":"2930","country":"Belgium","geoPoint":{"lat":51.2912,"lon":4.49182}},{"facility":"UZ Brussel","city":"Brussel","zip":"1090","country":"Belgium","geoPoint":{"lat":50.85045,"lon":4.34878}},{"facility":"UZ Leuven Gasthuisberg","city":"Leuven","zip":"3000","country":"Belgium","geoPoint":{"lat":50.87959,"lon":4.70093}},{"facility":"Kust, Ommeland en Meetjesland (KOM) Network | AZ Damiaan - Neurology Department","city":"Oostende","zip":"8400","country":"Belgium","geoPoint":{"lat":51.21551,"lon":2.927}},{"facility":"AZ Delta / Neurology","city":"Roeselare","zip":"8800","country":"Belgium","geoPoint":{"lat":50.94653,"lon":3.12269}},{"facility":"Clinique de l'Europe","city":"Uccle","zip":"1180","country":"Belgium","geoPoint":{"lat":50.80225,"lon":4.33943}},{"facility":"MHAT Haskovo","city":"Haskovo","zip":"6300","country":"Bulgaria","geoPoint":{"lat":41.93415,"lon":25.55557}},{"facility":"UMHAT Dr. Georgi Stranski","city":"Pleven","zip":"5809","country":"Bulgaria","geoPoint":{"lat":43.41667,"lon":24.61667}},{"facility":"MHAT Sveti Pantaleymon - Plovdiv","city":"Plovdiv","zip":"4000","country":"Bulgaria","geoPoint":{"lat":42.15,"lon":24.75}},{"facility":"UMHAT Kanev AD","city":"Ruse","zip":"7002","country":"Bulgaria","geoPoint":{"lat":43.85639,"lon":25.97083}},{"facility":"First Multiprofile Hospital for Active Treatment Sofia EAD","city":"Sofia","zip":"1000","country":"Bulgaria","geoPoint":{"lat":42.69751,"lon":23.32415}},{"facility":"MHAT National Cardiology Hospital EAD","city":"Sofia","zip":"1309","country":"Bulgaria","geoPoint":{"lat":42.69751,"lon":23.32415}},{"facility":"Acibadem City Clinic Multiprofile Hospital for Active Treatm","city":"Sofia","zip":"1407","country":"Bulgaria","geoPoint":{"lat":42.69751,"lon":23.32415}},{"facility":"UMHATEM N. I. Pirogov EAD","city":"Sofia","zip":"1606","country":"Bulgaria","geoPoint":{"lat":42.69751,"lon":23.32415}},{"facility":"UMHAT \"Sveta Anna\"-Sofia","city":"Sofia","zip":"1750","country":"Bulgaria","geoPoint":{"lat":42.69751,"lon":23.32415}},{"facility":"MHAT Sveta Marina EAD","city":"Varna","zip":"9010","country":"Bulgaria","geoPoint":{"lat":43.21667,"lon":27.91667}},{"facility":"Daqing Oilfield General Hospital","city":"Daqing","state":"Heilongjiang","zip":"163000","country":"China","geoPoint":{"lat":46.58333,"lon":125.0}},{"facility":"Baogang hospital","city":"Baotou","state":"Inner Mongolia","zip":"014010","country":"China","geoPoint":{"lat":40.65222,"lon":109.82222}},{"facility":"Nanjing First Hospital","city":"Nanjing","state":"Jiangsu","zip":"210006","country":"China","geoPoint":{"lat":32.06167,"lon":118.77778}},{"facility":"Zhongda Hospital Southeast University","city":"Nanjing","state":"Jiangsu","zip":"210009","country":"China","geoPoint":{"lat":32.06167,"lon":118.77778}},{"facility":"The First Hospital of Jilin University","city":"Changchun","state":"Jilin","zip":"130000","country":"China","geoPoint":{"lat":43.88,"lon":125.32278}},{"facility":"People's Hospital of Deyang City","city":"Deyang","state":"Sichuan","zip":"618099","country":"China","geoPoint":{"lat":31.13019,"lon":104.38198}},{"facility":"Huashan Hospital, Fudan University","city":"Shanghai","zip":"200040","country":"China","geoPoint":{"lat":31.22222,"lon":121.45806}},{"facility":"Tianjin Huanhu Hospital","city":"Tianjin","zip":"300350","country":"China","geoPoint":{"lat":39.14222,"lon":117.17667}},{"facility":"Fakultni nemocnice u sv. Anny","city":"Brno","zip":"656 91","country":"Czechia","geoPoint":{"lat":49.19522,"lon":16.60796}},{"facility":"Nemocnice Ceske Budejovice, a.s. Department of kardiologie","city":"Ceske Budejovice","zip":"370 01","country":"Czechia","geoPoint":{"lat":48.97447,"lon":14.47434}},{"facility":"Fakultni Nemocnice Hradec Kralove","city":"Hradec Kralove","zip":"500 05","country":"Czechia","geoPoint":{"lat":50.20923,"lon":15.83277}},{"facility":"Hospital Jihlava - Nemocnice Jihlava","city":"Jihlava","zip":"58633","country":"Czechia","geoPoint":{"lat":49.3961,"lon":15.59124}},{"facility":"Vitkovicka nemocnice a.s.","city":"Ostrava Vitkovice","zip":"70384","country":"Czechia","geoPoint":{"lat":49.83465,"lon":18.28204}},{"facility":"Fakultni nemocnice Ostrava","city":"Ostrava-Poruba","zip":"708 52","country":"Czechia","geoPoint":{"lat":49.83465,"lon":18.28204}},{"facility":"Nemocnice Pardubickeho kraje, a.s., Pardubicka nemocnice","city":"Pardubice","zip":"530 03","country":"Czechia","geoPoint":{"lat":50.04075,"lon":15.77659}},{"facility":"Fakultni nemocnice Kralovske Vinohrady","city":"Praha 10","zip":"10034","country":"Czechia","geoPoint":{"lat":50.08804,"lon":14.42076}},{"facility":"Nemocnice na Homolce - Neurology Department","city":"Praha 5-Motol","zip":"150 00","country":"Czechia","geoPoint":{"lat":50.08804,"lon":14.42076}},{"facility":"Aalborg Universitetshospital -Neurology","city":"Aalborg","zip":"9100","country":"Denmark","geoPoint":{"lat":57.048,"lon":9.9187}},{"facility":"Aarhus Universitetshospital, Skejby","city":"Aarhus N","zip":"8200","country":"Denmark","geoPoint":{"lat":56.15674,"lon":10.21076}},{"facility":"Bispebjerg Hospital","city":"Copenhagen","zip":"2400","country":"Denmark","geoPoint":{"lat":55.67594,"lon":12.56553}},{"facility":"Rigshospitalet Glostrup","city":"Glostrup","zip":"2600","country":"Denmark","geoPoint":{"lat":55.6666,"lon":12.40377}},{"facility":"Herlev Hospital - Neurology Dept.","city":"Herlev","zip":"2730","country":"Denmark","geoPoint":{"lat":55.72366,"lon":12.43998}},{"facility":"Regionshospitalet Gødstrup","city":"Herning","zip":"7400","country":"Denmark","geoPoint":{"lat":56.13932,"lon":8.97378}},{"facility":"Nordsjælland Hospital Hillerød","city":"Hillerød","zip":"DK-3400","country":"Denmark","geoPoint":{"lat":55.92791,"lon":12.30081}},{"facility":"Sygehus Lillebaelt | Kolding Sygehus - Medicinske Sygdomme","city":"Kolding","zip":"6000","country":"Denmark","geoPoint":{"lat":55.4904,"lon":9.47216}},{"facility":"HUS, Meilahden sairaala","city":"Helsinki","zip":"00029","country":"Finland","geoPoint":{"lat":60.16952,"lon":24.93545}},{"facility":"Itä-Suomen yliopisto","city":"Kuopio","zip":"70210","country":"Finland","geoPoint":{"lat":62.89238,"lon":27.67703}},{"facility":"Turun yliopistollinen keskussairaala","city":"Turku","zip":"FIN-20520","country":"Finland","geoPoint":{"lat":60.45148,"lon":22.26869}},{"facility":"Hopital Jean Minjoz","city":"Besancon","zip":"25030","country":"France","geoPoint":{"lat":47.24878,"lon":6.01815}},{"facility":"Hôpital Pellegrin - Bordeaux","city":"Bordeaux","zip":"33000","country":"France","geoPoint":{"lat":44.84044,"lon":-0.5805}},{"facility":"Centre Hospitalier Universitaire - Le Kremlin Bicêtre","city":"Le Kremlin-bicetre","zip":"94275","country":"France","geoPoint":{"lat":48.81471,"lon":2.36073}},{"facility":"Centre Hospitalier - Le Mans","city":"Le Mans","zip":"72037","country":"France","geoPoint":{"lat":48.0,"lon":0.2}},{"facility":"Hôpital B - Lille","city":"Lille","zip":"59037","country":"France","geoPoint":{"lat":50.63297,"lon":3.05858}},{"facility":"Hopital Central - Nancy","city":"Nancy","zip":"54037","country":"France","geoPoint":{"lat":48.68439,"lon":6.18496}},{"facility":"Centre hospitalier Sainte Anne","city":"PARIS cedex 14","zip":"75674","country":"France","geoPoint":{"lat":48.85341,"lon":2.3488}},{"facility":"Hôpital Lariboisière - Paris","city":"Paris","zip":"75475","country":"France","geoPoint":{"lat":48.85341,"lon":2.3488}},{"facility":"Hôpital de la Pitié-Salpétrière","city":"Paris","zip":"75634","country":"France","geoPoint":{"lat":48.85341,"lon":2.3488}},{"facility":"Hôpital Pontchaillou","city":"Rennes Cedex","zip":"35033","country":"France","geoPoint":{"lat":48.11198,"lon":-1.67429}},{"facility":"Hôpital Purpan - Toulouse","city":"Toulouse","zip":"31059","country":"France","geoPoint":{"lat":43.60426,"lon":1.44367}},{"facility":"Universitätsklinikum Heidelberg","city":"Heidelberg","state":"Baden-Württemberg","zip":"69120","country":"Germany","geoPoint":{"lat":49.40768,"lon":8.69079}},{"facility":"Eberhard-Karls-Universität Tübingen","city":"Tübingen","state":"Baden-Württemberg","zip":"72076","country":"Germany","geoPoint":{"lat":48.52266,"lon":9.05222}},{"facility":"Universitätsklinikum Ulm","city":"Ulm","state":"Baden-Württemberg","zip":"89081","country":"Germany","geoPoint":{"lat":48.39841,"lon":9.99155}},{"facility":"Rhön-Klinikum Campus Bad Neustadt","city":"Bad Neustadt","state":"Bayern","zip":"97616","country":"Germany"},{"facility":"Universitätsklinikum der Johann Wolfgang Goethe Universität","city":"Frankfurt","state":"Hessen","zip":"60528","country":"Germany","geoPoint":{"lat":50.11552,"lon":8.68417}},{"facility":"Klinikum Frankfurt Höchst GmbH","city":"Frankfurt","state":"Hessen","zip":"65929","country":"Germany","geoPoint":{"lat":50.11552,"lon":8.68417}},{"facility":"Medizinische Hochschule Hannover (MHH)","city":"Hannover","state":"Niedersachsen","zip":"30625","country":"Germany","geoPoint":{"lat":52.37052,"lon":9.73322}},{"facility":"Heinrich-Heine-Universität Düsseldorf","city":"Düsseldorf","state":"Nordrhein-Westfalen","zip":"40225","country":"Germany","geoPoint":{"lat":51.22172,"lon":6.77616}},{"facility":"Alfried Krupp Krankenhaus Rüttenscheid /Neurologie","city":"Essen","state":"Nordrhein-Westfalen","zip":"45131","country":"Germany","geoPoint":{"lat":51.45657,"lon":7.01228}},{"facility":"Universitätsklinikum Leipzig AöR","city":"Leipzig","state":"Sachsen","zip":"04103","country":"Germany","geoPoint":{"lat":51.33962,"lon":12.37129}},{"facility":"Klinikum Altenburger Land GmbH","city":"Altenburg","state":"Thüringen","zip":"04600","country":"Germany","geoPoint":{"lat":50.98763,"lon":12.43684}},{"facility":"Eszak-Pesti Centrumkorhaz-Honvedkorhaz","city":"Budapest","zip":"1134","country":"Hungary","geoPoint":{"lat":47.49801,"lon":19.03991}},{"facility":"Debreceni Egyetem Klinikai Kozpont","city":"Debrecen","zip":"4032","country":"Hungary","geoPoint":{"lat":47.53333,"lon":21.63333}},{"facility":"Flor Ferenc Korhaz","city":"Kistarcsa","zip":"2143","country":"Hungary","geoPoint":{"lat":47.54757,"lon":19.26247}},{"facility":"Pecsi Tudomanyegyetem Klinikai Kozpont","city":"Pecs","zip":"7624","country":"Hungary","geoPoint":{"lat":46.08333,"lon":18.23333}},{"facility":"SZTE ÁOK Szent Györgyi Albert Klinikai Kozpont","city":"Szeged","zip":"6725","country":"Hungary","geoPoint":{"lat":46.253,"lon":20.14824}},{"facility":"Zala Megyei Szent Rafael Korhaz","city":"Zalaegerszeg","zip":"8900","country":"Hungary","geoPoint":{"lat":46.84,"lon":16.84389}},{"facility":"AUSL di Bologna","city":"Bologna","state":"Emilia-Romagna","zip":"40133","country":"Italy","geoPoint":{"lat":44.49381,"lon":11.33875}},{"facility":"AUSL della Romagna","city":"Forlì Cesena","state":"Emilia-Romagna","zip":"47521","country":"Italy"},{"facility":"AUSL-IRCCS di Reggio Emilia","city":"Reggio Emilia","state":"Emilia-Romagna","zip":"42123","country":"Italy","geoPoint":{"lat":44.69825,"lon":10.63125}},{"facility":"A.O. San Camillo-Forlanini","city":"Roma","state":"Lazio","zip":"00152","country":"Italy","geoPoint":{"lat":41.89193,"lon":12.51133}},{"facility":"Ospedale San Raffaele s.r.l.","city":"Milano","state":"Lombardia","zip":"20132","country":"Italy","geoPoint":{"lat":45.46427,"lon":9.18951}},{"facility":"Fondazione Istituto Neurologico Nazionale Casimiro Mondino","city":"Pavia","state":"Lombardia","zip":"27100","country":"Italy","geoPoint":{"lat":45.19205,"lon":9.15917}},{"facility":"A.O.U. Ospedali Riuniti \"Umberto I - G.M.Lancisi - G.Salesi\"","city":"Ancona","state":"Marche","zip":"60126","country":"Italy","geoPoint":{"lat":43.5942,"lon":13.50337}},{"facility":"A.O.U. Senese","city":"Siena","state":"Toscana","zip":"53100","country":"Italy","geoPoint":{"lat":43.31822,"lon":11.33064}},{"facility":"A.O. di Perugia","city":"Perugia","state":"Umbria","zip":"06129","country":"Italy","geoPoint":{"lat":43.1122,"lon":12.38878}},{"facility":"Nagoya Ekisaikai Hospital","city":"Nagoya","state":"Aichi","zip":"454-8502","country":"Japan","geoPoint":{"lat":35.18147,"lon":136.90641}},{"facility":"Kokura Memorial Hospital","city":"Kitakyushu","state":"Fukuoka","zip":"802-8555","country":"Japan","geoPoint":{"lat":33.85181,"lon":130.85034}},{"facility":"St.Mary's Hospital","city":"Kurume","state":"Fukuoka","zip":"830-8543","country":"Japan","geoPoint":{"lat":33.31667,"lon":130.51667}},{"facility":"Southern Tohoku Medical Clinic","city":"Koriyama","state":"Fukushima","zip":"963-8563","country":"Japan","geoPoint":{"lat":37.4,"lon":140.38333}},{"facility":"Hakodate Shintoshi Hospital","city":"Hakodate","state":"Hokkaido","zip":"041-0802","country":"Japan","geoPoint":{"lat":41.77583,"lon":140.73667}},{"facility":"Hyogo Prefectural Harima-Himeji General Medical Center","city":"Himeji","state":"Hyogo","zip":"670-8560","country":"Japan","geoPoint":{"lat":34.81667,"lon":134.7}},{"facility":"Kobe City Medical Center General Hospital","city":"Kobe","state":"Hyogo","zip":"650-0047","country":"Japan","geoPoint":{"lat":34.6913,"lon":135.183}},{"facility":"JA Toride Medical Center","city":"Toride","state":"Ibaraki","zip":"302-0022","country":"Japan","geoPoint":{"lat":35.9,"lon":140.08333}},{"facility":"Shonan Kamakura General Hospital","city":"Kamakura","state":"Kanagawa","zip":"247-8533","country":"Japan","geoPoint":{"lat":35.30889,"lon":139.55028}},{"facility":"Kyoto Okamoto Memorial Hospital","city":"Kusegun","state":"Kyoto","zip":"613-0034","country":"Japan"},{"facility":"Uji-Tokushukai Medical Center","city":"Uji","state":"Kyoto","zip":"611-0041","country":"Japan","geoPoint":{"lat":34.89044,"lon":135.80325}},{"facility":"Nozaki Tokushukai Hospital","city":"Daito","state":"Osaka","zip":"574-0074","country":"Japan"},{"facility":"Kyorin University Hospital","city":"Mitaka","state":"Tokyo","zip":"181-8611","country":"Japan","geoPoint":{"lat":35.68351,"lon":139.55963}},{"facility":"Saiseikai Fukuoka General Hospital","city":"Fukuoka","zip":"810-0001","country":"Japan","geoPoint":{"lat":33.6,"lon":130.41667}},{"facility":"National Hospital Organization Kyushu Medical Center","city":"Fukuoka","zip":"810-8563","country":"Japan","geoPoint":{"lat":33.6,"lon":130.41667}},{"facility":"Gifu Prefectural General Medical Center","city":"Gifu","zip":"500-8717","country":"Japan","geoPoint":{"lat":35.42291,"lon":136.76039}},{"facility":"Hiroshima City Hiroshima Citizens Hospital","city":"Hiroshima","zip":"730-8518","country":"Japan","geoPoint":{"lat":34.4,"lon":132.45}},{"facility":"Chikamori Hospital","city":"Kochi","zip":"780-8522","country":"Japan","geoPoint":{"lat":33.55,"lon":133.53333}},{"facility":"Saiseikai Kumamoto Hospital","city":"Kumamoto","zip":"861-4193","country":"Japan","geoPoint":{"lat":32.80589,"lon":130.69182}},{"facility":"Japanese Red Cross Kumamoto Hospital","city":"Kumamoto","zip":"861-8520","country":"Japan","geoPoint":{"lat":32.80589,"lon":130.69182}},{"facility":"Ijinkai Takeda General Hospital","city":"Kyoto","zip":"601-1495","country":"Japan","geoPoint":{"lat":35.02107,"lon":135.75385}},{"facility":"Nagano Municipal Hospital","city":"Nagano","zip":"381-8551","country":"Japan","geoPoint":{"lat":36.65,"lon":138.18333}},{"facility":"Academisch Medisch Centrum (AMC)","city":"Amsterdam","zip":"1105 AZ","country":"Netherlands","geoPoint":{"lat":52.37403,"lon":4.88969}},{"facility":"Zuyderland Medisch Centrum","city":"Heerlen","zip":"6419 PC","country":"Netherlands","geoPoint":{"lat":50.88365,"lon":5.98154}},{"facility":"St. Antonius Ziekenhuis","city":"Nieuwegein","zip":"3435 CM","country":"Netherlands","geoPoint":{"lat":52.02917,"lon":5.08056}},{"facility":"Isala","city":"Zwolle","zip":"8025 AB","country":"Netherlands","geoPoint":{"lat":52.5125,"lon":6.09444}},{"facility":"Copernicus PL, M.Kopernik Hospital","city":"Gdansk","zip":"80-803","country":"Poland","geoPoint":{"lat":54.35205,"lon":18.64637}},{"facility":"Samodzielny Publiczny Specjalistyczny Szpital Zachodni","city":"Grodzisk Mazowiecki","zip":"05-825","country":"Poland","geoPoint":{"lat":52.10387,"lon":20.6337}},{"facility":"Gornoslaskie CM im. Prof. Leszka Gieca SUM w Katowicach","city":"Katowice","zip":"40-635","country":"Poland","geoPoint":{"lat":50.25841,"lon":19.02754}},{"facility":"Szpital Uniwersytecki w Krakowie","city":"Krakow","zip":"30-688","country":"Poland","geoPoint":{"lat":50.06143,"lon":19.93658}},{"facility":"Samodzielny Publiczny Szpital Kliniczny nr 4","city":"Lublin","zip":"20-090","country":"Poland","geoPoint":{"lat":51.25,"lon":22.56667}},{"facility":"Mazowiecki Szpital Specjalistyczny im. dr. Jozefa Psarskiego","city":"Ostroleka","zip":"07-410","country":"Poland","geoPoint":{"lat":53.08621,"lon":21.57566}},{"facility":"Wojskowy Instytut Medyczny","city":"Warszawa","zip":"04-141","country":"Poland","geoPoint":{"lat":52.22977,"lon":21.01178}},{"facility":"Luz Saude | Hospital Beatriz Angelo - Centro de Investigacao Clinica","city":"Loures","state":"Lisboa","zip":"2674-514","country":"Portugal","geoPoint":{"lat":38.83091,"lon":-9.16845}},{"facility":"ULSM - Hospital Pedro Hispano","city":"Matosinhos","state":"Porto","zip":"4464-513","country":"Portugal","geoPoint":{"lat":41.18207,"lon":-8.68908}},{"facility":"Hospital Garcia de Orta | Research Department","city":"Almada","state":"Setúbal","zip":"2801-951","country":"Portugal","geoPoint":{"lat":38.67902,"lon":-9.1569}},{"facility":"CHUC - Hospitais da U. Coimbra - Servico de Neurologia","city":"Coimbra","zip":"3004-561","country":"Portugal","geoPoint":{"lat":40.20564,"lon":-8.41955}},{"facility":"CHLO - Hospital Egas Moniz","city":"Lisboa","zip":"1349-019","country":"Portugal","geoPoint":{"lat":38.71667,"lon":-9.13333}},{"facility":"Hospital da Luz - Lisboa","city":"Lisboa","zip":"1500-650","country":"Portugal","geoPoint":{"lat":38.71667,"lon":-9.13333}},{"facility":"CHULN - Hospital Santa Maria","city":"Lisboa","zip":"1649-035","country":"Portugal","geoPoint":{"lat":38.71667,"lon":-9.13333}},{"facility":"CHUSJ - Hospital Sao Joao","city":"Porto","zip":"4200-319","country":"Portugal","geoPoint":{"lat":41.14961,"lon":-8.61099}},{"facility":"City Clinical Hospital #3","city":"Chelyabinsk","zip":"454021","country":"Russian Federation","geoPoint":{"lat":55.15402,"lon":61.42915}},{"facility":"Sci-Res. Institute of Complex Cardiovascular Disorders","city":"Kemerovo","zip":"650002","country":"Russian Federation","geoPoint":{"lat":55.33333,"lon":86.08333}},{"facility":"Regional Clinical Hospital #1 n.a. prof. S.V. Ochapovsky","city":"Krasnodar","zip":"350086","country":"Russian Federation","geoPoint":{"lat":45.04484,"lon":38.97603}},{"facility":"Railway clinical hospital on the station Novosibirsk-Glavniy","city":"Novosibirsk","zip":"630003","country":"Russian Federation","geoPoint":{"lat":55.0415,"lon":82.9346}},{"facility":"City clinical hospital #40 Sestroretsk","city":"Sestroretsk","zip":"197706","country":"Russian Federation","geoPoint":{"lat":60.09801,"lon":29.96378}},{"facility":"Tomsk Regional Clinical Hospital","city":"Tomsk","zip":"634063","country":"Russian Federation","geoPoint":{"lat":56.49771,"lon":84.97437}},{"facility":"Clinical Inter-District Hospital of Vsevolozhsk","city":"Vsevolozhsk","zip":"188643","country":"Russian Federation","geoPoint":{"lat":60.01512,"lon":30.67314}},{"facility":"Sverdlovsk Regional Clinical Hospital #1","city":"Yekaterinburg","zip":"620102","country":"Russian Federation","geoPoint":{"lat":56.8519,"lon":60.6122}},{"facility":"Univerzitna nemocnica Bratislava, Nemocnica Stare Mesto","city":"Bratislava","zip":"813 69","country":"Slovakia","geoPoint":{"lat":48.14816,"lon":17.10674}},{"facility":"Dolnooravska nemocnica s poliklinikou L. Nadasi Jegeho","city":"Dolny Kubin","zip":"026 14","country":"Slovakia","geoPoint":{"lat":49.20983,"lon":19.30341}},{"facility":"Vseobecna nemocnica s poliklinikou Levoca, a.s.","city":"Levoca","zip":"054 01","country":"Slovakia","geoPoint":{"lat":49.02173,"lon":20.59212}},{"facility":"Liptovska nemocnica s poliklinikou MUDr. Ivana Stodolu","city":"Liptovsky Mikulas","zip":"031 023","country":"Slovakia","geoPoint":{"lat":49.08061,"lon":19.62218}},{"facility":"Svet zdravia, a. s. Vseobecna nemocnica Rimavska Sobota","city":"Rimavska Sobota","zip":"979 12","country":"Slovakia","geoPoint":{"lat":48.38284,"lon":20.02239}},{"facility":"Fakultna nemocnica AGEL Skalica, a.s.","city":"Skalica","zip":"909 82","country":"Slovakia","geoPoint":{"lat":48.8449,"lon":17.22635}},{"facility":"Svet zdravia, a.s. Nemocnica s poliklinikou Spisska Nova Ves","city":"Spisska Nova Ves","zip":"05201","country":"Slovakia","geoPoint":{"lat":48.94464,"lon":20.56153}},{"facility":"Fakultna nemocnica Trnava","city":"Trnava","zip":"917 75","country":"Slovakia","geoPoint":{"lat":48.37741,"lon":17.58723}},{"facility":"Vseobecna nemocnica v Ziari nad Hronom","city":"Ziar nad Hronom","zip":"965 37","country":"Slovakia","geoPoint":{"lat":48.59184,"lon":18.84958}},{"facility":"Hospital Clínico Universitario de Santiago de Compostela","city":"Santiago de Compostela","state":"A Coruña","zip":"15706","country":"Spain","geoPoint":{"lat":42.88052,"lon":-8.54569}},{"facility":"Hospital Universitari Germans Trias i Pujol","city":"Badalona","state":"Barcelona","zip":"08916","country":"Spain","geoPoint":{"lat":41.45004,"lon":2.24741}},{"facility":"Hospital de la Mútua de Terrassa","city":"Terrassa","state":"Barcelona","zip":"8221","country":"Spain","geoPoint":{"lat":41.56667,"lon":2.01667}},{"facility":"Hospital Rey Juan Carlos","city":"Móstoles","state":"Madrid","zip":"28933","country":"Spain","geoPoint":{"lat":40.32234,"lon":-3.86496}},{"facility":"Complejo Hospitalario Universitario de Albacete | Hospital General Universitario - Neurology Department, Stroke Unit","city":"Albacete","zip":"02006","country":"Spain","geoPoint":{"lat":38.99424,"lon":-1.85643}},{"facility":"Hospital del Mar","city":"Barcelona","zip":"08003","country":"Spain","geoPoint":{"lat":41.38879,"lon":2.15899}},{"facility":"Ciutat Sanitaria i Universitaria de la Vall d'Hebron","city":"Barcelona","zip":"08023","country":"Spain","geoPoint":{"lat":41.38879,"lon":2.15899}},{"facility":"Hospital de la Santa Creu i Sant Pau | Neurology Department - Stroke, No-Cardioembolic-Tia","city":"Barcelona","zip":"08025","country":"Spain","geoPoint":{"lat":41.38879,"lon":2.15899}},{"facility":"Hospital Universitario Arnau de Vilanova de Lleida","city":"Lleida","zip":"25198","country":"Spain","geoPoint":{"lat":41.61674,"lon":0.62218}},{"facility":"Hospital Universitario de la Princesa","city":"Madrid","zip":"28006","country":"Spain","geoPoint":{"lat":40.4165,"lon":-3.70256}},{"facility":"Hospital Universitario Ramon y Cajal | Neurology Department - Stroke, No-Cardioembolic-Tia","city":"Madrid","zip":"28034","country":"Spain","geoPoint":{"lat":40.4165,"lon":-3.70256}},{"facility":"Hospital Clinico Universitario San Carlos | Neurologia","city":"Madrid","zip":"28040","country":"Spain","geoPoint":{"lat":40.4165,"lon":-3.70256}},{"facility":"Hospital Universitario Virgen del Rocío","city":"Sevilla","zip":"41013","country":"Spain","geoPoint":{"lat":37.38283,"lon":-5.97317}},{"facility":"La Fe University and Polytechnic Hospital | Neurology Service - Vascular Unit","city":"Valencia","zip":"46026","country":"Spain","geoPoint":{"lat":39.46975,"lon":-0.37739}},{"facility":"Hospital Universitario Clinico de Valladolid | Neurology Department","city":"Valladolid","zip":"47003","country":"Spain","geoPoint":{"lat":41.65518,"lon":-4.72372}},{"facility":"Skånes Universitetssjukhus","city":"Lund","zip":"221 85","country":"Sweden","geoPoint":{"lat":55.70584,"lon":13.19321}},{"facility":"Danderyds sjukhus","city":"Stockholm","zip":"182 88","country":"Sweden","geoPoint":{"lat":59.33258,"lon":18.0649}},{"facility":"Norrlands Universitetssjukhus, Umeå","city":"Umeå","zip":"901 85","country":"Sweden","geoPoint":{"lat":63.82842,"lon":20.25972}},{"facility":"Universitätsspital Basel","city":"Basel","state":"Basel-Stadt","zip":"4031","country":"Switzerland","geoPoint":{"lat":47.55839,"lon":7.57327}},{"facility":"Spitalzentrum Biel","city":"Biel","state":"Bern","zip":"2501","country":"Switzerland","geoPoint":{"lat":47.13713,"lon":7.24608}},{"facility":"Kantonsspital St. Gallen","city":"St. Gallen","state":"Sankt Gallen","zip":"9007","country":"Switzerland","geoPoint":{"lat":47.42391,"lon":9.37477}},{"facility":"Kantonsspital Baden","city":"Baden","zip":"5404","country":"Switzerland","geoPoint":{"lat":47.47333,"lon":8.30592}},{"facility":"Inselspital Universitätsspital Bern","city":"Bern","zip":"3010","country":"Switzerland","geoPoint":{"lat":46.94809,"lon":7.44744}},{"facility":"Ospedale regionale di Lugano","city":"Lugano","zip":"6900","country":"Switzerland","geoPoint":{"lat":46.01008,"lon":8.96004}},{"facility":"Countess of Chester Hospital","city":"Chester","state":"Cheshire","zip":"CH2 1UL","country":"United Kingdom","geoPoint":{"lat":53.1905,"lon":-2.89189}},{"facility":"Arrowe Park Hospital","city":"Wirral","state":"Merseyside","zip":"CH49 5PE","country":"United Kingdom","geoPoint":{"lat":53.37616,"lon":-3.10501}},{"facility":"Royal Victoria Infirmary","city":"Newcastle Upon Tyne","state":"Tyne And Wear","zip":"NE1 4LP","country":"United Kingdom","geoPoint":{"lat":54.97328,"lon":-1.61396}},{"facility":"Addenbrookes Hospital","city":"Cambridge","zip":"CB2 0QQ","country":"United Kingdom","geoPoint":{"lat":52.2,"lon":0.11667}},{"facility":"University Hospitals Coventry and Warwickshire NHS Trust","city":"Coventry","zip":"CV2 2DX","country":"United Kingdom","geoPoint":{"lat":52.40656,"lon":-1.51217}},{"facility":"Glasgow Royal Infirmary | Glasgow Clinical Research Facility","city":"Glasgow","zip":"G4 0SF","country":"United Kingdom","geoPoint":{"lat":55.86515,"lon":-4.25763}},{"facility":"Queen Elizabeth University Hospital","city":"Glasgow","zip":"G51 4TF","country":"United Kingdom","geoPoint":{"lat":55.86515,"lon":-4.25763}},{"facility":"St George's Hospital","city":"London","zip":"SW17 0QT","country":"United Kingdom","geoPoint":{"lat":51.50853,"lon":-0.12574}},{"facility":"Charing Cross Hospital","city":"London","zip":"W6 8RF","country":"United Kingdom","geoPoint":{"lat":51.50853,"lon":-0.12574}}]},"referencesModule":{"references":[{"pmid":"36063821","type":"DERIVED","citation":"Shoamanesh A, Mundl H, Smith EE, Masjuan J, Milanov I, Hirano T, Agafina A, Campbell B, Caso V, Mas JL, Dong Q, Turcani P, Christensen H, Ferro JM, Veltkamp R, Mikulik R, De Marchis GM, Robinson T, Lemmens R, Stepien A, Greisenegger S, Roine R, Csiba L, Khatri P, Coutinho J, Lindgren AG, Demchuk AM, Colorado P, Kirsch B, Neumann C, Heenan L, Xu L, Connolly SJ, Hart RG; PACIFIC-Stroke Investigators. Factor XIa inhibition with asundexian after acute non-cardioembolic ischaemic stroke (PACIFIC-Stroke): an international, randomised, double-blind, placebo-controlled, phase 2b trial. Lancet. 2022 Sep 24;400(10357):997-1007. doi: 10.1016/S0140-6736(22)01588-4. Epub 2022 Sep 2."}],"seeAlsoLinks":[{"label":"Click here to find information about studies related to Bayer Healthcare products conducted in Europe.","url":"http://www.clinicaltrialsregister.eu/"},{"label":"Click here to find information for studies related to Bayer products. To find this study enter the ClinicalTrials.gov identifier (NCT) number or Bayer Study Identifier (ID) in the search field.","url":"http://clinicaltrials.bayer.com/"}]},"ipdSharingStatementModule":{"ipdSharing":"UNDECIDED","description":"Availability of this study's data will be determined according to Bayer's commitment to the EFPIA/PhRMA \"Principles for responsible clinical trial data sharing\". This pertains to scope, timepoint and process of data access.\n\nAs such, Bayer commits to sharing upon request from qualified researchers patient-level clinical trial data, study-level clinical trial data, and protocols from clinical trials in patients for medicines and indications approved in the US and EU as necessary for conducting legitimate research. This applies to data on new medicines and indications that have been approved by the EU and US regulatory agencies on or after January 01, 2014.\n\nInterested researchers can use www.clinicalstudydatarequest.com to request access to anonymized patient-level data and supporting documents from clinical studies to conduct research. Information on the Bayer criteria for listing studies and other relevant information is provided in the Study sponsors section of the portal."}},"resultsSection":{"participantFlowModule":{"preAssignmentDetails":"1880 participants were screened. 72 participants were screening failures. 1808 participants were randomized in a 1:1:1:1 ratio to 4 treatment groups: 455, 450, and 447 participants to asundexian 10 mg, 20 mg and 50 mg groups, 456 participants to placebo group. 22 participants (10, 4, 4 and 4 in the asundexian 10 mg, 20 mg and 50 mg, and placebo groups) never administered.","recruitmentDetails":"Study was conducted at 197 centers in 23 countries or regions, between 15-Jun-2020 (first participant first visit) and 18-Feb-2022 (last participant last visit)","groups":[{"id":"FG000","title":"Asundexian 10 mg","description":"Participants received Asundexian (BAY2433334) 10 mg for 26 weeks at least and up to 52 weeks"},{"id":"FG001","title":"Asundexian 20 mg","description":"Participants received Asundexian (BAY2433334) 20 mg for 26 weeks at least and up to 52 weeks"},{"id":"FG002","title":"Asundexian 50 mg","description":"Participants received Asundexian (BAY2433334) 50 mg for 26 weeks at least and up to 52 weeks"},{"id":"FG003","title":"Placebo","description":"Participants received Asundexian (BAY2433334) placebo for 26 weeks at least and up to 52 weeks"}],"periods":[{"title":"Overall Study","milestones":[{"type":"STARTED","comment":"Full analysis set (FAS)","achievements":[{"groupId":"FG000","numSubjects":"455"},{"groupId":"FG001","numSubjects":"450"},{"groupId":"FG002","numSubjects":"447"},{"groupId":"FG003","numSubjects":"456"}]},{"type":"Treated","comment":"Safety analysis set (SAF)","achievements":[{"groupId":"FG000","numSubjects":"445"},{"groupId":"FG001","numSubjects":"446"},{"groupId":"FG002","numSubjects":"443"},{"groupId":"FG003","numSubjects":"452"}]},{"type":"COMPLETED","achievements":[{"groupId":"FG000","comment":"Treatment completed","numSubjects":"335"},{"groupId":"FG001","comment":"Treatment completed","numSubjects":"329"},{"groupId":"FG002","comment":"Treatment completed","numSubjects":"313"},{"groupId":"FG003","comment":"Treatment completed","numSubjects":"314"}]},{"type":"NOT COMPLETED","achievements":[{"groupId":"FG000","numSubjects":"120"},{"groupId":"FG001","numSubjects":"121"},{"groupId":"FG002","numSubjects":"134"},{"groupId":"FG003","numSubjects":"142"}]}],"dropWithdraws":[{"type":"Subject Decision","reasons":[{"groupId":"FG000","numSubjects":"29"},{"groupId":"FG001","numSubjects":"39"},{"groupId":"FG002","numSubjects":"37"},{"groupId":"FG003","numSubjects":"48"}]},{"type":"Death","reasons":[{"groupId":"FG000","numSubjects":"6"},{"groupId":"FG001","numSubjects":"1"},{"groupId":"FG002","numSubjects":"8"},{"groupId":"FG003","numSubjects":"5"}]},{"type":"Non-compliance With Study Drug","reasons":[{"groupId":"FG000","numSubjects":"3"},{"groupId":"FG001","numSubjects":"1"},{"groupId":"FG002","numSubjects":"2"},{"groupId":"FG003","numSubjects":"0"}]},{"type":"Switching To Other Therapy","reasons":[{"groupId":"FG000","numSubjects":"1"},{"groupId":"FG001","numSubjects":"1"},{"groupId":"FG002","numSubjects":"1"},{"groupId":"FG003","numSubjects":"2"}]},{"type":"Subject Decision: COVID-19 Pandemic Related","reasons":[{"groupId":"FG000","numSubjects":"0"},{"groupId":"FG001","numSubjects":"1"},{"groupId":"FG002","numSubjects":"0"},{"groupId":"FG003","numSubjects":"2"}]},{"type":"Withdrawal by Subject","reasons":[{"groupId":"FG000","numSubjects":"7"},{"groupId":"FG001","numSubjects":"5"},{"groupId":"FG002","numSubjects":"11"},{"groupId":"FG003","numSubjects":"6"}]},{"type":"Logistical Difficulties","reasons":[{"groupId":"FG000","numSubjects":"2"},{"groupId":"FG001","numSubjects":"2"},{"groupId":"FG002","numSubjects":"3"},{"groupId":"FG003","numSubjects":"2"}]},{"type":"Missing Information","reasons":[{"groupId":"FG000","numSubjects":"1"},{"groupId":"FG001","numSubjects":"2"},{"groupId":"FG002","numSubjects":"1"},{"groupId":"FG003","numSubjects":"3"}]},{"type":"Other","reasons":[{"groupId":"FG000","numSubjects":"7"},{"groupId":"FG001","numSubjects":"6"},{"groupId":"FG002","numSubjects":"5"},{"groupId":"FG003","numSubjects":"4"}]},{"type":"Physician Decision: COVID-19 Pandemic Related","reasons":[{"groupId":"FG000","numSubjects":"1"},{"groupId":"FG001","numSubjects":"0"},{"groupId":"FG002","numSubjects":"0"},{"groupId":"FG003","numSubjects":"0"}]},{"type":"Physician Decision","reasons":[{"groupId":"FG000","numSubjects":"3"},{"groupId":"FG001","numSubjects":"4"},{"groupId":"FG002","numSubjects":"9"},{"groupId":"FG003","numSubjects":"7"}]},{"type":"Study drug never administered","reasons":[{"groupId":"FG000","numSubjects":"10"},{"groupId":"FG001","numSubjects":"4"},{"groupId":"FG002","numSubjects":"4"},{"groupId":"FG003","numSubjects":"4"}]},{"type":"Adverse Event","reasons":[{"groupId":"FG000","numSubjects":"49"},{"groupId":"FG001","numSubjects":"50"},{"groupId":"FG002","numSubjects":"51"},{"groupId":"FG003","numSubjects":"56"}]},{"type":"Lost to Follow-up","reasons":[{"groupId":"FG000","numSubjects":"1"},{"groupId":"FG001","numSubjects":"5"},{"groupId":"FG002","numSubjects":"2"},{"groupId":"FG003","numSubjects":"3"}]}]}]},"baselineCharacteristicsModule":{"populationDescription":"Full analysis set (FAS)","groups":[{"id":"BG000","title":"Asundexian 10 mg","description":"Participants received Asundexian (BAY2433334) 10 mg for 26 weeks at least and up to 52 weeks"},{"id":"BG001","title":"Asundexian 20 mg","description":"Participants received Asundexian (BAY2433334) 20 mg for 26 weeks at least and up to 52 weeks"},{"id":"BG002","title":"Asundexian 50 mg","description":"Participants received Asundexian (BAY2433334) 50 mg for 26 weeks at least and up to 52 weeks"},{"id":"BG003","title":"Placebo","description":"Participants received Asundexian (BAY2433334) placebo for 26 weeks at least and up to 52 weeks"},{"id":"BG004","title":"Total","description":"Total of all reporting groups"}],"denoms":[{"units":"Participants","counts":[{"groupId":"BG000","value":"455"},{"groupId":"BG001","value":"450"},{"groupId":"BG002","value":"447"},{"groupId":"BG003","value":"456"},{"groupId":"BG004","value":"1808"}]}],"measures":[{"title":"Age, Categorical","paramType":"COUNT_OF_PARTICIPANTS","unitOfMeasure":"Participants","classes":[{"categories":[{"title":"<=18 years","measurements":[{"groupId":"BG000","value":"0"},{"groupId":"BG001","value":"0"},{"groupId":"BG002","value":"0"},{"groupId":"BG003","value":"0"},{"groupId":"BG004","value":"0"}]},{"title":"Between 18 and 65 years","measurements":[{"groupId":"BG000","value":"186"},{"groupId":"BG001","value":"154"},{"groupId":"BG002","value":"174"},{"groupId":"BG003","value":"195"},{"groupId":"BG004","value":"709"}]},{"title":">=65 years","measurements":[{"groupId":"BG000","value":"269"},{"groupId":"BG001","value":"296"},{"groupId":"BG002","value":"273"},{"groupId":"BG003","value":"261"},{"groupId":"BG004","value":"1099"}]}]}]},{"title":"Sex: Female, Male","paramType":"COUNT_OF_PARTICIPANTS","unitOfMeasure":"Participants","classes":[{"categories":[{"title":"Female","measurements":[{"groupId":"BG000","value":"161"},{"groupId":"BG001","value":"150"},{"groupId":"BG002","value":"154"},{"groupId":"BG003","value":"150"},{"groupId":"BG004","value":"615"}]},{"title":"Male","measurements":[{"groupId":"BG000","value":"294"},{"groupId":"BG001","value":"300"},{"groupId":"BG002","value":"293"},{"groupId":"BG003","value":"306"},{"groupId":"BG004","value":"1193"}]}]}]},{"title":"Race (NIH/OMB)","paramType":"COUNT_OF_PARTICIPANTS","unitOfMeasure":"Participants","classes":[{"categories":[{"title":"American Indian or Alaska Native","measurements":[{"groupId":"BG000","value":"0"},{"groupId":"BG001","value":"0"},{"groupId":"BG002","value":"0"},{"groupId":"BG003","value":"0"},{"groupId":"BG004","value":"0"}]},{"title":"Asian","measurements":[{"groupId":"BG000","value":"67"},{"groupId":"BG001","value":"67"},{"groupId":"BG002","value":"68"},{"groupId":"BG003","value":"66"},{"groupId":"BG004","value":"268"}]},{"title":"Native Hawaiian or Other Pacific Islander","measurements":[{"groupId":"BG000","value":"0"},{"groupId":"BG001","value":"1"},{"groupId":"BG002","value":"1"},{"groupId":"BG003","value":"1"},{"groupId":"BG004","value":"3"}]},{"title":"Black or African American","measurements":[{"groupId":"BG000","value":"4"},{"groupId":"BG001","value":"3"},{"groupId":"BG002","value":"8"},{"groupId":"BG003","value":"3"},{"groupId":"BG004","value":"18"}]},{"title":"White","measurements":[{"groupId":"BG000","value":"381"},{"groupId":"BG001","value":"377"},{"groupId":"BG002","value":"367"},{"groupId":"BG003","value":"380"},{"groupId":"BG004","value":"1505"}]},{"title":"More than one race","measurements":[{"groupId":"BG000","value":"0"},{"groupId":"BG001","value":"0"},{"groupId":"BG002","value":"0"},{"groupId":"BG003","value":"0"},{"groupId":"BG004","value":"0"}]},{"title":"Unknown or Not Reported","measurements":[{"groupId":"BG000","value":"3"},{"groupId":"BG001","value":"2"},{"groupId":"BG002","value":"3"},{"groupId":"BG003","value":"6"},{"groupId":"BG004","value":"14"}]}]}]}]},"outcomeMeasuresModule":{"outcomeMeasures":[{"type":"PRIMARY","title":"Efficacy-Number of Participants With Composite of Symptomatic Ischemic Stroke or Covert Brain Infarcts Detected by Magnetic Resonance Imaging (MRI)","description":"Ischemic stroke was defined as either of : 1) Rapid onset (or present on awakening) of a new focal neurological deficit with clinical (\\>24 hours symptoms/signs) or imaging evidence of infarction that was not attributable to a non-ischemic cause; 2) Acute worsening of an existing focal neurological deficit that was judged to be attributable to a new infarction or extension of the previous infarction in the same vascular territory, based on persisting symptoms/signs or imaging evidence of infarction and no evidence of a non-ischemic etiology. If imaging was inconclusive, persistent symptoms/signs must be significant (worsening of NIHSS score of 4 or more) and sustained (duration of ≥24 hours or until death). Covert brain infarcts were defined as incident infarcts detected by serial MRI in the absence of an adjudicated stroke consistent with the location of the infarct. MRI criteria for brain infarction were available in the MRI procedures manual.","populationDescription":"FAS","reportingStatus":"POSTED","paramType":"COUNT_OF_PARTICIPANTS","unitOfMeasure":"Participants","timeFrame":"From baseline up to 26 weeks","groups":[{"id":"OG000","title":"Asundexian 10 mg","description":"Participants received Asundexian (BAY2433334) 10 mg for 26 weeks at least and up to 52 weeks"},{"id":"OG001","title":"Asundexian 20 mg","description":"Participants received Asundexian (BAY2433334) 20 mg for 26 weeks at least and up to 52 weeks"},{"id":"OG002","title":"Asundexian 50 mg","description":"Participants received Asundexian (BAY2433334) 50 mg for 26 weeks at least and up to 52 weeks"},{"id":"OG003","title":"Placebo","description":"Participants received Asundexian (BAY2433334) placebo for 26 weeks at least and up to 52 weeks"}],"denoms":[{"units":"Participants","counts":[{"groupId":"OG000","value":"455"},{"groupId":"OG001","value":"450"},{"groupId":"OG002","value":"447"},{"groupId":"OG003","value":"456"}]}],"classes":[{"title":"Symptomatic ischemic stroke","categories":[{"measurements":[{"groupId":"OG000","value":"24"},{"groupId":"OG001","value":"25"},{"groupId":"OG002","value":"17"},{"groupId":"OG003","value":"23"}]}]},{"title":"Covert brain infarct","categories":[{"measurements":[{"groupId":"OG000","value":"56"},{"groupId":"OG001","value":"57"},{"groupId":"OG002","value":"56"},{"groupId":"OG003","value":"55"}]}]},{"title":"Imputed infarcts seen in participants with incomplete MRI follow-up","categories":[{"measurements":[{"groupId":"OG000","value":"6"},{"groupId":"OG001","value":"11"},{"groupId":"OG002","value":"7"},{"groupId":"OG003","value":"5"}]}]},{"title":"Imputed infarcts with the rule of Quan","categories":[{"measurements":[{"groupId":"OG000","value":"11"},{"groupId":"OG001","value":"14"},{"groupId":"OG002","value":"16"},{"groupId":"OG003","value":"15"}]}]}],"analyses":[{"groupIds":["OG000","OG001","OG002","OG003"],"groupDescription":"Dose-response test","nonInferiorityType":"OTHER","nonInferiorityComment":"Dose-response test by using multiple comparison procedures (MCP) Mod.","pValue":"0.7976","statisticalMethod":"MCP Mod"},{"groupIds":["OG000","OG003"],"groupDescription":"Comparison of the Asundexian 10 mg group versus Placebo group.","nonInferiorityType":"OTHER","paramType":"Crude incidence ratio","paramValue":"1.044","ciPctValue":"90","ciNumSides":"TWO_SIDED","ciLowerLimit":"0.8105","ciUpperLimit":"1.3478"},{"groupIds":["OG001","OG003"],"groupDescription":"Comparison of the Asundexian 20 mg group versus Placebo group.","nonInferiorityType":"OTHER","paramType":"Crude incidence ratio","paramValue":"1.1963","ciPctValue":"90","ciNumSides":"TWO_SIDED","ciLowerLimit":"0.9281","ciUpperLimit":"1.5428"},{"groupIds":["OG002","OG003"],"groupDescription":"Comparison of the Asundexian 50 mg group versus Placebo group.","nonInferiorityType":"OTHER","paramType":"Crude incidence ratio","paramValue":"1.0485","ciPctValue":"90","ciNumSides":"TWO_SIDED","ciLowerLimit":"0.8082","ciUpperLimit":"1.3619"}]},{"type":"SECONDARY","title":"Efficacy-Number of Participants With Composite of Symptomatic Ischemic Stroke and Covert Brain Infarcts Detected by MRI, Cardiovascular (CV) Death, Myocardial Infarction (MI) and Systemic Embolism.","description":"CV death included death due to stroke, MI, heart failure or cardiogenic shock, sudden death or any other death due to other cardiovascular causes. Death due to non-traumatic hemorrhage was included. Acute MI was used when there was evidence of myocardial necrosis in a clinical setting consistent with acute myocardial ischemia. According to MI Universal Definition from 2018 the diagnosis of MI required the combination of: 1) Presence of acute myocardial injury, and 2) Evidence of acute myocardial ischemia derived from the clinical presentation, electrocardiographic changes, or the results of myocardial or coronary artery imaging, or in case of post-mortem pathological findings irrespective of biomarker values. Systemic embolism was defined as abrupt vascular insufficiency associated with clinical or radiological evidence of arterial occlusion in the absence of other likely mechanisms (this did not include thromboembolism of the pulmonary vasculature or venous thrombosis).","populationDescription":"FAS","reportingStatus":"POSTED","paramType":"COUNT_OF_PARTICIPANTS","unitOfMeasure":"Participants","timeFrame":"From baseline up to 26 weeks","groups":[{"id":"OG000","title":"Asundexian 10 mg","description":"Participants received Asundexian (BAY2433334) 10 mg for 26 weeks at least and up to 52 weeks"},{"id":"OG001","title":"Asundexian 20 mg","description":"Participants received Asundexian (BAY2433334) 20 mg for 26 weeks at least and up to 52 weeks"},{"id":"OG002","title":"Asundexian 50 mg","description":"Participants received Asundexian (BAY2433334) 50 mg for 26 weeks at least and up to 52 weeks"},{"id":"OG003","title":"Placebo","description":"Participants received Asundexian (BAY2433334) placebo for 26 weeks at least and up to 52 weeks"}],"denoms":[{"units":"Participants","counts":[{"groupId":"OG000","value":"455"},{"groupId":"OG001","value":"450"},{"groupId":"OG002","value":"447"},{"groupId":"OG003","value":"456"}]}],"classes":[{"title":"Ischemic Stroke","categories":[{"measurements":[{"groupId":"OG000","value":"24"},{"groupId":"OG001","value":"25"},{"groupId":"OG002","value":"17"},{"groupId":"OG003","value":"23"}]}]},{"title":"CV death","categories":[{"measurements":[{"groupId":"OG000","value":"3"},{"groupId":"OG001","value":"2"},{"groupId":"OG002","value":"6"},{"groupId":"OG003","value":"6"}]}]},{"title":"MI","categories":[{"measurements":[{"groupId":"OG000","value":"3"},{"groupId":"OG001","value":"0"},{"groupId":"OG002","value":"3"},{"groupId":"OG003","value":"3"}]}]},{"title":"Systemic embolism","categories":[{"measurements":[{"groupId":"OG000","value":"1"},{"groupId":"OG001","value":"0"},{"groupId":"OG002","value":"0"},{"groupId":"OG003","value":"0"}]}]},{"title":"Covert brain infarct","categories":[{"measurements":[{"groupId":"OG000","value":"56"},{"groupId":"OG001","value":"57"},{"groupId":"OG002","value":"56"},{"groupId":"OG003","value":"55"}]}]},{"title":"Imputed infarcts seen in participants with incomplete MRI follow-up","categories":[{"measurements":[{"groupId":"OG000","value":"6"},{"groupId":"OG001","value":"11"},{"groupId":"OG002","value":"7"},{"groupId":"OG003","value":"5"}]}]}]},{"type":"SECONDARY","title":"Efficacy-Number of Participants With Symptomatic Ischemic Stroke","description":"Definition of symptomatic ischemic stroke can be referred to first Primary endpoint.","populationDescription":"FAS","reportingStatus":"POSTED","paramType":"COUNT_OF_PARTICIPANTS","unitOfMeasure":"Participants","timeFrame":"From baseline up to 52 weeks","groups":[{"id":"OG000","title":"Asundexian 10 mg","description":"Participants received Asundexian (BAY2433334) 10 mg for 26 weeks at least and up to 52 weeks"},{"id":"OG001","title":"Asundexian 20 mg","description":"Participants received Asundexian (BAY2433334) 20 mg for 26 weeks at least and up to 52 weeks"},{"id":"OG002","title":"Asundexian 50 mg","description":"Participants received Asundexian (BAY2433334) 50 mg for 26 weeks at least and up to 52 weeks"},{"id":"OG003","title":"Placebo","description":"Participants received Asundexian (BAY2433334) placebo for 26 weeks at least and up to 52 weeks"}],"denoms":[{"units":"Participants","counts":[{"groupId":"OG000","value":"455"},{"groupId":"OG001","value":"450"},{"groupId":"OG002","value":"447"},{"groupId":"OG003","value":"456"}]}],"classes":[{"categories":[{"measurements":[{"groupId":"OG000","value":"26"},{"groupId":"OG001","value":"26"},{"groupId":"OG002","value":"22"},{"groupId":"OG003","value":"28"}]}]}]},{"type":"SECONDARY","title":"Efficacy-Number of Participants With Covert Brain Infarcts Detected by MRI","description":"Definition of covert brain infarcts can be referred to first Primary endpoint.","populationDescription":"FAS","reportingStatus":"POSTED","paramType":"COUNT_OF_PARTICIPANTS","unitOfMeasure":"Participants","timeFrame":"From baseline up to 26 weeks","groups":[{"id":"OG000","title":"Asundexian 10 mg","description":"Participants received Asundexian (BAY2433334) 10 mg for 26 weeks at least and up to 52 weeks"},{"id":"OG001","title":"Asundexian 20 mg","description":"Participants received Asundexian (BAY2433334) 20 mg for 26 weeks at least and up to 52 weeks"},{"id":"OG002","title":"Asundexian 50 mg","description":"Participants received Asundexian (BAY2433334) 50 mg for 26 weeks at least and up to 52 weeks"},{"id":"OG003","title":"Placebo","description":"Participants received Asundexian (BAY2433334) placebo for 26 weeks at least and up to 52 weeks"}],"denoms":[{"units":"Participants","counts":[{"groupId":"OG000","value":"455"},{"groupId":"OG001","value":"450"},{"groupId":"OG002","value":"447"},{"groupId":"OG003","value":"456"}]}],"classes":[{"categories":[{"measurements":[{"groupId":"OG000","value":"62"},{"groupId":"OG001","value":"68"},{"groupId":"OG002","value":"63"},{"groupId":"OG003","value":"60"}]}]}]},{"type":"SECONDARY","title":"Efficacy-Number of Participants With Symptomatic Ischemic Stroke, CV Death, MI","description":"Definition of symptomatic ischemic stroke can be referred to first Primary endpoint. Definition of CV death and MI can be referred to first Second endpoint.","populationDescription":"FAS","reportingStatus":"POSTED","paramType":"COUNT_OF_PARTICIPANTS","unitOfMeasure":"Participants","timeFrame":"From baseline up to 52 weeks","groups":[{"id":"OG000","title":"Asundexian 10 mg","description":"Participants received Asundexian (BAY2433334) 10 mg for 26 weeks at least and up to 52 weeks"},{"id":"OG001","title":"Asundexian 20 mg","description":"Participants received Asundexian (BAY2433334) 20 mg for 26 weeks at least and up to 52 weeks"},{"id":"OG002","title":"Asundexian 50 mg","description":"Participants received Asundexian (BAY2433334) 50 mg for 26 weeks at least and up to 52 weeks"},{"id":"OG003","title":"Placebo","description":"Participants received Asundexian (BAY2433334) placebo for 26 weeks at least and up to 52 weeks"}],"denoms":[{"units":"Participants","counts":[{"groupId":"OG000","value":"455"},{"groupId":"OG001","value":"450"},{"groupId":"OG002","value":"447"},{"groupId":"OG003","value":"456"}]}],"classes":[{"categories":[{"measurements":[{"groupId":"OG000","value":"33"},{"groupId":"OG001","value":"30"},{"groupId":"OG002","value":"33"},{"groupId":"OG003","value":"35"}]}]}]},{"type":"SECONDARY","title":"Efficacy-Number of Participants With Symptomatic Ischemic and Hemorrhagic Stroke","description":"Definition of symptomatic ischemic can be referred to fourth secondary endpoint. Hemorrhagic stroke was defined as an acute, atraumatic extravasation of blood into the brain parenchyma, intraventricular or subarachnoid space with associated neurological symptoms. This did not include microbleeds or hemorrhagic transformation of an ischemic stroke.","populationDescription":"FAS","reportingStatus":"POSTED","paramType":"COUNT_OF_PARTICIPANTS","unitOfMeasure":"Participants","timeFrame":"From baseline up to 52 weeks","groups":[{"id":"OG000","title":"Asundexian 10 mg","description":"Participants received Asundexian (BAY2433334) 10 mg for 26 weeks at least and up to 52 weeks"},{"id":"OG001","title":"Asundexian 20 mg","description":"Participants received Asundexian (BAY2433334) 20 mg for 26 weeks at least and up to 52 weeks"},{"id":"OG002","title":"Asundexian 50 mg","description":"Participants received Asundexian (BAY2433334) 50 mg for 26 weeks at least and up to 52 weeks"},{"id":"OG003","title":"Placebo","description":"Participants received Asundexian (BAY2433334) placebo for 26 weeks at least and up to 52 weeks"}],"denoms":[{"units":"Participants","counts":[{"groupId":"OG000","value":"455"},{"groupId":"OG001","value":"450"},{"groupId":"OG002","value":"447"},{"groupId":"OG003","value":"456"}]}],"classes":[{"categories":[{"measurements":[{"groupId":"OG000","value":"26"},{"groupId":"OG001","value":"26"},{"groupId":"OG002","value":"25"},{"groupId":"OG003","value":"30"}]}]}]},{"type":"SECONDARY","title":"Efficacy-Number of Participants With Disabling Stroke (mRS≥4)","description":"Modified ranking score (mRS): 0-No symptoms at all; 1-No significant disability despite symptoms; despite symptoms, able to carry out all usual duties and activities; 2-Slight disability; unable to carry out all previous activities but able to look after own affairs without assistance; 3-Moderate disability; requiring some help, but able to walk without assistance; 4-Moderately severe disability; unable to walk without assistance and unable to attend to own bodily needs without assistance; 5-Severe disability; bedridden, incontinent and requiring constant nursing care and attention; 6-Death.","populationDescription":"FAS","reportingStatus":"POSTED","paramType":"COUNT_OF_PARTICIPANTS","unitOfMeasure":"Participants","timeFrame":"From baseline up to 52 weeks","groups":[{"id":"OG000","title":"Asundexian 10 mg","description":"Participants received Asundexian (BAY2433334) 10 mg for 26 weeks at least and up to 52 weeks"},{"id":"OG001","title":"Asundexian 20 mg","description":"Participants received Asundexian (BAY2433334) 20 mg for 26 weeks at least and up to 52 weeks"},{"id":"OG002","title":"Asundexian 50 mg","description":"Participants received Asundexian (BAY2433334) 50 mg for 26 weeks at least and up to 52 weeks"},{"id":"OG003","title":"Placebo","description":"Participants received Asundexian (BAY2433334) placebo for 26 weeks at least and up to 52 weeks"}],"denoms":[{"units":"Participants","counts":[{"groupId":"OG000","value":"455"},{"groupId":"OG001","value":"450"},{"groupId":"OG002","value":"447"},{"groupId":"OG003","value":"456"}]}],"classes":[{"categories":[{"measurements":[{"groupId":"OG000","value":"5"},{"groupId":"OG001","value":"5"},{"groupId":"OG002","value":"1"},{"groupId":"OG003","value":"3"}]}]}]},{"type":"SECONDARY","title":"Efficacy-Number of Participants With All-cause Mortality","populationDescription":"FAS","reportingStatus":"POSTED","paramType":"COUNT_OF_PARTICIPANTS","unitOfMeasure":"Participants","timeFrame":"From baseline up to 52 weeks","groups":[{"id":"OG000","title":"Asundexian 10 mg","description":"Participants received Asundexian (BAY2433334) 10 mg for 26 weeks at least and up to 52 weeks"},{"id":"OG001","title":"Asundexian 20 mg","description":"Participants received Asundexian (BAY2433334) 20 mg for 26 weeks at least and up to 52 weeks"},{"id":"OG002","title":"Asundexian 50 mg","description":"Participants received Asundexian (BAY2433334) 50 mg for 26 weeks at least and up to 52 weeks"},{"id":"OG003","title":"Placebo","description":"Participants received Asundexian (BAY2433334) placebo for 26 weeks at least and up to 52 weeks"}],"denoms":[{"units":"Participants","counts":[{"groupId":"OG000","value":"455"},{"groupId":"OG001","value":"450"},{"groupId":"OG002","value":"447"},{"groupId":"OG003","value":"456"}]}],"classes":[{"categories":[{"measurements":[{"groupId":"OG000","value":"10"},{"groupId":"OG001","value":"6"},{"groupId":"OG002","value":"17"},{"groupId":"OG003","value":"10"}]}]}]},{"type":"PRIMARY","title":"Safety-Number of Participants With Composite of International Society on Thrombosis and Hemostasis (ISTH) Major Bleeding and Clinically Relevant Non-major (CRNM) Bleeding","description":"ISTH Major Bleeding criteria: 1. Fatal bleeding, and/or 2. Symptomatic bleeding in a critical area or organ (intracranial, intraocular, intraspinal, pericardial, retroperitoneal, intraarticular, or intramuscular with compartment syndrome), and/or 3. Clinically overt bleeding associated with a recent decrease in the hemoglobin level of ≥ 2 g/dL (20 g/L; 1.24 mmol/L) compared to the most recent hemoglobin value available before the event, and/or 4. Clinically overt bleeding leading to transfusion of 2 or more units of packed red blood cells or whole blood. ISTH Clinically Relevant Non-Major Bleeding is considered any sign or symptom of hemorrhage that does not fit the criteria for the ISTH definition of major bleeding, but does meet at least one of the following criteria 1. requiring medical intervention by a healthcare professional. 2. leading to hospitalization or increased level of care. 3. prompting a face to face (i.e. not just a telephone or electronic communication) evaluation.","populationDescription":"SAF","reportingStatus":"POSTED","paramType":"COUNT_OF_PARTICIPANTS","unitOfMeasure":"Participants","timeFrame":"From baseline up to 52 weeks","groups":[{"id":"OG000","title":"Asundexian 10 mg","description":"Participants received Asundexian (BAY2433334) 10 mg for 26 weeks at least and up to 52 weeks"},{"id":"OG001","title":"Asundexian 20 mg","description":"Participants received Asundexian (BAY2433334) 20 mg for 26 weeks at least and up to 52 weeks"},{"id":"OG002","title":"Asundexian 50 mg","description":"Participants received Asundexian (BAY2433334) 50 mg for 26 weeks at least and up to 52 weeks"},{"id":"OG003","title":"Total Asundexian","description":"Asundexian 10 mg group and Asundexian 20 mg group and Asundexian 50 mg"},{"id":"OG004","title":"Placebo","description":"Participants received Asundexian (BAY2433334) placebo for 26 weeks at least and up to 52 weeks"}],"denoms":[{"units":"Participants","counts":[{"groupId":"OG000","value":"445"},{"groupId":"OG001","value":"446"},{"groupId":"OG002","value":"443"},{"groupId":"OG003","value":"1334"},{"groupId":"OG004","value":"452"}]}],"classes":[{"categories":[{"measurements":[{"groupId":"OG000","value":"19"},{"groupId":"OG001","value":"14"},{"groupId":"OG002","value":"19"},{"groupId":"OG003","value":"52"},{"groupId":"OG004","value":"11"}]}]}],"analyses":[{"groupIds":["OG000","OG004"],"groupDescription":"Comparison of the Asundexian 10 mg group versus Placebo group","nonInferiorityType":"OTHER","nonInferiorityComment":"Cause specific HRs were only calculated if at least 3 events occurred in 1 of the compared groups and at least 1 event in each of the compared treatment groups.","pValue":"= 0.1507","statisticalMethod":"Log Rank","paramType":"Cox Proportional Hazard","paramValue":"1.724","ciPctValue":"90","ciNumSides":"TWO_SIDED","ciLowerLimit":"0.924","ciUpperLimit":"3.215"},{"groupIds":["OG001","OG004"],"groupDescription":"Comparison of the Asundexian 20 mg group versus Placebo group","nonInferiorityType":"OTHER","nonInferiorityComment":"Cause specific HRs were only calculated if at least 3 events occurred in 1 of the compared groups and at least 1 event in each of the compared treatment groups.","pValue":"= 0.5339","statisticalMethod":"Log Rank","paramType":"Cox Proportional Hazard","paramValue":"1.285","ciPctValue":"90","ciNumSides":"TWO_SIDED","ciLowerLimit":"0.662","ciUpperLimit":"2.494"},{"groupIds":["OG002","OG004"],"groupDescription":"Comparison of the Asundexian 50 mg group versus Placebo group","nonInferiorityType":"OTHER","nonInferiorityComment":"Cause specific HRs were only calculated if at least 3 events occurred in 1 of the compared groups and at least 1 event in each of the compared treatment groups.","pValue":"= 0.1401","statisticalMethod":"Log Rank","paramType":"Cox Proportional Hazard","paramValue":"1.749","ciPctValue":"90","ciNumSides":"TWO_SIDED","ciLowerLimit":"0.938","ciUpperLimit":"3.262"},{"groupIds":["OG003","OG004"],"groupDescription":"Comparison of the Total Asundexian group versus Placebo group","nonInferiorityType":"OTHER","nonInferiorityComment":"Cause specific HRs were only calculated if at least 3 events occurred in 1 of the compared groups and at least 1 event in each of the compared treatment groups.","pValue":"= 0.1653","statisticalMethod":"Log Rank","paramType":"Cox Proportional Hazard","paramValue":"1.585","ciPctValue":"90","ciNumSides":"TWO_SIDED","ciLowerLimit":"0.918","ciUpperLimit":"2.736"}]},{"type":"SECONDARY","title":"Safety-Number of Participants With All Bleeding","description":"All bleeding events occurred from first intake of study intervention until 2 days after the last intake of study intervention.","populationDescription":"SAF","reportingStatus":"POSTED","paramType":"COUNT_OF_PARTICIPANTS","unitOfMeasure":"Participants","timeFrame":"From baseline up to 52 weeks","groups":[{"id":"OG000","title":"Asundexian 10 mg","description":"Participants received Asundexian (BAY2433334) 10 mg for 26 weeks at least and up to 52 weeks"},{"id":"OG001","title":"Asundexian 20 mg","description":"Participants received Asundexian (BAY2433334) 20 mg for 26 weeks at least and up to 52 weeks"},{"id":"OG002","title":"Asundexian 50 mg","description":"Participants received Asundexian (BAY2433334) 50 mg for 26 weeks at least and up to 52 weeks"},{"id":"OG003","title":"Placebo","description":"Participants received Asundexian (BAY2433334) placebo for 26 weeks at least and up to 52 weeks"}],"denoms":[{"units":"Participants","counts":[{"groupId":"OG000","value":"445"},{"groupId":"OG001","value":"446"},{"groupId":"OG002","value":"443"},{"groupId":"OG003","value":"452"}]}],"classes":[{"categories":[{"measurements":[{"groupId":"OG000","value":"37"},{"groupId":"OG001","value":"48"},{"groupId":"OG002","value":"48"},{"groupId":"OG003","value":"44"}]}]}]},{"type":"SECONDARY","title":"Safety-Number of Participants With ISTH Major Bleeding","description":"Definition of ISTH major bleeding can be referred to second Primary endpoint.","populationDescription":"SAF","reportingStatus":"POSTED","paramType":"COUNT_OF_PARTICIPANTS","unitOfMeasure":"Participants","timeFrame":"From baseline up to 52 weeks","groups":[{"id":"OG000","title":"Asundexian 10 mg","description":"Participants received Asundexian (BAY2433334) 10 mg for 26 weeks at least and up to 52 weeks"},{"id":"OG001","title":"Asundexian 20 mg","description":"Participants received Asundexian (BAY2433334) 20 mg for 26 weeks at least and up to 52 weeks"},{"id":"OG002","title":"Asundexian 50 mg","description":"Participants received Asundexian (BAY2433334) 50 mg for 26 weeks at least and up to 52 weeks"},{"id":"OG003","title":"Placebo","description":"Participants received Asundexian (BAY2433334) placebo for 26 weeks at least and up to 52 weeks"}],"denoms":[{"units":"Participants","counts":[{"groupId":"OG000","value":"445"},{"groupId":"OG001","value":"446"},{"groupId":"OG002","value":"443"},{"groupId":"OG003","value":"452"}]}],"classes":[{"categories":[{"measurements":[{"groupId":"OG000","value":"4"},{"groupId":"OG001","value":"3"},{"groupId":"OG002","value":"7"},{"groupId":"OG003","value":"4"}]}]}]},{"type":"SECONDARY","title":"Safety-Number of Participants With ISTH CRNM Bleeding","description":"Definition of ISTH CRNM bleeding can be referred to second Primary endpoint.","populationDescription":"SAF","reportingStatus":"POSTED","paramType":"COUNT_OF_PARTICIPANTS","unitOfMeasure":"Participants","timeFrame":"From baseline up to 52 weeks","groups":[{"id":"OG000","title":"Asundexian 10 mg","description":"Participants received Asundexian (BAY2433334) 10 mg for 26 weeks at least and up to 52 weeks"},{"id":"OG001","title":"Asundexian 20 mg","description":"Participants received Asundexian (BAY2433334) 20 mg for 26 weeks at least and up to 52 weeks"},{"id":"OG002","title":"Asundexian 50 mg","description":"Participants received Asundexian (BAY2433334) 50 mg for 26 weeks at least and up to 52 weeks"},{"id":"OG003","title":"Placebo","description":"Participants received Asundexian (BAY2433334) placebo for 26 weeks at least and up to 52 weeks"}],"denoms":[{"units":"Participants","counts":[{"groupId":"OG000","value":"445"},{"groupId":"OG001","value":"446"},{"groupId":"OG002","value":"443"},{"groupId":"OG003","value":"452"}]}],"classes":[{"categories":[{"measurements":[{"groupId":"OG000","value":"15"},{"groupId":"OG001","value":"12"},{"groupId":"OG002","value":"12"},{"groupId":"OG003","value":"7"}]}]}]},{"type":"SECONDARY","title":"Safety-Number of Participants With ISTH Minor Bleeding","description":"All other overt bleeding episodes not meeting the above criteria for ISTH major or CRNM bleeding were classified as minor bleeding (e.g. bleeding from a minor wound that does not prompt a face-to-face evaluation for a physical examination or laboratory testing).","populationDescription":"SAF","reportingStatus":"POSTED","paramType":"COUNT_OF_PARTICIPANTS","unitOfMeasure":"Participants","timeFrame":"From baseline up to 52 weeks","groups":[{"id":"OG000","title":"Asundexian 10 mg","description":"Participants received Asundexian (BAY2433334) 10 mg for 26 weeks at least and up to 52 weeks"},{"id":"OG001","title":"Asundexian 20 mg","description":"Participants received Asundexian (BAY2433334) 20 mg for 26 weeks at least and up to 52 weeks"},{"id":"OG002","title":"Asundexian 50 mg","description":"Participants received Asundexian (BAY2433334) 50 mg for 26 weeks at least and up to 52 weeks"},{"id":"OG003","title":"Placebo","description":"Participants received Asundexian (BAY2433334) placebo for 26 weeks at least and up to 52 weeks"}],"denoms":[{"units":"Participants","counts":[{"groupId":"OG000","value":"445"},{"groupId":"OG001","value":"446"},{"groupId":"OG002","value":"443"},{"groupId":"OG003","value":"452"}]}],"classes":[{"categories":[{"measurements":[{"groupId":"OG000","value":"21"},{"groupId":"OG001","value":"39"},{"groupId":"OG002","value":"34"},{"groupId":"OG003","value":"34"}]}]}]},{"type":"SECONDARY","title":"Safety-Number of Participants With Intracerebral Hemorrhage (Non-traumatic)","description":"Non-traumatic intracerebral hemorrhage was defined as a hemorrhagic stroke on the \"recurrent stroke\" CRF page that is in addition classified as a bleeding with bleeding site intracranial (-subarachnoid, -intraparenchymal \\[excluding microbleeds\\], or -intraventricular) and spontaneous causality of bleeding, excluding all symptomatic and hemorrhagic transformation (defined by the PT \"hemorrhagic transformation\").","populationDescription":"SAF","reportingStatus":"POSTED","paramType":"COUNT_OF_PARTICIPANTS","unitOfMeasure":"Participants","timeFrame":"From baseline up to 52 weeks","groups":[{"id":"OG000","title":"Asundexian 10 mg","description":"Participants received Asundexian (BAY2433334) 10 mg for 26 weeks at least and up to 52 weeks"},{"id":"OG001","title":"Asundexian 20 mg","description":"Participants received Asundexian (BAY2433334) 20 mg for 26 weeks at least and up to 52 weeks"},{"id":"OG002","title":"Asundexian 50 mg","description":"Participants received Asundexian (BAY2433334) 50 mg for 26 weeks at least and up to 52 weeks"},{"id":"OG003","title":"Placebo","description":"Participants received Asundexian (BAY2433334) placebo for 26 weeks at least and up to 52 weeks"}],"denoms":[{"units":"Participants","counts":[{"groupId":"OG000","value":"445"},{"groupId":"OG001","value":"446"},{"groupId":"OG002","value":"443"},{"groupId":"OG003","value":"452"}]}],"classes":[{"categories":[{"measurements":[{"groupId":"OG000","value":"0"},{"groupId":"OG001","value":"0"},{"groupId":"OG002","value":"3"},{"groupId":"OG003","value":"1"}]}]}]}]},"adverseEventsModule":{"frequencyThreshold":"3","timeFrame":"After the first administration of study intervention for up to 52 weeks (but not starting after more than 2 days after the last administration). Reporting for the the all-cause mortality considers all deaths that occurred at any time during the study before the last contact, for up to 54 weeks.","eventGroups":[{"id":"EG000","title":"Asundexian 10 mg","description":"Subjects received Asundexian (BAY2433334) 10 mg for 26 weeks at least and up to 52 weeks","deathsNumAffected":10,"deathsNumAtRisk":445,"seriousNumAffected":90,"seriousNumAtRisk":445,"otherNumAffected":126,"otherNumAtRisk":445},{"id":"EG001","title":"Asundexian 20 mg","description":"Subjects received Asundexian (BAY2433334) 20 mg for 26 weeks at least and up to 52 weeks","deathsNumAffected":6,"deathsNumAtRisk":446,"seriousNumAffected":83,"seriousNumAtRisk":446,"otherNumAffected":127,"otherNumAtRisk":446},{"id":"EG002","title":"Asundexian 50 mg","description":"Subjects received Asundexian (BAY2433334) 50 mg for 26 weeks at least and up to 52 weeks","deathsNumAffected":17,"deathsNumAtRisk":443,"seriousNumAffected":93,"seriousNumAtRisk":443,"otherNumAffected":136,"otherNumAtRisk":443},{"id":"EG003","title":"Placebo","description":"Subjects received Asundexian (BAY2433334) placebo for 26 weeks at least and up to 52 weeks","deathsNumAffected":10,"deathsNumAtRisk":452,"seriousNumAffected":98,"seriousNumAtRisk":452,"otherNumAffected":136,"otherNumAtRisk":452}],"seriousEvents":[{"term":"Anaemia","organSystem":"Blood and lymphatic system disorders","sourceVocabulary":"MedDRA (24.1)","assessmentType":"NON_SYSTEMATIC_ASSESSMENT","stats":[{"groupId":"EG000","numEvents":0,"numAffected":0,"numAtRisk":445},{"groupId":"EG001","numEvents":1,"numAffected":1,"numAtRisk":446},{"groupId":"EG002","numEvents":0,"numAffected":0,"numAtRisk":443},{"groupId":"EG003","numEvents":0,"numAffected":0,"numAtRisk":452}]},{"term":"Iron deficiency anaemia","organSystem":"Blood and lymphatic system disorders","sourceVocabulary":"MedDRA (24.1)","assessmentType":"NON_SYSTEMATIC_ASSESSMENT","stats":[{"groupId":"EG000","numEvents":0,"numAffected":0,"numAtRisk":445},{"groupId":"EG001","numEvents":0,"numAffected":0,"numAtRisk":446},{"groupId":"EG002","numEvents":1,"numAffected":1,"numAtRisk":443},{"groupId":"EG003","numEvents":0,"numAffected":0,"numAtRisk":452}]},{"term":"Thrombocytopenia","organSystem":"Blood and lymphatic system disorders","sourceVocabulary":"MedDRA (24.1)","assessmentType":"NON_SYSTEMATIC_ASSESSMENT","stats":[{"groupId":"EG000","numEvents":0,"numAffected":0,"numAtRisk":445},{"groupId":"EG001","numEvents":0,"numAffected":0,"numAtRisk":446},{"groupId":"EG002","numEvents":0,"numAffected":0,"numAtRisk":443},{"groupId":"EG003","numEvents":1,"numAffected":1,"numAtRisk":452}]},{"term":"Blood loss anaemia","organSystem":"Blood and lymphatic system disorders","sourceVocabulary":"MedDRA (24.1)","assessmentType":"NON_SYSTEMATIC_ASSESSMENT","stats":[{"groupId":"EG000","numEvents":0,"numAffected":0,"numAtRisk":445},{"groupId":"EG001","numEvents":1,"numAffected":1,"numAtRisk":446},{"groupId":"EG002","numEvents":0,"numAffected":0,"numAtRisk":443},{"groupId":"EG003","numEvents":0,"numAffected":0,"numAtRisk":452}]},{"term":"Acute myocardial infarction","organSystem":"Cardiac disorders","sourceVocabulary":"MedDRA (24.1)","assessmentType":"NON_SYSTEMATIC_ASSESSMENT","stats":[{"groupId":"EG000","numEvents":3,"numAffected":2,"numAtRisk":445},{"groupId":"EG001","numEvents":0,"numAffected":0,"numAtRisk":446},{"groupId":"EG002","numEvents":2,"numAffected":2,"numAtRisk":443},{"groupId":"EG003","numEvents":1,"numAffected":1,"numAtRisk":452}]},{"term":"Angina pectoris","organSystem":"Cardiac disorders","sourceVocabulary":"MedDRA (24.1)","assessmentType":"NON_SYSTEMATIC_ASSESSMENT","stats":[{"groupId":"EG000","numEvents":1,"numAffected":1,"numAtRisk":445},{"groupId":"EG001","numEvents":1,"numAffected":1,"numAtRisk":446},{"groupId":"EG002","numEvents":0,"numAffected":0,"numAtRisk":443},{"groupId":"EG003","numEvents":1,"numAffected":1,"numAtRisk":452}]},{"term":"Angina unstable","organSystem":"Cardiac disorders","sourceVocabulary":"MedDRA (24.1)","assessmentType":"NON_SYSTEMATIC_ASSESSMENT","stats":[{"groupId":"EG000","numEvents":1,"numAffected":1,"numAtRisk":445},{"groupId":"EG001","numEvents":0,"numAffected":0,"numAtRisk":446},{"groupId":"EG002","numEvents":0,"numAffected":0,"numAtRisk":443},{"groupId":"EG003","numEvents":1,"numAffected":1,"numAtRisk":452}]},{"term":"Aortic valve incompetence","organSystem":"Cardiac disorders","sourceVocabulary":"MedDRA (24.1)","assessmentType":"NON_SYSTEMATIC_ASSESSMENT","stats":[{"groupId":"EG000","numEvents":0,"numAffected":0,"numAtRisk":445},{"groupId":"EG001","numEvents":0,"numAffected":0,"numAtRisk":446},{"groupId":"EG002","numEvents":0,"numAffected":0,"numAtRisk":443},{"groupId":"EG003","numEvents":1,"numAffected":1,"numAtRisk":452}]},{"term":"Aortic valve stenosis","organSystem":"Cardiac disorders","sourceVocabulary":"MedDRA (24.1)","assessmentType":"NON_SYSTEMATIC_ASSESSMENT","stats":[{"groupId":"EG000","numEvents":1,"numAffected":1,"numAtRisk":445},{"groupId":"EG001","numEvents":0,"numAffected":0,"numAtRisk":446},{"groupId":"EG002","numEvents":0,"numAffected":0,"numAtRisk":443},{"groupId":"EG003","numEvents":0,"numAffected":0,"numAtRisk":452}]},{"term":"Atrial fibrillation","organSystem":"Cardiac disorders","sourceVocabulary":"MedDRA (24.1)","assessmentType":"NON_SYSTEMATIC_ASSESSMENT","stats":[{"groupId":"EG000","numEvents":3,"numAffected":3,"numAtRisk":445},{"groupId":"EG001","numEvents":4,"numAffected":4,"numAtRisk":446},{"groupId":"EG002","numEvents":0,"numAffected":0,"numAtRisk":443},{"groupId":"EG003","numEvents":3,"numAffected":3,"numAtRisk":452}]},{"term":"Atrial flutter","organSystem":"Cardiac disorders","sourceVocabulary":"MedDRA (24.1)","assessmentType":"NON_SYSTEMATIC_ASSESSMENT","stats":[{"groupId":"EG000","numEvents":0,"numAffected":0,"numAtRisk":445},{"groupId":"EG001","numEvents":0,"numAffected":0,"numAtRisk":446},{"groupId":"EG002","numEvents":1,"numAffected":1,"numAtRisk":443},{"groupId":"EG003","numEvents":0,"numAffected":0,"numAtRisk":452}]},{"term":"Atrioventricular block complete","organSystem":"Cardiac disorders","sourceVocabulary":"MedDRA (24.1)","assessmentType":"NON_SYSTEMATIC_ASSESSMENT","stats":[{"groupId":"EG000","numEvents":1,"numAffected":1,"numAtRisk":445},{"groupId":"EG001","numEvents":0,"numAffected":0,"numAtRisk":446},{"groupId":"EG002","numEvents":1,"numAffected":1,"numAtRisk":443},{"groupId":"EG003","numEvents":0,"numAffected":0,"numAtRisk":452}]},{"term":"Atrioventricular block second degree","organSystem":"Cardiac disorders","sourceVocabulary":"MedDRA (24.1)","assessmentType":"NON_SYSTEMATIC_ASSESSMENT","stats":[{"groupId":"EG000","numEvents":0,"numAffected":0,"numAtRisk":445},{"groupId":"EG001","numEvents":1,"numAffected":1,"numAtRisk":446},{"groupId":"EG002","numEvents":0,"numAffected":0,"numAtRisk":443},{"groupId":"EG003","numEvents":0,"numAffected":0,"numAtRisk":452}]},{"term":"Bradycardia","organSystem":"Cardiac disorders","sourceVocabulary":"MedDRA (24.1)","assessmentType":"NON_SYSTEMATIC_ASSESSMENT","stats":[{"groupId":"EG000","numEvents":1,"numAffected":1,"numAtRisk":445},{"groupId":"EG001","numEvents":0,"numAffected":0,"numAtRisk":446},{"groupId":"EG002","numEvents":0,"numAffected":0,"numAtRisk":443},{"groupId":"EG003","numEvents":0,"numAffected":0,"numAtRisk":452}]},{"term":"Cardiac arrest","organSystem":"Cardiac disorders","sourceVocabulary":"MedDRA (24.1)","assessmentType":"NON_SYSTEMATIC_ASSESSMENT","stats":[{"groupId":"EG000","numEvents":1,"numAffected":1,"numAtRisk":445},{"groupId":"EG001","numEvents":0,"numAffected":0,"numAtRisk":446},{"groupId":"EG002","numEvents":0,"numAffected":0,"numAtRisk":443},{"groupId":"EG003","numEvents":1,"numAffected":1,"numAtRisk":452}]},{"term":"Cardiac failure","organSystem":"Cardiac disorders","sourceVocabulary":"MedDRA (24.1)","assessmentType":"NON_SYSTEMATIC_ASSESSMENT","stats":[{"groupId":"EG000","numEvents":0,"numAffected":0,"numAtRisk":445},{"groupId":"EG001","numEvents":1,"numAffected":1,"numAtRisk":446},{"groupId":"EG002","numEvents":0,"numAffected":0,"numAtRisk":443},{"groupId":"EG003","numEvents":1,"numAffected":1,"numAtRisk":452}]},{"term":"Cardiac failure acute","organSystem":"Cardiac disorders","sourceVocabulary":"MedDRA (24.1)","assessmentType":"NON_SYSTEMATIC_ASSESSMENT","stats":[{"groupId":"EG000","numEvents":0,"numAffected":0,"numAtRisk":445},{"groupId":"EG001","numEvents":1,"numAffected":1,"numAtRisk":446},{"groupId":"EG002","numEvents":0,"numAffected":0,"numAtRisk":443},{"groupId":"EG003","numEvents":1,"numAffected":1,"numAtRisk":452}]},{"term":"Cardiac failure chronic","organSystem":"Cardiac disorders","sourceVocabulary":"MedDRA (24.1)","assessmentType":"NON_SYSTEMATIC_ASSESSMENT","stats":[{"groupId":"EG000","numEvents":1,"numAffected":1,"numAtRisk":445},{"groupId":"EG001","numEvents":0,"numAffected":0,"numAtRisk":446},{"groupId":"EG002","numEvents":0,"numAffected":0,"numAtRisk":443},{"groupId":"EG003","numEvents":0,"numAffected":0,"numAtRisk":452}]},{"term":"Cardiac failure congestive","organSystem":"Cardiac disorders","sourceVocabulary":"MedDRA (24.1)","assessmentType":"NON_SYSTEMATIC_ASSESSMENT","stats":[{"groupId":"EG000","numEvents":0,"numAffected":0,"numAtRisk":445},{"groupId":"EG001","numEvents":0,"numAffected":0,"numAtRisk":446},{"groupId":"EG002","numEvents":1,"numAffected":1,"numAtRisk":443},{"groupId":"EG003","numEvents":0,"numAffected":0,"numAtRisk":452}]},{"term":"Chordae tendinae rupture","organSystem":"Cardiac disorders","sourceVocabulary":"MedDRA (24.1)","assessmentType":"NON_SYSTEMATIC_ASSESSMENT","stats":[{"groupId":"EG000","numEvents":0,"numAffected":0,"numAtRisk":445},{"groupId":"EG001","numEvents":0,"numAffected":0,"numAtRisk":446},{"groupId":"EG002","numEvents":0,"numAffected":0,"numAtRisk":443},{"groupId":"EG003","numEvents":1,"numAffected":1,"numAtRisk":452}]},{"term":"Coronary artery disease","organSystem":"Cardiac disorders","sourceVocabulary":"MedDRA (24.1)","assessmentType":"NON_SYSTEMATIC_ASSESSMENT","stats":[{"groupId":"EG000","numEvents":1,"numAffected":1,"numAtRisk":445},{"groupId":"EG001","numEvents":0,"numAffected":0,"numAtRisk":446},{"groupId":"EG002","numEvents":0,"numAffected":0,"numAtRisk":443},{"groupId":"EG003","numEvents":2,"numAffected":2,"numAtRisk":452}]},{"term":"Myocardial infarction","organSystem":"Cardiac disorders","sourceVocabulary":"MedDRA (24.1)","assessmentType":"NON_SYSTEMATIC_ASSESSMENT","stats":[{"groupId":"EG000","numEvents":0,"numAffected":0,"numAtRisk":445},{"groupId":"EG001","numEvents":2,"numAffected":2,"numAtRisk":446},{"groupId":"EG002","numEvents":3,"numAffected":3,"numAtRisk":443},{"groupId":"EG003","numEvents":2,"numAffected":2,"numAtRisk":452}]},{"term":"Myocardial ischaemia","organSystem":"Cardiac disorders","sourceVocabulary":"MedDRA (24.1)","assessmentType":"NON_SYSTEMATIC_ASSESSMENT","stats":[{"groupId":"EG000","numEvents":0,"numAffected":0,"numAtRisk":445},{"groupId":"EG001","numEvents":0,"numAffected":0,"numAtRisk":446},{"groupId":"EG002","numEvents":1,"numAffected":1,"numAtRisk":443},{"groupId":"EG003","numEvents":0,"numAffected":0,"numAtRisk":452}]},{"term":"Palpitations","organSystem":"Cardiac disorders","sourceVocabulary":"MedDRA (24.1)","assessmentType":"NON_SYSTEMATIC_ASSESSMENT","stats":[{"groupId":"EG000","numEvents":0,"numAffected":0,"numAtRisk":445},{"groupId":"EG001","numEvents":0,"numAffected":0,"numAtRisk":446},{"groupId":"EG002","numEvents":1,"numAffected":1,"numAtRisk":443},{"groupId":"EG003","numEvents":0,"numAffected":0,"numAtRisk":452}]},{"term":"Pericardial effusion","organSystem":"Cardiac disorders","sourceVocabulary":"MedDRA (24.1)","assessmentType":"NON_SYSTEMATIC_ASSESSMENT","stats":[{"groupId":"EG000","numEvents":0,"numAffected":0,"numAtRisk":445},{"groupId":"EG001","numEvents":0,"numAffected":0,"numAtRisk":446},{"groupId":"EG002","numEvents":0,"numAffected":0,"numAtRisk":443},{"groupId":"EG003","numEvents":1,"numAffected":1,"numAtRisk":452}]},{"term":"Supraventricular tachycardia","organSystem":"Cardiac disorders","sourceVocabulary":"MedDRA (24.1)","assessmentType":"NON_SYSTEMATIC_ASSESSMENT","stats":[{"groupId":"EG000","numEvents":0,"numAffected":0,"numAtRisk":445},{"groupId":"EG001","numEvents":0,"numAffected":0,"numAtRisk":446},{"groupId":"EG002","numEvents":1,"numAffected":1,"numAtRisk":443},{"groupId":"EG003","numEvents":0,"numAffected":0,"numAtRisk":452}]},{"term":"Intracardiac thrombus","organSystem":"Cardiac disorders","sourceVocabulary":"MedDRA (24.1)","assessmentType":"NON_SYSTEMATIC_ASSESSMENT","stats":[{"groupId":"EG000","numEvents":0,"numAffected":0,"numAtRisk":445},{"groupId":"EG001","numEvents":1,"numAffected":1,"numAtRisk":446},{"groupId":"EG002","numEvents":0,"numAffected":0,"numAtRisk":443},{"groupId":"EG003","numEvents":0,"numAffected":0,"numAtRisk":452}]},{"term":"Cardiopulmonary failure","organSystem":"Cardiac disorders","sourceVocabulary":"MedDRA (24.1)","assessmentType":"NON_SYSTEMATIC_ASSESSMENT","stats":[{"groupId":"EG000","numEvents":0,"numAffected":0,"numAtRisk":445},{"groupId":"EG001","numEvents":0,"numAffected":0,"numAtRisk":446},{"groupId":"EG002","numEvents":0,"numAffected":0,"numAtRisk":443},{"groupId":"EG003","numEvents":1,"numAffected":1,"numAtRisk":452}]},{"term":"Acute coronary syndrome","organSystem":"Cardiac disorders","sourceVocabulary":"MedDRA (24.1)","assessmentType":"NON_SYSTEMATIC_ASSESSMENT","stats":[{"groupId":"EG000","numEvents":1,"numAffected":1,"numAtRisk":445},{"groupId":"EG001","numEvents":0,"numAffected":0,"numAtRisk":446},{"groupId":"EG002","numEvents":0,"numAffected":0,"numAtRisk":443},{"groupId":"EG003","numEvents":0,"numAffected":0,"numAtRisk":452}]},{"term":"Sinus node dysfunction","organSystem":"Cardiac disorders","sourceVocabulary":"MedDRA (24.1)","assessmentType":"NON_SYSTEMATIC_ASSESSMENT","stats":[{"groupId":"EG000","numEvents":0,"numAffected":0,"numAtRisk":445},{"groupId":"EG001","numEvents":0,"numAffected":0,"numAtRisk":446},{"groupId":"EG002","numEvents":1,"numAffected":1,"numAtRisk":443},{"groupId":"EG003","numEvents":0,"numAffected":0,"numAtRisk":452}]},{"term":"Atrial septal defect","organSystem":"Congenital, familial and genetic disorders","sourceVocabulary":"MedDRA (24.1)","assessmentType":"NON_SYSTEMATIC_ASSESSMENT","stats":[{"groupId":"EG000","numEvents":0,"numAffected":0,"numAtRisk":445},{"groupId":"EG001","numEvents":1,"numAffected":1,"numAtRisk":446},{"groupId":"EG002","numEvents":2,"numAffected":2,"numAtRisk":443},{"groupId":"EG003","numEvents":2,"numAffected":2,"numAtRisk":452}]},{"term":"Vertigo","organSystem":"Ear and labyrinth disorders","sourceVocabulary":"MedDRA (24.1)","assessmentType":"NON_SYSTEMATIC_ASSESSMENT","stats":[{"groupId":"EG000","numEvents":0,"numAffected":0,"numAtRisk":445},{"groupId":"EG001","numEvents":3,"numAffected":3,"numAtRisk":446},{"groupId":"EG002","numEvents":0,"numAffected":0,"numAtRisk":443},{"groupId":"EG003","numEvents":1,"numAffected":1,"numAtRisk":452}]},{"term":"Angle closure glaucoma","organSystem":"Eye disorders","sourceVocabulary":"MedDRA (24.1)","assessmentType":"NON_SYSTEMATIC_ASSESSMENT","stats":[{"groupId":"EG000","numEvents":0,"numAffected":0,"numAtRisk":445},{"groupId":"EG001","numEvents":0,"numAffected":0,"numAtRisk":446},{"groupId":"EG002","numEvents":1,"numAffected":1,"numAtRisk":443},{"groupId":"EG003","numEvents":0,"numAffected":0,"numAtRisk":452}]},{"term":"Cataract","organSystem":"Eye disorders","sourceVocabulary":"MedDRA (24.1)","assessmentType":"NON_SYSTEMATIC_ASSESSMENT","stats":[{"groupId":"EG000","numEvents":1,"numAffected":1,"numAtRisk":445},{"groupId":"EG001","numEvents":0,"numAffected":0,"numAtRisk":446},{"groupId":"EG002","numEvents":0,"numAffected":0,"numAtRisk":443},{"groupId":"EG003","numEvents":0,"numAffected":0,"numAtRisk":452}]},{"term":"Diabetic retinopathy","organSystem":"Eye disorders","sourceVocabulary":"MedDRA (24.1)","assessmentType":"NON_SYSTEMATIC_ASSESSMENT","stats":[{"groupId":"EG000","numEvents":0,"numAffected":0,"numAtRisk":445},{"groupId":"EG001","numEvents":0,"numAffected":0,"numAtRisk":446},{"groupId":"EG002","numEvents":0,"numAffected":0,"numAtRisk":443},{"groupId":"EG003","numEvents":1,"numAffected":1,"numAtRisk":452}]},{"term":"Macular oedema","organSystem":"Eye disorders","sourceVocabulary":"MedDRA (24.1)","assessmentType":"NON_SYSTEMATIC_ASSESSMENT","stats":[{"groupId":"EG000","numEvents":1,"numAffected":1,"numAtRisk":445},{"groupId":"EG001","numEvents":0,"numAffected":0,"numAtRisk":446},{"groupId":"EG002","numEvents":0,"numAffected":0,"numAtRisk":443},{"groupId":"EG003","numEvents":0,"numAffected":0,"numAtRisk":452}]},{"term":"Retinal infarction","organSystem":"Eye disorders","sourceVocabulary":"MedDRA (24.1)","assessmentType":"NON_SYSTEMATIC_ASSESSMENT","stats":[{"groupId":"EG000","numEvents":1,"numAffected":1,"numAtRisk":445},{"groupId":"EG001","numEvents":0,"numAffected":0,"numAtRisk":446},{"groupId":"EG002","numEvents":0,"numAffected":0,"numAtRisk":443},{"groupId":"EG003","numEvents":0,"numAffected":0,"numAtRisk":452}]},{"term":"Abdominal pain","organSystem":"Gastrointestinal disorders","sourceVocabulary":"MedDRA (24.1)","assessmentType":"NON_SYSTEMATIC_ASSESSMENT","stats":[{"groupId":"EG000","numEvents":0,"numAffected":0,"numAtRisk":445},{"groupId":"EG001","numEvents":1,"numAffected":1,"numAtRisk":446},{"groupId":"EG002","numEvents":0,"numAffected":0,"numAtRisk":443},{"groupId":"EG003","numEvents":0,"numAffected":0,"numAtRisk":452}]},{"term":"Colitis ischaemic","organSystem":"Gastrointestinal disorders","sourceVocabulary":"MedDRA (24.1)","assessmentType":"NON_SYSTEMATIC_ASSESSMENT","stats":[{"groupId":"EG000","numEvents":1,"numAffected":1,"numAtRisk":445},{"groupId":"EG001","numEvents":0,"numAffected":0,"numAtRisk":446},{"groupId":"EG002","numEvents":0,"numAffected":0,"numAtRisk":443},{"groupId":"EG003","numEvents":0,"numAffected":0,"numAtRisk":452}]},{"term":"Duodenal ulcer haemorrhage","organSystem":"Gastrointestinal disorders","sourceVocabulary":"MedDRA (24.1)","assessmentType":"NON_SYSTEMATIC_ASSESSMENT","stats":[{"groupId":"EG000","numEvents":0,"numAffected":0,"numAtRisk":445},{"groupId":"EG001","numEvents":0,"numAffected":0,"numAtRisk":446},{"groupId":"EG002","numEvents":1,"numAffected":1,"numAtRisk":443},{"groupId":"EG003","numEvents":0,"numAffected":0,"numAtRisk":452}]},{"term":"Dyspepsia","organSystem":"Gastrointestinal disorders","sourceVocabulary":"MedDRA (24.1)","assessmentType":"NON_SYSTEMATIC_ASSESSMENT","stats":[{"groupId":"EG000","numEvents":1,"numAffected":1,"numAtRisk":445},{"groupId":"EG001","numEvents":0,"numAffected":0,"numAtRisk":446},{"groupId":"EG002","numEvents":0,"numAffected":0,"numAtRisk":443},{"groupId":"EG003","numEvents":0,"numAffected":0,"numAtRisk":452}]},{"term":"Gastric ulcer haemorrhage","organSystem":"Gastrointestinal disorders","sourceVocabulary":"MedDRA (24.1)","assessmentType":"NON_SYSTEMATIC_ASSESSMENT","stats":[{"groupId":"EG000","numEvents":1,"numAffected":1,"numAtRisk":445},{"groupId":"EG001","numEvents":0,"numAffected":0,"numAtRisk":446},{"groupId":"EG002","numEvents":0,"numAffected":0,"numAtRisk":443},{"groupId":"EG003","numEvents":0,"numAffected":0,"numAtRisk":452}]},{"term":"Gastrointestinal haemorrhage","organSystem":"Gastrointestinal disorders","sourceVocabulary":"MedDRA (24.1)","assessmentType":"NON_SYSTEMATIC_ASSESSMENT","stats":[{"groupId":"EG000","numEvents":1,"numAffected":1,"numAtRisk":445},{"groupId":"EG001","numEvents":1,"numAffected":1,"numAtRisk":446},{"groupId":"EG002","numEvents":1,"numAffected":1,"numAtRisk":443},{"groupId":"EG003","numEvents":0,"numAffected":0,"numAtRisk":452}]},{"term":"Haematochezia","organSystem":"Gastrointestinal disorders","sourceVocabulary":"MedDRA (24.1)","assessmentType":"NON_SYSTEMATIC_ASSESSMENT","stats":[{"groupId":"EG000","numEvents":0,"numAffected":0,"numAtRisk":445},{"groupId":"EG001","numEvents":0,"numAffected":0,"numAtRisk":446},{"groupId":"EG002","numEvents":0,"numAffected":0,"numAtRisk":443},{"groupId":"EG003","numEvents":1,"numAffected":1,"numAtRisk":452}]},{"term":"Inguinal hernia","organSystem":"Gastrointestinal disorders","sourceVocabulary":"MedDRA (24.1)","assessmentType":"NON_SYSTEMATIC_ASSESSMENT","stats":[{"groupId":"EG000","numEvents":0,"numAffected":0,"numAtRisk":445},{"groupId":"EG001","numEvents":0,"numAffected":0,"numAtRisk":446},{"groupId":"EG002","numEvents":0,"numAffected":0,"numAtRisk":443},{"groupId":"EG003","numEvents":1,"numAffected":1,"numAtRisk":452}]},{"term":"Intussusception","organSystem":"Gastrointestinal disorders","sourceVocabulary":"MedDRA (24.1)","assessmentType":"NON_SYSTEMATIC_ASSESSMENT","stats":[{"groupId":"EG000","numEvents":0,"numAffected":0,"numAtRisk":445},{"groupId":"EG001","numEvents":0,"numAffected":0,"numAtRisk":446},{"groupId":"EG002","numEvents":1,"numAffected":1,"numAtRisk":443},{"groupId":"EG003","numEvents":0,"numAffected":0,"numAtRisk":452}]},{"term":"Melaena","organSystem":"Gastrointestinal disorders","sourceVocabulary":"MedDRA (24.1)","assessmentType":"NON_SYSTEMATIC_ASSESSMENT","stats":[{"groupId":"EG000","numEvents":0,"numAffected":0,"numAtRisk":445},{"groupId":"EG001","numEvents":0,"numAffected":0,"numAtRisk":446},{"groupId":"EG002","numEvents":1,"numAffected":1,"numAtRisk":443},{"groupId":"EG003","numEvents":1,"numAffected":1,"numAtRisk":452}]},{"term":"Nausea","organSystem":"Gastrointestinal disorders","sourceVocabulary":"MedDRA (24.1)","assessmentType":"NON_SYSTEMATIC_ASSESSMENT","stats":[{"groupId":"EG000","numEvents":1,"numAffected":1,"numAtRisk":445},{"groupId":"EG001","numEvents":0,"numAffected":0,"numAtRisk":446},{"groupId":"EG002","numEvents":0,"numAffected":0,"numAtRisk":443},{"groupId":"EG003","numEvents":0,"numAffected":0,"numAtRisk":452}]},{"term":"Umbilical hernia","organSystem":"Gastrointestinal disorders","sourceVocabulary":"MedDRA (24.1)","assessmentType":"NON_SYSTEMATIC_ASSESSMENT","stats":[{"groupId":"EG000","numEvents":0,"numAffected":0,"numAtRisk":445},{"groupId":"EG001","numEvents":0,"numAffected":0,"numAtRisk":446},{"groupId":"EG002","numEvents":0,"numAffected":0,"numAtRisk":443},{"groupId":"EG003","numEvents":1,"numAffected":1,"numAtRisk":452}]},{"term":"Mechanical ileus","organSystem":"Gastrointestinal disorders","sourceVocabulary":"MedDRA (24.1)","assessmentType":"NON_SYSTEMATIC_ASSESSMENT","stats":[{"groupId":"EG000","numEvents":0,"numAffected":0,"numAtRisk":445},{"groupId":"EG001","numEvents":0,"numAffected":0,"numAtRisk":446},{"groupId":"EG002","numEvents":3,"numAffected":1,"numAtRisk":443},{"groupId":"EG003","numEvents":0,"numAffected":0,"numAtRisk":452}]},{"term":"Large intestine polyp","organSystem":"Gastrointestinal disorders","sourceVocabulary":"MedDRA (24.1)","assessmentType":"NON_SYSTEMATIC_ASSESSMENT","stats":[{"groupId":"EG000","numEvents":0,"numAffected":0,"numAtRisk":445},{"groupId":"EG001","numEvents":0,"numAffected":0,"numAtRisk":446},{"groupId":"EG002","numEvents":1,"numAffected":1,"numAtRisk":443},{"groupId":"EG003","numEvents":1,"numAffected":1,"numAtRisk":452}]},{"term":"Paraesthesia oral","organSystem":"Gastrointestinal disorders","sourceVocabulary":"MedDRA (24.1)","assessmentType":"NON_SYSTEMATIC_ASSESSMENT","stats":[{"groupId":"EG000","numEvents":1,"numAffected":1,"numAtRisk":445},{"groupId":"EG001","numEvents":0,"numAffected":0,"numAtRisk":446},{"groupId":"EG002","numEvents":0,"numAffected":0,"numAtRisk":443},{"groupId":"EG003","numEvents":0,"numAffected":0,"numAtRisk":452}]},{"term":"Stomach mass","organSystem":"Gastrointestinal disorders","sourceVocabulary":"MedDRA (24.1)","assessmentType":"NON_SYSTEMATIC_ASSESSMENT","stats":[{"groupId":"EG000","numEvents":0,"numAffected":0,"numAtRisk":445},{"groupId":"EG001","numEvents":0,"numAffected":0,"numAtRisk":446},{"groupId":"EG002","numEvents":0,"numAffected":0,"numAtRisk":443},{"groupId":"EG003","numEvents":1,"numAffected":1,"numAtRisk":452}]},{"term":"Chest pain","organSystem":"General disorders","sourceVocabulary":"MedDRA (24.1)","assessmentType":"NON_SYSTEMATIC_ASSESSMENT","stats":[{"groupId":"EG000","numEvents":0,"numAffected":0,"numAtRisk":445},{"groupId":"EG001","numEvents":1,"numAffected":1,"numAtRisk":446},{"groupId":"EG002","numEvents":0,"numAffected":0,"numAtRisk":443},{"groupId":"EG003","numEvents":0,"numAffected":0,"numAtRisk":452}]},{"term":"Death","organSystem":"General disorders","sourceVocabulary":"MedDRA (24.1)","assessmentType":"NON_SYSTEMATIC_ASSESSMENT","stats":[{"groupId":"EG000","numEvents":0,"numAffected":0,"numAtRisk":445},{"groupId":"EG001","numEvents":1,"numAffected":1,"numAtRisk":446},{"groupId":"EG002","numEvents":1,"numAffected":1,"numAtRisk":443},{"groupId":"EG003","numEvents":2,"numAffected":2,"numAtRisk":452}]},{"term":"Fatigue","organSystem":"General disorders","sourceVocabulary":"MedDRA (24.1)","assessmentType":"NON_SYSTEMATIC_ASSESSMENT","stats":[{"groupId":"EG000","numEvents":0,"numAffected":0,"numAtRisk":445},{"groupId":"EG001","numEvents":1,"numAffected":1,"numAtRisk":446},{"groupId":"EG002","numEvents":0,"numAffected":0,"numAtRisk":443},{"groupId":"EG003","numEvents":0,"numAffected":0,"numAtRisk":452}]},{"term":"Sudden death","organSystem":"General disorders","sourceVocabulary":"MedDRA (24.1)","assessmentType":"NON_SYSTEMATIC_ASSESSMENT","stats":[{"groupId":"EG000","numEvents":1,"numAffected":1,"numAtRisk":445},{"groupId":"EG001","numEvents":0,"numAffected":0,"numAtRisk":446},{"groupId":"EG002","numEvents":0,"numAffected":0,"numAtRisk":443},{"groupId":"EG003","numEvents":0,"numAffected":0,"numAtRisk":452}]},{"term":"Sudden cardiac death","organSystem":"General disorders","sourceVocabulary":"MedDRA (24.1)","assessmentType":"NON_SYSTEMATIC_ASSESSMENT","stats":[{"groupId":"EG000","numEvents":0,"numAffected":0,"numAtRisk":445},{"groupId":"EG001","numEvents":0,"numAffected":0,"numAtRisk":446},{"groupId":"EG002","numEvents":0,"numAffected":0,"numAtRisk":443},{"groupId":"EG003","numEvents":1,"numAffected":1,"numAtRisk":452}]},{"term":"Inflammation","organSystem":"General disorders","sourceVocabulary":"MedDRA (24.1)","assessmentType":"NON_SYSTEMATIC_ASSESSMENT","stats":[{"groupId":"EG000","numEvents":0,"numAffected":0,"numAtRisk":445},{"groupId":"EG001","numEvents":1,"numAffected":1,"numAtRisk":446},{"groupId":"EG002","numEvents":0,"numAffected":0,"numAtRisk":443},{"groupId":"EG003","numEvents":0,"numAffected":0,"numAtRisk":452}]},{"term":"Bile duct stone","organSystem":"Hepatobiliary disorders","sourceVocabulary":"MedDRA (24.1)","assessmentType":"NON_SYSTEMATIC_ASSESSMENT","stats":[{"groupId":"EG000","numEvents":0,"numAffected":0,"numAtRisk":445},{"groupId":"EG001","numEvents":1,"numAffected":1,"numAtRisk":446},{"groupId":"EG002","numEvents":0,"numAffected":0,"numAtRisk":443},{"groupId":"EG003","numEvents":0,"numAffected":0,"numAtRisk":452}]},{"term":"Cholangitis acute","organSystem":"Hepatobiliary disorders","sourceVocabulary":"MedDRA (24.1)","assessmentType":"NON_SYSTEMATIC_ASSESSMENT","stats":[{"groupId":"EG000","numEvents":0,"numAffected":0,"numAtRisk":445},{"groupId":"EG001","numEvents":1,"numAffected":1,"numAtRisk":446},{"groupId":"EG002","numEvents":0,"numAffected":0,"numAtRisk":443},{"groupId":"EG003","numEvents":0,"numAffected":0,"numAtRisk":452}]},{"term":"Cholecystitis","organSystem":"Hepatobiliary disorders","sourceVocabulary":"MedDRA (24.1)","assessmentType":"NON_SYSTEMATIC_ASSESSMENT","stats":[{"groupId":"EG000","numEvents":0,"numAffected":0,"numAtRisk":445},{"groupId":"EG001","numEvents":1,"numAffected":1,"numAtRisk":446},{"groupId":"EG002","numEvents":0,"numAffected":0,"numAtRisk":443},{"groupId":"EG003","numEvents":1,"numAffected":1,"numAtRisk":452}]},{"term":"Cholecystitis acute","organSystem":"Hepatobiliary disorders","sourceVocabulary":"MedDRA (24.1)","assessmentType":"NON_SYSTEMATIC_ASSESSMENT","stats":[{"groupId":"EG000","numEvents":1,"numAffected":1,"numAtRisk":445},{"groupId":"EG001","numEvents":0,"numAffected":0,"numAtRisk":446},{"groupId":"EG002","numEvents":0,"numAffected":0,"numAtRisk":443},{"groupId":"EG003","numEvents":0,"numAffected":0,"numAtRisk":452}]},{"term":"Cholelithiasis","organSystem":"Hepatobiliary disorders","sourceVocabulary":"MedDRA (24.1)","assessmentType":"NON_SYSTEMATIC_ASSESSMENT","stats":[{"groupId":"EG000","numEvents":0,"numAffected":0,"numAtRisk":445},{"groupId":"EG001","numEvents":0,"numAffected":0,"numAtRisk":446},{"groupId":"EG002","numEvents":1,"numAffected":1,"numAtRisk":443},{"groupId":"EG003","numEvents":1,"numAffected":1,"numAtRisk":452}]},{"term":"Hepatic failure","organSystem":"Hepatobiliary disorders","sourceVocabulary":"MedDRA (24.1)","assessmentType":"NON_SYSTEMATIC_ASSESSMENT","stats":[{"groupId":"EG000","numEvents":0,"numAffected":0,"numAtRisk":445},{"groupId":"EG001","numEvents":0,"numAffected":0,"numAtRisk":446},{"groupId":"EG002","numEvents":1,"numAffected":1,"numAtRisk":443},{"groupId":"EG003","numEvents":0,"numAffected":0,"numAtRisk":452}]},{"term":"Hepatitis acute","organSystem":"Hepatobiliary disorders","sourceVocabulary":"MedDRA (24.1)","assessmentType":"NON_SYSTEMATIC_ASSESSMENT","stats":[{"groupId":"EG000","numEvents":1,"numAffected":1,"numAtRisk":445},{"groupId":"EG001","numEvents":0,"numAffected":0,"numAtRisk":446},{"groupId":"EG002","numEvents":0,"numAffected":0,"numAtRisk":443},{"groupId":"EG003","numEvents":0,"numAffected":0,"numAtRisk":452}]},{"term":"Drug-induced liver injury","organSystem":"Hepatobiliary disorders","sourceVocabulary":"MedDRA (24.1)","assessmentType":"NON_SYSTEMATIC_ASSESSMENT","stats":[{"groupId":"EG000","numEvents":0,"numAffected":0,"numAtRisk":445},{"groupId":"EG001","numEvents":0,"numAffected":0,"numAtRisk":446},{"groupId":"EG002","numEvents":1,"numAffected":1,"numAtRisk":443},{"groupId":"EG003","numEvents":0,"numAffected":0,"numAtRisk":452}]},{"term":"Appendicitis","organSystem":"Infections and infestations","sourceVocabulary":"MedDRA (24.1)","assessmentType":"NON_SYSTEMATIC_ASSESSMENT","stats":[{"groupId":"EG000","numEvents":0,"numAffected":0,"numAtRisk":445},{"groupId":"EG001","numEvents":0,"numAffected":0,"numAtRisk":446},{"groupId":"EG002","numEvents":1,"numAffected":1,"numAtRisk":443},{"groupId":"EG003","numEvents":0,"numAffected":0,"numAtRisk":452}]},{"term":"Cellulitis","organSystem":"Infections and infestations","sourceVocabulary":"MedDRA (24.1)","assessmentType":"NON_SYSTEMATIC_ASSESSMENT","stats":[{"groupId":"EG000","numEvents":1,"numAffected":1,"numAtRisk":445},{"groupId":"EG001","numEvents":0,"numAffected":0,"numAtRisk":446},{"groupId":"EG002","numEvents":1,"numAffected":1,"numAtRisk":443},{"groupId":"EG003","numEvents":0,"numAffected":0,"numAtRisk":452}]},{"term":"Diverticulitis","organSystem":"Infections and infestations","sourceVocabulary":"MedDRA (24.1)","assessmentType":"NON_SYSTEMATIC_ASSESSMENT","stats":[{"groupId":"EG000","numEvents":0,"numAffected":0,"numAtRisk":445},{"groupId":"EG001","numEvents":0,"numAffected":0,"numAtRisk":446},{"groupId":"EG002","numEvents":0,"numAffected":0,"numAtRisk":443},{"groupId":"EG003","numEvents":1,"numAffected":1,"numAtRisk":452}]},{"term":"Gastroenteritis","organSystem":"Infections and infestations","sourceVocabulary":"MedDRA (24.1)","assessmentType":"NON_SYSTEMATIC_ASSESSMENT","stats":[{"groupId":"EG000","numEvents":0,"numAffected":0,"numAtRisk":445},{"groupId":"EG001","numEvents":0,"numAffected":0,"numAtRisk":446},{"groupId":"EG002","numEvents":2,"numAffected":2,"numAtRisk":443},{"groupId":"EG003","numEvents":0,"numAffected":0,"numAtRisk":452}]},{"term":"Pneumonia","organSystem":"Infections and infestations","sourceVocabulary":"MedDRA (24.1)","assessmentType":"NON_SYSTEMATIC_ASSESSMENT","stats":[{"groupId":"EG000","numEvents":3,"numAffected":3,"numAtRisk":445},{"groupId":"EG001","numEvents":2,"numAffected":2,"numAtRisk":446},{"groupId":"EG002","numEvents":1,"numAffected":1,"numAtRisk":443},{"groupId":"EG003","numEvents":0,"numAffected":0,"numAtRisk":452}]},{"term":"Pneumonia aspiration","organSystem":"Infections and infestations","sourceVocabulary":"MedDRA (24.1)","assessmentType":"NON_SYSTEMATIC_ASSESSMENT","stats":[{"groupId":"EG000","numEvents":1,"numAffected":1,"numAtRisk":445},{"groupId":"EG001","numEvents":0,"numAffected":0,"numAtRisk":446},{"groupId":"EG002","numEvents":1,"numAffected":1,"numAtRisk":443},{"groupId":"EG003","numEvents":1,"numAffected":1,"numAtRisk":452}]},{"term":"Pyelonephritis acute","organSystem":"Infections and infestations","sourceVocabulary":"MedDRA (24.1)","assessmentType":"NON_SYSTEMATIC_ASSESSMENT","stats":[{"groupId":"EG000","numEvents":1,"numAffected":1,"numAtRisk":445},{"groupId":"EG001","numEvents":0,"numAffected":0,"numAtRisk":446},{"groupId":"EG002","numEvents":0,"numAffected":0,"numAtRisk":443},{"groupId":"EG003","numEvents":0,"numAffected":0,"numAtRisk":452}]},{"term":"Sepsis","organSystem":"Infections and infestations","sourceVocabulary":"MedDRA (24.1)","assessmentType":"NON_SYSTEMATIC_ASSESSMENT","stats":[{"groupId":"EG000","numEvents":0,"numAffected":0,"numAtRisk":445},{"groupId":"EG001","numEvents":1,"numAffected":1,"numAtRisk":446},{"groupId":"EG002","numEvents":1,"numAffected":1,"numAtRisk":443},{"groupId":"EG003","numEvents":1,"numAffected":1,"numAtRisk":452}]},{"term":"Septic shock","organSystem":"Infections and infestations","sourceVocabulary":"MedDRA (24.1)","assessmentType":"NON_SYSTEMATIC_ASSESSMENT","stats":[{"groupId":"EG000","numEvents":0,"numAffected":0,"numAtRisk":445},{"groupId":"EG001","numEvents":0,"numAffected":0,"numAtRisk":446},{"groupId":"EG002","numEvents":0,"numAffected":0,"numAtRisk":443},{"groupId":"EG003","numEvents":1,"numAffected":1,"numAtRisk":452}]},{"term":"Urinary tract infection","organSystem":"Infections and infestations","sourceVocabulary":"MedDRA (24.1)","assessmentType":"NON_SYSTEMATIC_ASSESSMENT","stats":[{"groupId":"EG000","numEvents":0,"numAffected":0,"numAtRisk":445},{"groupId":"EG001","numEvents":1,"numAffected":1,"numAtRisk":446},{"groupId":"EG002","numEvents":0,"numAffected":0,"numAtRisk":443},{"groupId":"EG003","numEvents":1,"numAffected":1,"numAtRisk":452}]},{"term":"Urosepsis","organSystem":"Infections and infestations","sourceVocabulary":"MedDRA (24.1)","assessmentType":"NON_SYSTEMATIC_ASSESSMENT","stats":[{"groupId":"EG000","numEvents":1,"numAffected":1,"numAtRisk":445},{"groupId":"EG001","numEvents":0,"numAffected":0,"numAtRisk":446},{"groupId":"EG002","numEvents":0,"numAffected":0,"numAtRisk":443},{"groupId":"EG003","numEvents":0,"numAffected":0,"numAtRisk":452}]},{"term":"Staphylococcal sepsis","organSystem":"Infections and infestations","sourceVocabulary":"MedDRA (24.1)","assessmentType":"NON_SYSTEMATIC_ASSESSMENT","stats":[{"groupId":"EG000","numEvents":0,"numAffected":0,"numAtRisk":445},{"groupId":"EG001","numEvents":0,"numAffected":0,"numAtRisk":446},{"groupId":"EG002","numEvents":1,"numAffected":1,"numAtRisk":443},{"groupId":"EG003","numEvents":0,"numAffected":0,"numAtRisk":452}]},{"term":"Infective exacerbation of chronic obstructive airways disease","organSystem":"Infections and infestations","sourceVocabulary":"MedDRA (24.1)","assessmentType":"NON_SYSTEMATIC_ASSESSMENT","stats":[{"groupId":"EG000","numEvents":0,"numAffected":0,"numAtRisk":445},{"groupId":"EG001","numEvents":0,"numAffected":0,"numAtRisk":446},{"groupId":"EG002","numEvents":0,"numAffected":0,"numAtRisk":443},{"groupId":"EG003","numEvents":1,"numAffected":1,"numAtRisk":452}]},{"term":"Joint abscess","organSystem":"Infections and infestations","sourceVocabulary":"MedDRA (24.1)","assessmentType":"NON_SYSTEMATIC_ASSESSMENT","stats":[{"groupId":"EG000","numEvents":0,"numAffected":0,"numAtRisk":445},{"groupId":"EG001","numEvents":0,"numAffected":0,"numAtRisk":446},{"groupId":"EG002","numEvents":0,"numAffected":0,"numAtRisk":443},{"groupId":"EG003","numEvents":1,"numAffected":1,"numAtRisk":452}]},{"term":"Abdominal abscess","organSystem":"Infections and infestations","sourceVocabulary":"MedDRA (24.1)","assessmentType":"NON_SYSTEMATIC_ASSESSMENT","stats":[{"groupId":"EG000","numEvents":0,"numAffected":0,"numAtRisk":445},{"groupId":"EG001","numEvents":0,"numAffected":0,"numAtRisk":446},{"groupId":"EG002","numEvents":1,"numAffected":1,"numAtRisk":443},{"groupId":"EG003","numEvents":0,"numAffected":0,"numAtRisk":452}]},{"term":"Pneumonia bacterial","organSystem":"Infections and infestations","sourceVocabulary":"MedDRA (24.1)","assessmentType":"NON_SYSTEMATIC_ASSESSMENT","stats":[{"groupId":"EG000","numEvents":1,"numAffected":1,"numAtRisk":445},{"groupId":"EG001","numEvents":0,"numAffected":0,"numAtRisk":446},{"groupId":"EG002","numEvents":0,"numAffected":0,"numAtRisk":443},{"groupId":"EG003","numEvents":0,"numAffected":0,"numAtRisk":452}]},{"term":"COVID-19","organSystem":"Infections and infestations","sourceVocabulary":"MedDRA (24.1)","assessmentType":"NON_SYSTEMATIC_ASSESSMENT","stats":[{"groupId":"EG000","numEvents":0,"numAffected":0,"numAtRisk":445},{"groupId":"EG001","numEvents":1,"numAffected":1,"numAtRisk":446},{"groupId":"EG002","numEvents":5,"numAffected":5,"numAtRisk":443},{"groupId":"EG003","numEvents":4,"numAffected":4,"numAtRisk":452}]},{"term":"COVID-19 pneumonia","organSystem":"Infections and infestations","sourceVocabulary":"MedDRA (24.1)","assessmentType":"NON_SYSTEMATIC_ASSESSMENT","stats":[{"groupId":"EG000","numEvents":0,"numAffected":0,"numAtRisk":445},{"groupId":"EG001","numEvents":3,"numAffected":3,"numAtRisk":446},{"groupId":"EG002","numEvents":2,"numAffected":2,"numAtRisk":443},{"groupId":"EG003","numEvents":0,"numAffected":0,"numAtRisk":452}]},{"term":"Carbon monoxide poisoning","organSystem":"Injury, poisoning and procedural complications","sourceVocabulary":"MedDRA (24.1)","assessmentType":"NON_SYSTEMATIC_ASSESSMENT","stats":[{"groupId":"EG000","numEvents":1,"numAffected":1,"numAtRisk":445},{"groupId":"EG001","numEvents":0,"numAffected":0,"numAtRisk":446},{"groupId":"EG002","numEvents":0,"numAffected":0,"numAtRisk":443},{"groupId":"EG003","numEvents":0,"numAffected":0,"numAtRisk":452}]},{"term":"Concussion","organSystem":"Injury, poisoning and procedural complications","sourceVocabulary":"MedDRA (24.1)","assessmentType":"NON_SYSTEMATIC_ASSESSMENT","stats":[{"groupId":"EG000","numEvents":1,"numAffected":1,"numAtRisk":445},{"groupId":"EG001","numEvents":0,"numAffected":0,"numAtRisk":446},{"groupId":"EG002","numEvents":1,"numAffected":1,"numAtRisk":443},{"groupId":"EG003","numEvents":0,"numAffected":0,"numAtRisk":452}]},{"term":"Fall","organSystem":"Injury, poisoning and procedural complications","sourceVocabulary":"MedDRA (24.1)","assessmentType":"NON_SYSTEMATIC_ASSESSMENT","stats":[{"groupId":"EG000","numEvents":2,"numAffected":2,"numAtRisk":445},{"groupId":"EG001","numEvents":0,"numAffected":0,"numAtRisk":446},{"groupId":"EG002","numEvents":0,"numAffected":0,"numAtRisk":443},{"groupId":"EG003","numEvents":0,"numAffected":0,"numAtRisk":452}]},{"term":"Femoral neck fracture","organSystem":"Injury, poisoning and procedural complications","sourceVocabulary":"MedDRA (24.1)","assessmentType":"NON_SYSTEMATIC_ASSESSMENT","stats":[{"groupId":"EG000","numEvents":1,"numAffected":1,"numAtRisk":445},{"groupId":"EG001","numEvents":2,"numAffected":2,"numAtRisk":446},{"groupId":"EG002","numEvents":0,"numAffected":0,"numAtRisk":443},{"groupId":"EG003","numEvents":0,"numAffected":0,"numAtRisk":452}]},{"term":"Femur fracture","organSystem":"Injury, poisoning and procedural complications","sourceVocabulary":"MedDRA (24.1)","assessmentType":"NON_SYSTEMATIC_ASSESSMENT","stats":[{"groupId":"EG000","numEvents":1,"numAffected":1,"numAtRisk":445},{"groupId":"EG001","numEvents":0,"numAffected":0,"numAtRisk":446},{"groupId":"EG002","numEvents":0,"numAffected":0,"numAtRisk":443},{"groupId":"EG003","numEvents":0,"numAffected":0,"numAtRisk":452}]},{"term":"Fibula fracture","organSystem":"Injury, poisoning and procedural complications","sourceVocabulary":"MedDRA (24.1)","assessmentType":"NON_SYSTEMATIC_ASSESSMENT","stats":[{"groupId":"EG000","numEvents":0,"numAffected":0,"numAtRisk":445},{"groupId":"EG001","numEvents":0,"numAffected":0,"numAtRisk":446},{"groupId":"EG002","numEvents":0,"numAffected":0,"numAtRisk":443},{"groupId":"EG003","numEvents":1,"numAffected":1,"numAtRisk":452}]},{"term":"Foot fracture","organSystem":"Injury, poisoning and procedural complications","sourceVocabulary":"MedDRA (24.1)","assessmentType":"NON_SYSTEMATIC_ASSESSMENT","stats":[{"groupId":"EG000","numEvents":1,"numAffected":1,"numAtRisk":445},{"groupId":"EG001","numEvents":0,"numAffected":0,"numAtRisk":446},{"groupId":"EG002","numEvents":0,"numAffected":0,"numAtRisk":443},{"groupId":"EG003","numEvents":0,"numAffected":0,"numAtRisk":452}]},{"term":"Hand fracture","organSystem":"Injury, poisoning and procedural complications","sourceVocabulary":"MedDRA (24.1)","assessmentType":"NON_SYSTEMATIC_ASSESSMENT","stats":[{"groupId":"EG000","numEvents":0,"numAffected":0,"numAtRisk":445},{"groupId":"EG001","numEvents":1,"numAffected":1,"numAtRisk":446},{"groupId":"EG002","numEvents":0,"numAffected":0,"numAtRisk":443},{"groupId":"EG003","numEvents":0,"numAffected":0,"numAtRisk":452}]},{"term":"Head injury","organSystem":"Injury, poisoning and procedural complications","sourceVocabulary":"MedDRA (24.1)","assessmentType":"NON_SYSTEMATIC_ASSESSMENT","stats":[{"groupId":"EG000","numEvents":0,"numAffected":0,"numAtRisk":445},{"groupId":"EG001","numEvents":0,"numAffected":0,"numAtRisk":446},{"groupId":"EG002","numEvents":0,"numAffected":0,"numAtRisk":443},{"groupId":"EG003","numEvents":1,"numAffected":1,"numAtRisk":452}]},{"term":"Hip fracture","organSystem":"Injury, poisoning and procedural complications","sourceVocabulary":"MedDRA (24.1)","assessmentType":"NON_SYSTEMATIC_ASSESSMENT","stats":[{"groupId":"EG000","numEvents":2,"numAffected":2,"numAtRisk":445},{"groupId":"EG001","numEvents":0,"numAffected":0,"numAtRisk":446},{"groupId":"EG002","numEvents":0,"numAffected":0,"numAtRisk":443},{"groupId":"EG003","numEvents":0,"numAffected":0,"numAtRisk":452}]},{"term":"Humerus fracture","organSystem":"Injury, poisoning and procedural complications","sourceVocabulary":"MedDRA (24.1)","assessmentType":"NON_SYSTEMATIC_ASSESSMENT","stats":[{"groupId":"EG000","numEvents":0,"numAffected":0,"numAtRisk":445},{"groupId":"EG001","numEvents":0,"numAffected":0,"numAtRisk":446},{"groupId":"EG002","numEvents":0,"numAffected":0,"numAtRisk":443},{"groupId":"EG003","numEvents":1,"numAffected":1,"numAtRisk":452}]},{"term":"Rib fracture","organSystem":"Injury, poisoning and procedural complications","sourceVocabulary":"MedDRA (24.1)","assessmentType":"NON_SYSTEMATIC_ASSESSMENT","stats":[{"groupId":"EG000","numEvents":0,"numAffected":0,"numAtRisk":445},{"groupId":"EG001","numEvents":0,"numAffected":0,"numAtRisk":446},{"groupId":"EG002","numEvents":1,"numAffected":1,"numAtRisk":443},{"groupId":"EG003","numEvents":0,"numAffected":0,"numAtRisk":452}]},{"term":"Subcutaneous haematoma","organSystem":"Injury, poisoning and procedural complications","sourceVocabulary":"MedDRA (24.1)","assessmentType":"NON_SYSTEMATIC_ASSESSMENT","stats":[{"groupId":"EG000","numEvents":0,"numAffected":0,"numAtRisk":445},{"groupId":"EG001","numEvents":0,"numAffected":0,"numAtRisk":446},{"groupId":"EG002","numEvents":0,"numAffected":0,"numAtRisk":443},{"groupId":"EG003","numEvents":1,"numAffected":1,"numAtRisk":452}]},{"term":"Subdural haematoma","organSystem":"Injury, poisoning and procedural complications","sourceVocabulary":"MedDRA (24.1)","assessmentType":"NON_SYSTEMATIC_ASSESSMENT","stats":[{"groupId":"EG000","numEvents":1,"numAffected":1,"numAtRisk":445},{"groupId":"EG001","numEvents":0,"numAffected":0,"numAtRisk":446},{"groupId":"EG002","numEvents":0,"numAffected":0,"numAtRisk":443},{"groupId":"EG003","numEvents":0,"numAffected":0,"numAtRisk":452}]},{"term":"Subdural haemorrhage","organSystem":"Injury, poisoning and procedural complications","sourceVocabulary":"MedDRA (24.1)","assessmentType":"NON_SYSTEMATIC_ASSESSMENT","stats":[{"groupId":"EG000","numEvents":1,"numAffected":1,"numAtRisk":445},{"groupId":"EG001","numEvents":0,"numAffected":0,"numAtRisk":446},{"groupId":"EG002","numEvents":0,"numAffected":0,"numAtRisk":443},{"groupId":"EG003","numEvents":0,"numAffected":0,"numAtRisk":452}]},{"term":"Tendon rupture","organSystem":"Injury, poisoning and procedural complications","sourceVocabulary":"MedDRA (24.1)","assessmentType":"NON_SYSTEMATIC_ASSESSMENT","stats":[{"groupId":"EG000","numEvents":0,"numAffected":0,"numAtRisk":445},{"groupId":"EG001","numEvents":0,"numAffected":0,"numAtRisk":446},{"groupId":"EG002","numEvents":1,"numAffected":1,"numAtRisk":443},{"groupId":"EG003","numEvents":0,"numAffected":0,"numAtRisk":452}]},{"term":"Tibia fracture","organSystem":"Injury, poisoning and procedural complications","sourceVocabulary":"MedDRA (24.1)","assessmentType":"NON_SYSTEMATIC_ASSESSMENT","stats":[{"groupId":"EG000","numEvents":1,"numAffected":1,"numAtRisk":445},{"groupId":"EG001","numEvents":1,"numAffected":1,"numAtRisk":446},{"groupId":"EG002","numEvents":0,"numAffected":0,"numAtRisk":443},{"groupId":"EG003","numEvents":0,"numAffected":0,"numAtRisk":452}]},{"term":"Traumatic fracture","organSystem":"Injury, poisoning and procedural complications","sourceVocabulary":"MedDRA (24.1)","assessmentType":"NON_SYSTEMATIC_ASSESSMENT","stats":[{"groupId":"EG000","numEvents":0,"numAffected":0,"numAtRisk":445},{"groupId":"EG001","numEvents":0,"numAffected":0,"numAtRisk":446},{"groupId":"EG002","numEvents":1,"numAffected":1,"numAtRisk":443},{"groupId":"EG003","numEvents":0,"numAffected":0,"numAtRisk":452}]},{"term":"Cervical vertebral fracture","organSystem":"Injury, poisoning and procedural complications","sourceVocabulary":"MedDRA (24.1)","assessmentType":"NON_SYSTEMATIC_ASSESSMENT","stats":[{"groupId":"EG000","numEvents":0,"numAffected":0,"numAtRisk":445},{"groupId":"EG001","numEvents":0,"numAffected":0,"numAtRisk":446},{"groupId":"EG002","numEvents":0,"numAffected":0,"numAtRisk":443},{"groupId":"EG003","numEvents":1,"numAffected":1,"numAtRisk":452}]},{"term":"Contusion","organSystem":"Injury, poisoning and procedural complications","sourceVocabulary":"MedDRA (24.1)","assessmentType":"NON_SYSTEMATIC_ASSESSMENT","stats":[{"groupId":"EG000","numEvents":0,"numAffected":0,"numAtRisk":445},{"groupId":"EG001","numEvents":0,"numAffected":0,"numAtRisk":446},{"groupId":"EG002","numEvents":0,"numAffected":0,"numAtRisk":443},{"groupId":"EG003","numEvents":1,"numAffected":1,"numAtRisk":452}]},{"term":"Post procedural haemorrhage","organSystem":"Injury, poisoning and procedural complications","sourceVocabulary":"MedDRA (24.1)","assessmentType":"NON_SYSTEMATIC_ASSESSMENT","stats":[{"groupId":"EG000","numEvents":0,"numAffected":0,"numAtRisk":445},{"groupId":"EG001","numEvents":0,"numAffected":0,"numAtRisk":446},{"groupId":"EG002","numEvents":0,"numAffected":0,"numAtRisk":443},{"groupId":"EG003","numEvents":1,"numAffected":1,"numAtRisk":452}]},{"term":"Lower limb fracture","organSystem":"Injury, poisoning and procedural complications","sourceVocabulary":"MedDRA (24.1)","assessmentType":"NON_SYSTEMATIC_ASSESSMENT","stats":[{"groupId":"EG000","numEvents":0,"numAffected":0,"numAtRisk":445},{"groupId":"EG001","numEvents":0,"numAffected":0,"numAtRisk":446},{"groupId":"EG002","numEvents":1,"numAffected":1,"numAtRisk":443},{"groupId":"EG003","numEvents":0,"numAffected":0,"numAtRisk":452}]},{"term":"Foreign body in gastrointestinal tract","organSystem":"Injury, poisoning and procedural complications","sourceVocabulary":"MedDRA (24.1)","assessmentType":"NON_SYSTEMATIC_ASSESSMENT","stats":[{"groupId":"EG000","numEvents":0,"numAffected":0,"numAtRisk":445},{"groupId":"EG001","numEvents":1,"numAffected":1,"numAtRisk":446},{"groupId":"EG002","numEvents":0,"numAffected":0,"numAtRisk":443},{"groupId":"EG003","numEvents":0,"numAffected":0,"numAtRisk":452}]},{"term":"Haemoglobin decreased","organSystem":"Investigations","sourceVocabulary":"MedDRA (24.1)","assessmentType":"NON_SYSTEMATIC_ASSESSMENT","stats":[{"groupId":"EG000","numEvents":0,"numAffected":0,"numAtRisk":445},{"groupId":"EG001","numEvents":0,"numAffected":0,"numAtRisk":446},{"groupId":"EG002","numEvents":1,"numAffected":1,"numAtRisk":443},{"groupId":"EG003","numEvents":0,"numAffected":0,"numAtRisk":452}]},{"term":"Angiogram cerebral","organSystem":"Investigations","sourceVocabulary":"MedDRA (24.1)","assessmentType":"NON_SYSTEMATIC_ASSESSMENT","stats":[{"groupId":"EG000","numEvents":1,"numAffected":1,"numAtRisk":445},{"groupId":"EG001","numEvents":0,"numAffected":0,"numAtRisk":446},{"groupId":"EG002","numEvents":0,"numAffected":0,"numAtRisk":443},{"groupId":"EG003","numEvents":0,"numAffected":0,"numAtRisk":452}]},{"term":"Cardiovascular evaluation","organSystem":"Investigations","sourceVocabulary":"MedDRA (24.1)","assessmentType":"NON_SYSTEMATIC_ASSESSMENT","stats":[{"groupId":"EG000","numEvents":0,"numAffected":0,"numAtRisk":445},{"groupId":"EG001","numEvents":0,"numAffected":0,"numAtRisk":446},{"groupId":"EG002","numEvents":0,"numAffected":0,"numAtRisk":443},{"groupId":"EG003","numEvents":1,"numAffected":1,"numAtRisk":452}]},{"term":"Sleep study","organSystem":"Investigations","sourceVocabulary":"MedDRA (24.1)","assessmentType":"NON_SYSTEMATIC_ASSESSMENT","stats":[{"groupId":"EG000","numEvents":2,"numAffected":2,"numAtRisk":445},{"groupId":"EG001","numEvents":1,"numAffected":1,"numAtRisk":446},{"groupId":"EG002","numEvents":1,"numAffected":1,"numAtRisk":443},{"groupId":"EG003","numEvents":1,"numAffected":1,"numAtRisk":452}]},{"term":"Liver function test increased","organSystem":"Investigations","sourceVocabulary":"MedDRA (24.1)","assessmentType":"NON_SYSTEMATIC_ASSESSMENT","stats":[{"groupId":"EG000","numEvents":2,"numAffected":2,"numAtRisk":445},{"groupId":"EG001","numEvents":0,"numAffected":0,"numAtRisk":446},{"groupId":"EG002","numEvents":0,"numAffected":0,"numAtRisk":443},{"groupId":"EG003","numEvents":0,"numAffected":0,"numAtRisk":452}]},{"term":"Magnetic resonance imaging abnormal","organSystem":"Investigations","sourceVocabulary":"MedDRA (24.1)","assessmentType":"NON_SYSTEMATIC_ASSESSMENT","stats":[{"groupId":"EG000","numEvents":0,"numAffected":0,"numAtRisk":445},{"groupId":"EG001","numEvents":0,"numAffected":0,"numAtRisk":446},{"groupId":"EG002","numEvents":0,"numAffected":0,"numAtRisk":443},{"groupId":"EG003","numEvents":1,"numAffected":1,"numAtRisk":452}]},{"term":"SARS-CoV-2 test positive","organSystem":"Investigations","sourceVocabulary":"MedDRA (24.1)","assessmentType":"NON_SYSTEMATIC_ASSESSMENT","stats":[{"groupId":"EG000","numEvents":0,"numAffected":0,"numAtRisk":445},{"groupId":"EG001","numEvents":1,"numAffected":1,"numAtRisk":446},{"groupId":"EG002","numEvents":0,"numAffected":0,"numAtRisk":443},{"groupId":"EG003","numEvents":0,"numAffected":0,"numAtRisk":452}]},{"term":"Hyperglycaemia","organSystem":"Metabolism and nutrition disorders","sourceVocabulary":"MedDRA (24.1)","assessmentType":"NON_SYSTEMATIC_ASSESSMENT","stats":[{"groupId":"EG000","numEvents":1,"numAffected":1,"numAtRisk":445},{"groupId":"EG001","numEvents":0,"numAffected":0,"numAtRisk":446},{"groupId":"EG002","numEvents":0,"numAffected":0,"numAtRisk":443},{"groupId":"EG003","numEvents":0,"numAffected":0,"numAtRisk":452}]},{"term":"Hyponatraemia","organSystem":"Metabolism and nutrition disorders","sourceVocabulary":"MedDRA (24.1)","assessmentType":"NON_SYSTEMATIC_ASSESSMENT","stats":[{"groupId":"EG000","numEvents":0,"numAffected":0,"numAtRisk":445},{"groupId":"EG001","numEvents":0,"numAffected":0,"numAtRisk":446},{"groupId":"EG002","numEvents":1,"numAffected":1,"numAtRisk":443},{"groupId":"EG003","numEvents":0,"numAffected":0,"numAtRisk":452}]},{"term":"Back pain","organSystem":"Musculoskeletal and connective tissue disorders","sourceVocabulary":"MedDRA (24.1)","assessmentType":"NON_SYSTEMATIC_ASSESSMENT","stats":[{"groupId":"EG000","numEvents":0,"numAffected":0,"numAtRisk":445},{"groupId":"EG001","numEvents":0,"numAffected":0,"numAtRisk":446},{"groupId":"EG002","numEvents":0,"numAffected":0,"numAtRisk":443},{"groupId":"EG003","numEvents":2,"numAffected":2,"numAtRisk":452}]},{"term":"Osteoporotic fracture","organSystem":"Musculoskeletal and connective tissue disorders","sourceVocabulary":"MedDRA (24.1)","assessmentType":"NON_SYSTEMATIC_ASSESSMENT","stats":[{"groupId":"EG000","numEvents":0,"numAffected":0,"numAtRisk":445},{"groupId":"EG001","numEvents":0,"numAffected":0,"numAtRisk":446},{"groupId":"EG002","numEvents":1,"numAffected":1,"numAtRisk":443},{"groupId":"EG003","numEvents":0,"numAffected":0,"numAtRisk":452}]},{"term":"Pain in extremity","organSystem":"Musculoskeletal and connective tissue disorders","sourceVocabulary":"MedDRA (24.1)","assessmentType":"NON_SYSTEMATIC_ASSESSMENT","stats":[{"groupId":"EG000","numEvents":1,"numAffected":1,"numAtRisk":445},{"groupId":"EG001","numEvents":0,"numAffected":0,"numAtRisk":446},{"groupId":"EG002","numEvents":0,"numAffected":0,"numAtRisk":443},{"groupId":"EG003","numEvents":0,"numAffected":0,"numAtRisk":452}]},{"term":"Tenosynovitis","organSystem":"Musculoskeletal and connective tissue disorders","sourceVocabulary":"MedDRA (24.1)","assessmentType":"NON_SYSTEMATIC_ASSESSMENT","stats":[{"groupId":"EG000","numEvents":1,"numAffected":1,"numAtRisk":445},{"groupId":"EG001","numEvents":0,"numAffected":0,"numAtRisk":446},{"groupId":"EG002","numEvents":0,"numAffected":0,"numAtRisk":443},{"groupId":"EG003","numEvents":0,"numAffected":0,"numAtRisk":452}]},{"term":"Spinal pain","organSystem":"Musculoskeletal and connective tissue disorders","sourceVocabulary":"MedDRA (24.1)","assessmentType":"NON_SYSTEMATIC_ASSESSMENT","stats":[{"groupId":"EG000","numEvents":0,"numAffected":0,"numAtRisk":445},{"groupId":"EG001","numEvents":0,"numAffected":0,"numAtRisk":446},{"groupId":"EG002","numEvents":0,"numAffected":0,"numAtRisk":443},{"groupId":"EG003","numEvents":1,"numAffected":1,"numAtRisk":452}]},{"term":"Endometrial adenocarcinoma","organSystem":"Neoplasms benign, malignant and unspecified (incl cysts and polyps)","sourceVocabulary":"MedDRA (24.1)","assessmentType":"NON_SYSTEMATIC_ASSESSMENT","stats":[{"groupId":"EG000","numEvents":1,"numAffected":1,"numAtRisk":445},{"groupId":"EG001","numEvents":0,"numAffected":0,"numAtRisk":446},{"groupId":"EG002","numEvents":0,"numAffected":0,"numAtRisk":443},{"groupId":"EG003","numEvents":0,"numAffected":0,"numAtRisk":452}]},{"term":"Gastric cancer","organSystem":"Neoplasms benign, malignant and unspecified (incl cysts and polyps)","sourceVocabulary":"MedDRA (24.1)","assessmentType":"NON_SYSTEMATIC_ASSESSMENT","stats":[{"groupId":"EG000","numEvents":0,"numAffected":0,"numAtRisk":445},{"groupId":"EG001","numEvents":1,"numAffected":1,"numAtRisk":446},{"groupId":"EG002","numEvents":0,"numAffected":0,"numAtRisk":443},{"groupId":"EG003","numEvents":0,"numAffected":0,"numAtRisk":452}]},{"term":"Glioblastoma multiforme","organSystem":"Neoplasms benign, malignant and unspecified (incl cysts and polyps)","sourceVocabulary":"MedDRA (24.1)","assessmentType":"NON_SYSTEMATIC_ASSESSMENT","stats":[{"groupId":"EG000","numEvents":1,"numAffected":1,"numAtRisk":445},{"groupId":"EG001","numEvents":0,"numAffected":0,"numAtRisk":446},{"groupId":"EG002","numEvents":0,"numAffected":0,"numAtRisk":443},{"groupId":"EG003","numEvents":0,"numAffected":0,"numAtRisk":452}]},{"term":"Lung adenocarcinoma","organSystem":"Neoplasms benign, malignant and unspecified (incl cysts and polyps)","sourceVocabulary":"MedDRA (24.1)","assessmentType":"NON_SYSTEMATIC_ASSESSMENT","stats":[{"groupId":"EG000","numEvents":0,"numAffected":0,"numAtRisk":445},{"groupId":"EG001","numEvents":0,"numAffected":0,"numAtRisk":446},{"groupId":"EG002","numEvents":1,"numAffected":1,"numAtRisk":443},{"groupId":"EG003","numEvents":0,"numAffected":0,"numAtRisk":452}]},{"term":"Oesophageal adenocarcinoma","organSystem":"Neoplasms benign, malignant and unspecified (incl cysts and polyps)","sourceVocabulary":"MedDRA (24.1)","assessmentType":"NON_SYSTEMATIC_ASSESSMENT","stats":[{"groupId":"EG000","numEvents":0,"numAffected":0,"numAtRisk":445},{"groupId":"EG001","numEvents":0,"numAffected":0,"numAtRisk":446},{"groupId":"EG002","numEvents":0,"numAffected":0,"numAtRisk":443},{"groupId":"EG003","numEvents":1,"numAffected":1,"numAtRisk":452}]},{"term":"Rectal cancer","organSystem":"Neoplasms benign, malignant and unspecified (incl cysts and polyps)","sourceVocabulary":"MedDRA (24.1)","assessmentType":"NON_SYSTEMATIC_ASSESSMENT","stats":[{"groupId":"EG000","numEvents":0,"numAffected":0,"numAtRisk":445},{"groupId":"EG001","numEvents":1,"numAffected":1,"numAtRisk":446},{"groupId":"EG002","numEvents":0,"numAffected":0,"numAtRisk":443},{"groupId":"EG003","numEvents":0,"numAffected":0,"numAtRisk":452}]},{"term":"Lung cancer metastatic","organSystem":"Neoplasms benign, malignant and unspecified (incl cysts and polyps)","sourceVocabulary":"MedDRA (24.1)","assessmentType":"NON_SYSTEMATIC_ASSESSMENT","stats":[{"groupId":"EG000","numEvents":0,"numAffected":0,"numAtRisk":445},{"groupId":"EG001","numEvents":0,"numAffected":0,"numAtRisk":446},{"groupId":"EG002","numEvents":1,"numAffected":1,"numAtRisk":443},{"groupId":"EG003","numEvents":0,"numAffected":0,"numAtRisk":452}]},{"term":"Lung neoplasm malignant","organSystem":"Neoplasms benign, malignant and unspecified (incl cysts and polyps)","sourceVocabulary":"MedDRA (24.1)","assessmentType":"NON_SYSTEMATIC_ASSESSMENT","stats":[{"groupId":"EG000","numEvents":1,"numAffected":1,"numAtRisk":445},{"groupId":"EG001","numEvents":0,"numAffected":0,"numAtRisk":446},{"groupId":"EG002","numEvents":1,"numAffected":1,"numAtRisk":443},{"groupId":"EG003","numEvents":1,"numAffected":1,"numAtRisk":452}]},{"term":"Metastases to central nervous system","organSystem":"Neoplasms benign, malignant and unspecified (incl cysts and polyps)","sourceVocabulary":"MedDRA (24.1)","assessmentType":"NON_SYSTEMATIC_ASSESSMENT","stats":[{"groupId":"EG000","numEvents":0,"numAffected":0,"numAtRisk":445},{"groupId":"EG001","numEvents":0,"numAffected":0,"numAtRisk":446},{"groupId":"EG002","numEvents":1,"numAffected":1,"numAtRisk":443},{"groupId":"EG003","numEvents":0,"numAffected":0,"numAtRisk":452}]},{"term":"Prostate cancer","organSystem":"Neoplasms benign, malignant and unspecified (incl cysts and polyps)","sourceVocabulary":"MedDRA (24.1)","assessmentType":"NON_SYSTEMATIC_ASSESSMENT","stats":[{"groupId":"EG000","numEvents":0,"numAffected":0,"numAtRisk":445},{"groupId":"EG001","numEvents":1,"numAffected":1,"numAtRisk":446},{"groupId":"EG002","numEvents":1,"numAffected":1,"numAtRisk":443},{"groupId":"EG003","numEvents":1,"numAffected":1,"numAtRisk":452}]},{"term":"Brain neoplasm","organSystem":"Neoplasms benign, malignant and unspecified (incl cysts and polyps)","sourceVocabulary":"MedDRA (24.1)","assessmentType":"NON_SYSTEMATIC_ASSESSMENT","stats":[{"groupId":"EG000","numEvents":0,"numAffected":0,"numAtRisk":445},{"groupId":"EG001","numEvents":0,"numAffected":0,"numAtRisk":446},{"groupId":"EG002","numEvents":1,"numAffected":1,"numAtRisk":443},{"groupId":"EG003","numEvents":0,"numAffected":0,"numAtRisk":452}]},{"term":"Thymoma malignant","organSystem":"Neoplasms benign, malignant and unspecified (incl cysts and polyps)","sourceVocabulary":"MedDRA (24.1)","assessmentType":"NON_SYSTEMATIC_ASSESSMENT","stats":[{"groupId":"EG000","numEvents":0,"numAffected":0,"numAtRisk":445},{"groupId":"EG001","numEvents":0,"numAffected":0,"numAtRisk":446},{"groupId":"EG002","numEvents":0,"numAffected":0,"numAtRisk":443},{"groupId":"EG003","numEvents":1,"numAffected":1,"numAtRisk":452}]},{"term":"Colorectal cancer","organSystem":"Neoplasms benign, malignant and unspecified (incl cysts and polyps)","sourceVocabulary":"MedDRA (24.1)","assessmentType":"NON_SYSTEMATIC_ASSESSMENT","stats":[{"groupId":"EG000","numEvents":0,"numAffected":0,"numAtRisk":445},{"groupId":"EG001","numEvents":0,"numAffected":0,"numAtRisk":446},{"groupId":"EG002","numEvents":0,"numAffected":0,"numAtRisk":443},{"groupId":"EG003","numEvents":1,"numAffected":1,"numAtRisk":452}]},{"term":"Lung neoplasm","organSystem":"Neoplasms benign, malignant and unspecified (incl cysts and polyps)","sourceVocabulary":"MedDRA (24.1)","assessmentType":"NON_SYSTEMATIC_ASSESSMENT","stats":[{"groupId":"EG000","numEvents":1,"numAffected":1,"numAtRisk":445},{"groupId":"EG001","numEvents":0,"numAffected":0,"numAtRisk":446},{"groupId":"EG002","numEvents":0,"numAffected":0,"numAtRisk":443},{"groupId":"EG003","numEvents":0,"numAffected":0,"numAtRisk":452}]},{"term":"Metastasis","organSystem":"Neoplasms benign, malignant and unspecified (incl cysts and polyps)","sourceVocabulary":"MedDRA (24.1)","assessmentType":"NON_SYSTEMATIC_ASSESSMENT","stats":[{"groupId":"EG000","numEvents":0,"numAffected":0,"numAtRisk":445},{"groupId":"EG001","numEvents":0,"numAffected":0,"numAtRisk":446},{"groupId":"EG002","numEvents":1,"numAffected":1,"numAtRisk":443},{"groupId":"EG003","numEvents":0,"numAffected":0,"numAtRisk":452}]},{"term":"Invasive ductal breast carcinoma","organSystem":"Neoplasms benign, malignant and unspecified (incl cysts and polyps)","sourceVocabulary":"MedDRA (24.1)","assessmentType":"NON_SYSTEMATIC_ASSESSMENT","stats":[{"groupId":"EG000","numEvents":0,"numAffected":0,"numAtRisk":445},{"groupId":"EG001","numEvents":0,"numAffected":0,"numAtRisk":446},{"groupId":"EG002","numEvents":0,"numAffected":0,"numAtRisk":443},{"groupId":"EG003","numEvents":1,"numAffected":1,"numAtRisk":452}]},{"term":"Amnesia","organSystem":"Nervous system disorders","sourceVocabulary":"MedDRA (24.1)","assessmentType":"NON_SYSTEMATIC_ASSESSMENT","stats":[{"groupId":"EG000","numEvents":1,"numAffected":1,"numAtRisk":445},{"groupId":"EG001","numEvents":0,"numAffected":0,"numAtRisk":446},{"groupId":"EG002","numEvents":0,"numAffected":0,"numAtRisk":443},{"groupId":"EG003","numEvents":0,"numAffected":0,"numAtRisk":452}]},{"term":"Brain stem infarction","organSystem":"Nervous system disorders","sourceVocabulary":"MedDRA (24.1)","assessmentType":"NON_SYSTEMATIC_ASSESSMENT","stats":[{"groupId":"EG000","numEvents":0,"numAffected":0,"numAtRisk":445},{"groupId":"EG001","numEvents":0,"numAffected":0,"numAtRisk":446},{"groupId":"EG002","numEvents":0,"numAffected":0,"numAtRisk":443},{"groupId":"EG003","numEvents":1,"numAffected":1,"numAtRisk":452}]},{"term":"Carotid artery stenosis","organSystem":"Nervous system disorders","sourceVocabulary":"MedDRA (24.1)","assessmentType":"NON_SYSTEMATIC_ASSESSMENT","stats":[{"groupId":"EG000","numEvents":0,"numAffected":0,"numAtRisk":445},{"groupId":"EG001","numEvents":0,"numAffected":0,"numAtRisk":446},{"groupId":"EG002","numEvents":1,"numAffected":1,"numAtRisk":443},{"groupId":"EG003","numEvents":1,"numAffected":1,"numAtRisk":452}]},{"term":"Cerebral artery occlusion","organSystem":"Nervous system disorders","sourceVocabulary":"MedDRA (24.1)","assessmentType":"NON_SYSTEMATIC_ASSESSMENT","stats":[{"groupId":"EG000","numEvents":0,"numAffected":0,"numAtRisk":445},{"groupId":"EG001","numEvents":0,"numAffected":0,"numAtRisk":446},{"groupId":"EG002","numEvents":0,"numAffected":0,"numAtRisk":443},{"groupId":"EG003","numEvents":1,"numAffected":1,"numAtRisk":452}]},{"term":"Cerebral haemorrhage","organSystem":"Nervous system disorders","sourceVocabulary":"MedDRA (24.1)","assessmentType":"NON_SYSTEMATIC_ASSESSMENT","stats":[{"groupId":"EG000","numEvents":0,"numAffected":0,"numAtRisk":445},{"groupId":"EG001","numEvents":0,"numAffected":0,"numAtRisk":446},{"groupId":"EG002","numEvents":2,"numAffected":2,"numAtRisk":443},{"groupId":"EG003","numEvents":0,"numAffected":0,"numAtRisk":452}]},{"term":"Cerebral infarction","organSystem":"Nervous system disorders","sourceVocabulary":"MedDRA (24.1)","assessmentType":"NON_SYSTEMATIC_ASSESSMENT","stats":[{"groupId":"EG000","numEvents":0,"numAffected":0,"numAtRisk":445},{"groupId":"EG001","numEvents":1,"numAffected":1,"numAtRisk":446},{"groupId":"EG002","numEvents":1,"numAffected":1,"numAtRisk":443},{"groupId":"EG003","numEvents":3,"numAffected":3,"numAtRisk":452}]},{"term":"Cerebral ischaemia","organSystem":"Nervous system disorders","sourceVocabulary":"MedDRA (24.1)","assessmentType":"NON_SYSTEMATIC_ASSESSMENT","stats":[{"groupId":"EG000","numEvents":1,"numAffected":1,"numAtRisk":445},{"groupId":"EG001","numEvents":0,"numAffected":0,"numAtRisk":446},{"groupId":"EG002","numEvents":1,"numAffected":1,"numAtRisk":443},{"groupId":"EG003","numEvents":0,"numAffected":0,"numAtRisk":452}]},{"term":"Cerebrovascular accident","organSystem":"Nervous system disorders","sourceVocabulary":"MedDRA (24.1)","assessmentType":"NON_SYSTEMATIC_ASSESSMENT","stats":[{"groupId":"EG000","numEvents":9,"numAffected":9,"numAtRisk":445},{"groupId":"EG001","numEvents":8,"numAffected":8,"numAtRisk":446},{"groupId":"EG002","numEvents":10,"numAffected":9,"numAtRisk":443},{"groupId":"EG003","numEvents":8,"numAffected":7,"numAtRisk":452}]},{"term":"Dizziness","organSystem":"Nervous system disorders","sourceVocabulary":"MedDRA (24.1)","assessmentType":"NON_SYSTEMATIC_ASSESSMENT","stats":[{"groupId":"EG000","numEvents":0,"numAffected":0,"numAtRisk":445},{"groupId":"EG001","numEvents":1,"numAffected":1,"numAtRisk":446},{"groupId":"EG002","numEvents":0,"numAffected":0,"numAtRisk":443},{"groupId":"EG003","numEvents":0,"numAffected":0,"numAtRisk":452}]},{"term":"Epilepsy","organSystem":"Nervous system disorders","sourceVocabulary":"MedDRA (24.1)","assessmentType":"NON_SYSTEMATIC_ASSESSMENT","stats":[{"groupId":"EG000","numEvents":0,"numAffected":0,"numAtRisk":445},{"groupId":"EG001","numEvents":4,"numAffected":4,"numAtRisk":446},{"groupId":"EG002","numEvents":0,"numAffected":0,"numAtRisk":443},{"groupId":"EG003","numEvents":0,"numAffected":0,"numAtRisk":452}]},{"term":"Facial paralysis","organSystem":"Nervous system disorders","sourceVocabulary":"MedDRA (24.1)","assessmentType":"NON_SYSTEMATIC_ASSESSMENT","stats":[{"groupId":"EG000","numEvents":1,"numAffected":1,"numAtRisk":445},{"groupId":"EG001","numEvents":0,"numAffected":0,"numAtRisk":446},{"groupId":"EG002","numEvents":0,"numAffected":0,"numAtRisk":443},{"groupId":"EG003","numEvents":0,"numAffected":0,"numAtRisk":452}]},{"term":"Haemorrhagic cerebral infarction","organSystem":"Nervous system disorders","sourceVocabulary":"MedDRA (24.1)","assessmentType":"NON_SYSTEMATIC_ASSESSMENT","stats":[{"groupId":"EG000","numEvents":1,"numAffected":1,"numAtRisk":445},{"groupId":"EG001","numEvents":0,"numAffected":0,"numAtRisk":446},{"groupId":"EG002","numEvents":0,"numAffected":0,"numAtRisk":443},{"groupId":"EG003","numEvents":0,"numAffected":0,"numAtRisk":452}]},{"term":"Haemorrhagic stroke","organSystem":"Nervous system disorders","sourceVocabulary":"MedDRA (24.1)","assessmentType":"NON_SYSTEMATIC_ASSESSMENT","stats":[{"groupId":"EG000","numEvents":0,"numAffected":0,"numAtRisk":445},{"groupId":"EG001","numEvents":0,"numAffected":0,"numAtRisk":446},{"groupId":"EG002","numEvents":1,"numAffected":1,"numAtRisk":443},{"groupId":"EG003","numEvents":1,"numAffected":1,"numAtRisk":452}]},{"term":"Headache","organSystem":"Nervous system disorders","sourceVocabulary":"MedDRA (24.1)","assessmentType":"NON_SYSTEMATIC_ASSESSMENT","stats":[{"groupId":"EG000","numEvents":1,"numAffected":1,"numAtRisk":445},{"groupId":"EG001","numEvents":1,"numAffected":1,"numAtRisk":446},{"groupId":"EG002","numEvents":1,"numAffected":1,"numAtRisk":443},{"groupId":"EG003","numEvents":0,"numAffected":0,"numAtRisk":452}]},{"term":"Hypertensive encephalopathy","organSystem":"Nervous system disorders","sourceVocabulary":"MedDRA (24.1)","assessmentType":"NON_SYSTEMATIC_ASSESSMENT","stats":[{"groupId":"EG000","numEvents":0,"numAffected":0,"numAtRisk":445},{"groupId":"EG001","numEvents":1,"numAffected":1,"numAtRisk":446},{"groupId":"EG002","numEvents":0,"numAffected":0,"numAtRisk":443},{"groupId":"EG003","numEvents":0,"numAffected":0,"numAtRisk":452}]},{"term":"Myasthenia gravis","organSystem":"Nervous system disorders","sourceVocabulary":"MedDRA (24.1)","assessmentType":"NON_SYSTEMATIC_ASSESSMENT","stats":[{"groupId":"EG000","numEvents":0,"numAffected":0,"numAtRisk":445},{"groupId":"EG001","numEvents":1,"numAffected":1,"numAtRisk":446},{"groupId":"EG002","numEvents":0,"numAffected":0,"numAtRisk":443},{"groupId":"EG003","numEvents":1,"numAffected":1,"numAtRisk":452}]},{"term":"Presyncope","organSystem":"Nervous system disorders","sourceVocabulary":"MedDRA (24.1)","assessmentType":"NON_SYSTEMATIC_ASSESSMENT","stats":[{"groupId":"EG000","numEvents":0,"numAffected":0,"numAtRisk":445},{"groupId":"EG001","numEvents":0,"numAffected":0,"numAtRisk":446},{"groupId":"EG002","numEvents":1,"numAffected":1,"numAtRisk":443},{"groupId":"EG003","numEvents":0,"numAffected":0,"numAtRisk":452}]},{"term":"Radiculopathy","organSystem":"Nervous system disorders","sourceVocabulary":"MedDRA (24.1)","assessmentType":"NON_SYSTEMATIC_ASSESSMENT","stats":[{"groupId":"EG000","numEvents":1,"numAffected":1,"numAtRisk":445},{"groupId":"EG001","numEvents":0,"numAffected":0,"numAtRisk":446},{"groupId":"EG002","numEvents":0,"numAffected":0,"numAtRisk":443},{"groupId":"EG003","numEvents":1,"numAffected":1,"numAtRisk":452}]},{"term":"Syncope","organSystem":"Nervous system disorders","sourceVocabulary":"MedDRA (24.1)","assessmentType":"NON_SYSTEMATIC_ASSESSMENT","stats":[{"groupId":"EG000","numEvents":2,"numAffected":2,"numAtRisk":445},{"groupId":"EG001","numEvents":3,"numAffected":3,"numAtRisk":446},{"groupId":"EG002","numEvents":0,"numAffected":0,"numAtRisk":443},{"groupId":"EG003","numEvents":0,"numAffected":0,"numAtRisk":452}]},{"term":"Transient ischaemic attack","organSystem":"Nervous system disorders","sourceVocabulary":"MedDRA (24.1)","assessmentType":"NON_SYSTEMATIC_ASSESSMENT","stats":[{"groupId":"EG000","numEvents":4,"numAffected":4,"numAtRisk":445},{"groupId":"EG001","numEvents":0,"numAffected":0,"numAtRisk":446},{"groupId":"EG002","numEvents":2,"numAffected":2,"numAtRisk":443},{"groupId":"EG003","numEvents":4,"numAffected":4,"numAtRisk":452}]},{"term":"Lumbar radiculopathy","organSystem":"Nervous system disorders","sourceVocabulary":"MedDRA (24.1)","assessmentType":"NON_SYSTEMATIC_ASSESSMENT","stats":[{"groupId":"EG000","numEvents":0,"numAffected":0,"numAtRisk":445},{"groupId":"EG001","numEvents":0,"numAffected":0,"numAtRisk":446},{"groupId":"EG002","numEvents":0,"numAffected":0,"numAtRisk":443},{"groupId":"EG003","numEvents":1,"numAffected":1,"numAtRisk":452}]},{"term":"Lacunar infarction","organSystem":"Nervous system disorders","sourceVocabulary":"MedDRA (24.1)","assessmentType":"NON_SYSTEMATIC_ASSESSMENT","stats":[{"groupId":"EG000","numEvents":0,"numAffected":0,"numAtRisk":445},{"groupId":"EG001","numEvents":0,"numAffected":0,"numAtRisk":446},{"groupId":"EG002","numEvents":2,"numAffected":1,"numAtRisk":443},{"groupId":"EG003","numEvents":0,"numAffected":0,"numAtRisk":452}]},{"term":"Haemorrhagic transformation stroke","organSystem":"Nervous system disorders","sourceVocabulary":"MedDRA (24.1)","assessmentType":"NON_SYSTEMATIC_ASSESSMENT","stats":[{"groupId":"EG000","numEvents":0,"numAffected":0,"numAtRisk":445},{"groupId":"EG001","numEvents":2,"numAffected":2,"numAtRisk":446},{"groupId":"EG002","numEvents":2,"numAffected":2,"numAtRisk":443},{"groupId":"EG003","numEvents":1,"numAffected":1,"numAtRisk":452}]},{"term":"Stroke in evolution","organSystem":"Nervous system disorders","sourceVocabulary":"MedDRA (24.1)","assessmentType":"NON_SYSTEMATIC_ASSESSMENT","stats":[{"groupId":"EG000","numEvents":3,"numAffected":3,"numAtRisk":445},{"groupId":"EG001","numEvents":4,"numAffected":4,"numAtRisk":446},{"groupId":"EG002","numEvents":2,"numAffected":2,"numAtRisk":443},{"groupId":"EG003","numEvents":3,"numAffected":3,"numAtRisk":452}]},{"term":"Ischaemic cerebral infarction","organSystem":"Nervous system disorders","sourceVocabulary":"MedDRA (24.1)","assessmentType":"NON_SYSTEMATIC_ASSESSMENT","stats":[{"groupId":"EG000","numEvents":0,"numAffected":0,"numAtRisk":445},{"groupId":"EG001","numEvents":0,"numAffected":0,"numAtRisk":446},{"groupId":"EG002","numEvents":0,"numAffected":0,"numAtRisk":443},{"groupId":"EG003","numEvents":1,"numAffected":1,"numAtRisk":452}]},{"term":"Ischaemic stroke","organSystem":"Nervous system disorders","sourceVocabulary":"MedDRA (24.1)","assessmentType":"NON_SYSTEMATIC_ASSESSMENT","stats":[{"groupId":"EG000","numEvents":9,"numAffected":9,"numAtRisk":445},{"groupId":"EG001","numEvents":8,"numAffected":7,"numAtRisk":446},{"groupId":"EG002","numEvents":9,"numAffected":9,"numAtRisk":443},{"groupId":"EG003","numEvents":14,"numAffected":13,"numAtRisk":452}]},{"term":"Motor dysfunction","organSystem":"Nervous system disorders","sourceVocabulary":"MedDRA (24.1)","assessmentType":"NON_SYSTEMATIC_ASSESSMENT","stats":[{"groupId":"EG000","numEvents":0,"numAffected":0,"numAtRisk":445},{"groupId":"EG001","numEvents":0,"numAffected":0,"numAtRisk":446},{"groupId":"EG002","numEvents":0,"numAffected":0,"numAtRisk":443},{"groupId":"EG003","numEvents":1,"numAffected":1,"numAtRisk":452}]},{"term":"Partial seizures","organSystem":"Nervous system disorders","sourceVocabulary":"MedDRA (24.1)","assessmentType":"NON_SYSTEMATIC_ASSESSMENT","stats":[{"groupId":"EG000","numEvents":1,"numAffected":1,"numAtRisk":445},{"groupId":"EG001","numEvents":0,"numAffected":0,"numAtRisk":446},{"groupId":"EG002","numEvents":0,"numAffected":0,"numAtRisk":443},{"groupId":"EG003","numEvents":2,"numAffected":2,"numAtRisk":452}]},{"term":"Cerebral hypoperfusion","organSystem":"Nervous system disorders","sourceVocabulary":"MedDRA (24.1)","assessmentType":"NON_SYSTEMATIC_ASSESSMENT","stats":[{"groupId":"EG000","numEvents":0,"numAffected":0,"numAtRisk":445},{"groupId":"EG001","numEvents":0,"numAffected":0,"numAtRisk":446},{"groupId":"EG002","numEvents":1,"numAffected":1,"numAtRisk":443},{"groupId":"EG003","numEvents":0,"numAffected":0,"numAtRisk":452}]},{"term":"Brachial plexopathy","organSystem":"Nervous system disorders","sourceVocabulary":"MedDRA (24.1)","assessmentType":"NON_SYSTEMATIC_ASSESSMENT","stats":[{"groupId":"EG000","numEvents":0,"numAffected":0,"numAtRisk":445},{"groupId":"EG001","numEvents":1,"numAffected":1,"numAtRisk":446},{"groupId":"EG002","numEvents":0,"numAffected":0,"numAtRisk":443},{"groupId":"EG003","numEvents":0,"numAffected":0,"numAtRisk":452}]},{"term":"Carotid arteriosclerosis","organSystem":"Nervous system disorders","sourceVocabulary":"MedDRA (24.1)","assessmentType":"NON_SYSTEMATIC_ASSESSMENT","stats":[{"groupId":"EG000","numEvents":0,"numAffected":0,"numAtRisk":445},{"groupId":"EG001","numEvents":1,"numAffected":1,"numAtRisk":446},{"groupId":"EG002","numEvents":0,"numAffected":0,"numAtRisk":443},{"groupId":"EG003","numEvents":0,"numAffected":0,"numAtRisk":452}]},{"term":"Thrombotic cerebral infarction","organSystem":"Nervous system disorders","sourceVocabulary":"MedDRA (24.1)","assessmentType":"NON_SYSTEMATIC_ASSESSMENT","stats":[{"groupId":"EG000","numEvents":0,"numAffected":0,"numAtRisk":445},{"groupId":"EG001","numEvents":0,"numAffected":0,"numAtRisk":446},{"groupId":"EG002","numEvents":0,"numAffected":0,"numAtRisk":443},{"groupId":"EG003","numEvents":1,"numAffected":1,"numAtRisk":452}]},{"term":"Cerebral amyloid angiopathy","organSystem":"Nervous system disorders","sourceVocabulary":"MedDRA (24.1)","assessmentType":"NON_SYSTEMATIC_ASSESSMENT","stats":[{"groupId":"EG000","numEvents":0,"numAffected":0,"numAtRisk":445},{"groupId":"EG001","numEvents":0,"numAffected":0,"numAtRisk":446},{"groupId":"EG002","numEvents":1,"numAffected":1,"numAtRisk":443},{"groupId":"EG003","numEvents":0,"numAffected":0,"numAtRisk":452}]},{"term":"Neurological decompensation","organSystem":"Nervous system disorders","sourceVocabulary":"MedDRA (24.1)","assessmentType":"NON_SYSTEMATIC_ASSESSMENT","stats":[{"groupId":"EG000","numEvents":0,"numAffected":0,"numAtRisk":445},{"groupId":"EG001","numEvents":0,"numAffected":0,"numAtRisk":446},{"groupId":"EG002","numEvents":1,"numAffected":1,"numAtRisk":443},{"groupId":"EG003","numEvents":1,"numAffected":1,"numAtRisk":452}]},{"term":"Cerebral small vessel ischaemic disease","organSystem":"Nervous system disorders","sourceVocabulary":"MedDRA (24.1)","assessmentType":"NON_SYSTEMATIC_ASSESSMENT","stats":[{"groupId":"EG000","numEvents":1,"numAffected":1,"numAtRisk":445},{"groupId":"EG001","numEvents":0,"numAffected":0,"numAtRisk":446},{"groupId":"EG002","numEvents":0,"numAffected":0,"numAtRisk":443},{"groupId":"EG003","numEvents":0,"numAffected":0,"numAtRisk":452}]},{"term":"Cerebellar microhaemorrhage","organSystem":"Nervous system disorders","sourceVocabulary":"MedDRA (24.1)","assessmentType":"NON_SYSTEMATIC_ASSESSMENT","stats":[{"groupId":"EG000","numEvents":0,"numAffected":0,"numAtRisk":445},{"groupId":"EG001","numEvents":1,"numAffected":1,"numAtRisk":446},{"groupId":"EG002","numEvents":0,"numAffected":0,"numAtRisk":443},{"groupId":"EG003","numEvents":0,"numAffected":0,"numAtRisk":452}]},{"term":"Lacunar stroke","organSystem":"Nervous system disorders","sourceVocabulary":"MedDRA (24.1)","assessmentType":"NON_SYSTEMATIC_ASSESSMENT","stats":[{"groupId":"EG000","numEvents":0,"numAffected":0,"numAtRisk":445},{"groupId":"EG001","numEvents":1,"numAffected":1,"numAtRisk":446},{"groupId":"EG002","numEvents":0,"numAffected":0,"numAtRisk":443},{"groupId":"EG003","numEvents":0,"numAffected":0,"numAtRisk":452}]},{"term":"Hemianaesthesia","organSystem":"Nervous system disorders","sourceVocabulary":"MedDRA (24.1)","assessmentType":"NON_SYSTEMATIC_ASSESSMENT","stats":[{"groupId":"EG000","numEvents":1,"numAffected":1,"numAtRisk":445},{"groupId":"EG001","numEvents":0,"numAffected":0,"numAtRisk":446},{"groupId":"EG002","numEvents":0,"numAffected":0,"numAtRisk":443},{"groupId":"EG003","numEvents":0,"numAffected":0,"numAtRisk":452}]},{"term":"Alcoholism","organSystem":"Psychiatric disorders","sourceVocabulary":"MedDRA (24.1)","assessmentType":"NON_SYSTEMATIC_ASSESSMENT","stats":[{"groupId":"EG000","numEvents":0,"numAffected":0,"numAtRisk":445},{"groupId":"EG001","numEvents":0,"numAffected":0,"numAtRisk":446},{"groupId":"EG002","numEvents":1,"numAffected":1,"numAtRisk":443},{"groupId":"EG003","numEvents":0,"numAffected":0,"numAtRisk":452}]},{"term":"Conversion disorder","organSystem":"Psychiatric disorders","sourceVocabulary":"MedDRA (24.1)","assessmentType":"NON_SYSTEMATIC_ASSESSMENT","stats":[{"groupId":"EG000","numEvents":1,"numAffected":1,"numAtRisk":445},{"groupId":"EG001","numEvents":0,"numAffected":0,"numAtRisk":446},{"groupId":"EG002","numEvents":0,"numAffected":0,"numAtRisk":443},{"groupId":"EG003","numEvents":0,"numAffected":0,"numAtRisk":452}]},{"term":"Depression","organSystem":"Psychiatric disorders","sourceVocabulary":"MedDRA (24.1)","assessmentType":"NON_SYSTEMATIC_ASSESSMENT","stats":[{"groupId":"EG000","numEvents":2,"numAffected":2,"numAtRisk":445},{"groupId":"EG001","numEvents":0,"numAffected":0,"numAtRisk":446},{"groupId":"EG002","numEvents":0,"numAffected":0,"numAtRisk":443},{"groupId":"EG003","numEvents":0,"numAffected":0,"numAtRisk":452}]},{"term":"Haematuria","organSystem":"Renal and urinary disorders","sourceVocabulary":"MedDRA (24.1)","assessmentType":"NON_SYSTEMATIC_ASSESSMENT","stats":[{"groupId":"EG000","numEvents":1,"numAffected":1,"numAtRisk":445},{"groupId":"EG001","numEvents":0,"numAffected":0,"numAtRisk":446},{"groupId":"EG002","numEvents":0,"numAffected":0,"numAtRisk":443},{"groupId":"EG003","numEvents":1,"numAffected":1,"numAtRisk":452}]},{"term":"Nephrolithiasis","organSystem":"Renal and urinary disorders","sourceVocabulary":"MedDRA (24.1)","assessmentType":"NON_SYSTEMATIC_ASSESSMENT","stats":[{"groupId":"EG000","numEvents":0,"numAffected":0,"numAtRisk":445},{"groupId":"EG001","numEvents":0,"numAffected":0,"numAtRisk":446},{"groupId":"EG002","numEvents":2,"numAffected":1,"numAtRisk":443},{"groupId":"EG003","numEvents":0,"numAffected":0,"numAtRisk":452}]},{"term":"Renal failure","organSystem":"Renal and urinary disorders","sourceVocabulary":"MedDRA (24.1)","assessmentType":"NON_SYSTEMATIC_ASSESSMENT","stats":[{"groupId":"EG000","numEvents":0,"numAffected":0,"numAtRisk":445},{"groupId":"EG001","numEvents":0,"numAffected":0,"numAtRisk":446},{"groupId":"EG002","numEvents":0,"numAffected":0,"numAtRisk":443},{"groupId":"EG003","numEvents":2,"numAffected":2,"numAtRisk":452}]},{"term":"Urinary retention","organSystem":"Renal and urinary disorders","sourceVocabulary":"MedDRA (24.1)","assessmentType":"NON_SYSTEMATIC_ASSESSMENT","stats":[{"groupId":"EG000","numEvents":1,"numAffected":1,"numAtRisk":445},{"groupId":"EG001","numEvents":0,"numAffected":0,"numAtRisk":446},{"groupId":"EG002","numEvents":0,"numAffected":0,"numAtRisk":443},{"groupId":"EG003","numEvents":0,"numAffected":0,"numAtRisk":452}]},{"term":"Acute kidney injury","organSystem":"Renal and urinary disorders","sourceVocabulary":"MedDRA (24.1)","assessmentType":"NON_SYSTEMATIC_ASSESSMENT","stats":[{"groupId":"EG000","numEvents":0,"numAffected":0,"numAtRisk":445},{"groupId":"EG001","numEvents":1,"numAffected":1,"numAtRisk":446},{"groupId":"EG002","numEvents":0,"numAffected":0,"numAtRisk":443},{"groupId":"EG003","numEvents":1,"numAffected":1,"numAtRisk":452}]},{"term":"Cystocele","organSystem":"Reproductive system and breast disorders","sourceVocabulary":"MedDRA (24.1)","assessmentType":"NON_SYSTEMATIC_ASSESSMENT","stats":[{"groupId":"EG000","numEvents":0,"numAffected":0,"numAtRisk":445},{"groupId":"EG001","numEvents":0,"numAffected":0,"numAtRisk":446},{"groupId":"EG002","numEvents":0,"numAffected":0,"numAtRisk":443},{"groupId":"EG003","numEvents":1,"numAffected":1,"numAtRisk":452}]},{"term":"Intermenstrual bleeding","organSystem":"Reproductive system and breast disorders","sourceVocabulary":"MedDRA (24.1)","assessmentType":"NON_SYSTEMATIC_ASSESSMENT","stats":[{"groupId":"EG000","numEvents":1,"numAffected":1,"numAtRisk":445},{"groupId":"EG001","numEvents":0,"numAffected":0,"numAtRisk":446},{"groupId":"EG002","numEvents":0,"numAffected":0,"numAtRisk":443},{"groupId":"EG003","numEvents":0,"numAffected":0,"numAtRisk":452}]},{"term":"Prostatitis","organSystem":"Reproductive system and breast disorders","sourceVocabulary":"MedDRA (24.1)","assessmentType":"NON_SYSTEMATIC_ASSESSMENT","stats":[{"groupId":"EG000","numEvents":0,"numAffected":0,"numAtRisk":445},{"groupId":"EG001","numEvents":0,"numAffected":0,"numAtRisk":446},{"groupId":"EG002","numEvents":1,"numAffected":1,"numAtRisk":443},{"groupId":"EG003","numEvents":0,"numAffected":0,"numAtRisk":452}]},{"term":"Acute respiratory failure","organSystem":"Respiratory, thoracic and mediastinal disorders","sourceVocabulary":"MedDRA (24.1)","assessmentType":"NON_SYSTEMATIC_ASSESSMENT","stats":[{"groupId":"EG000","numEvents":1,"numAffected":1,"numAtRisk":445},{"groupId":"EG001","numEvents":0,"numAffected":0,"numAtRisk":446},{"groupId":"EG002","numEvents":1,"numAffected":1,"numAtRisk":443},{"groupId":"EG003","numEvents":1,"numAffected":1,"numAtRisk":452}]},{"term":"Haemoptysis","organSystem":"Respiratory, thoracic and mediastinal disorders","sourceVocabulary":"MedDRA (24.1)","assessmentType":"NON_SYSTEMATIC_ASSESSMENT","stats":[{"groupId":"EG000","numEvents":0,"numAffected":0,"numAtRisk":445},{"groupId":"EG001","numEvents":1,"numAffected":1,"numAtRisk":446},{"groupId":"EG002","numEvents":0,"numAffected":0,"numAtRisk":443},{"groupId":"EG003","numEvents":0,"numAffected":0,"numAtRisk":452}]},{"term":"Pulmonary embolism","organSystem":"Respiratory, thoracic and mediastinal disorders","sourceVocabulary":"MedDRA (24.1)","assessmentType":"NON_SYSTEMATIC_ASSESSMENT","stats":[{"groupId":"EG000","numEvents":0,"numAffected":0,"numAtRisk":445},{"groupId":"EG001","numEvents":1,"numAffected":1,"numAtRisk":446},{"groupId":"EG002","numEvents":1,"numAffected":1,"numAtRisk":443},{"groupId":"EG003","numEvents":1,"numAffected":1,"numAtRisk":452}]},{"term":"Respiratory distress","organSystem":"Respiratory, thoracic and mediastinal disorders","sourceVocabulary":"MedDRA (24.1)","assessmentType":"NON_SYSTEMATIC_ASSESSMENT","stats":[{"groupId":"EG000","numEvents":0,"numAffected":0,"numAtRisk":445},{"groupId":"EG001","numEvents":1,"numAffected":1,"numAtRisk":446},{"groupId":"EG002","numEvents":0,"numAffected":0,"numAtRisk":443},{"groupId":"EG003","numEvents":0,"numAffected":0,"numAtRisk":452}]},{"term":"Respiratory failure","organSystem":"Respiratory, thoracic and mediastinal disorders","sourceVocabulary":"MedDRA (24.1)","assessmentType":"NON_SYSTEMATIC_ASSESSMENT","stats":[{"groupId":"EG000","numEvents":0,"numAffected":0,"numAtRisk":445},{"groupId":"EG001","numEvents":1,"numAffected":1,"numAtRisk":446},{"groupId":"EG002","numEvents":0,"numAffected":0,"numAtRisk":443},{"groupId":"EG003","numEvents":0,"numAffected":0,"numAtRisk":452}]},{"term":"Sleep apnoea syndrome","organSystem":"Respiratory, thoracic and mediastinal disorders","sourceVocabulary":"MedDRA (24.1)","assessmentType":"NON_SYSTEMATIC_ASSESSMENT","stats":[{"groupId":"EG000","numEvents":1,"numAffected":1,"numAtRisk":445},{"groupId":"EG001","numEvents":0,"numAffected":0,"numAtRisk":446},{"groupId":"EG002","numEvents":1,"numAffected":1,"numAtRisk":443},{"groupId":"EG003","numEvents":0,"numAffected":0,"numAtRisk":452}]},{"term":"Hydrothorax","organSystem":"Respiratory, thoracic and mediastinal disorders","sourceVocabulary":"MedDRA (24.1)","assessmentType":"NON_SYSTEMATIC_ASSESSMENT","stats":[{"groupId":"EG000","numEvents":0,"numAffected":0,"numAtRisk":445},{"groupId":"EG001","numEvents":0,"numAffected":0,"numAtRisk":446},{"groupId":"EG002","numEvents":0,"numAffected":0,"numAtRisk":443},{"groupId":"EG003","numEvents":1,"numAffected":1,"numAtRisk":452}]},{"term":"Angioedema","organSystem":"Skin and subcutaneous tissue disorders","sourceVocabulary":"MedDRA (24.1)","assessmentType":"NON_SYSTEMATIC_ASSESSMENT","stats":[{"groupId":"EG000","numEvents":1,"numAffected":1,"numAtRisk":445},{"groupId":"EG001","numEvents":1,"numAffected":1,"numAtRisk":446},{"groupId":"EG002","numEvents":0,"numAffected":0,"numAtRisk":443},{"groupId":"EG003","numEvents":0,"numAffected":0,"numAtRisk":452}]},{"term":"Decubitus ulcer","organSystem":"Skin and subcutaneous tissue disorders","sourceVocabulary":"MedDRA (24.1)","assessmentType":"NON_SYSTEMATIC_ASSESSMENT","stats":[{"groupId":"EG000","numEvents":1,"numAffected":1,"numAtRisk":445},{"groupId":"EG001","numEvents":0,"numAffected":0,"numAtRisk":446},{"groupId":"EG002","numEvents":0,"numAffected":0,"numAtRisk":443},{"groupId":"EG003","numEvents":0,"numAffected":0,"numAtRisk":452}]},{"term":"Skin ulcer","organSystem":"Skin and subcutaneous tissue disorders","sourceVocabulary":"MedDRA (24.1)","assessmentType":"NON_SYSTEMATIC_ASSESSMENT","stats":[{"groupId":"EG000","numEvents":0,"numAffected":0,"numAtRisk":445},{"groupId":"EG001","numEvents":0,"numAffected":0,"numAtRisk":446},{"groupId":"EG002","numEvents":1,"numAffected":1,"numAtRisk":443},{"groupId":"EG003","numEvents":0,"numAffected":0,"numAtRisk":452}]},{"term":"Urticaria","organSystem":"Skin and subcutaneous tissue disorders","sourceVocabulary":"MedDRA (24.1)","assessmentType":"NON_SYSTEMATIC_ASSESSMENT","stats":[{"groupId":"EG000","numEvents":1,"numAffected":1,"numAtRisk":445},{"groupId":"EG001","numEvents":0,"numAffected":0,"numAtRisk":446},{"groupId":"EG002","numEvents":0,"numAffected":0,"numAtRisk":443},{"groupId":"EG003","numEvents":0,"numAffected":0,"numAtRisk":452}]},{"term":"Skin toxicity","organSystem":"Skin and subcutaneous tissue disorders","sourceVocabulary":"MedDRA (24.1)","assessmentType":"NON_SYSTEMATIC_ASSESSMENT","stats":[{"groupId":"EG000","numEvents":0,"numAffected":0,"numAtRisk":445},{"groupId":"EG001","numEvents":1,"numAffected":1,"numAtRisk":446},{"groupId":"EG002","numEvents":0,"numAffected":0,"numAtRisk":443},{"groupId":"EG003","numEvents":0,"numAffected":0,"numAtRisk":452}]},{"term":"Atrial septal defect repair","organSystem":"Surgical and medical procedures","sourceVocabulary":"MedDRA (24.1)","assessmentType":"NON_SYSTEMATIC_ASSESSMENT","stats":[{"groupId":"EG000","numEvents":5,"numAffected":5,"numAtRisk":445},{"groupId":"EG001","numEvents":3,"numAffected":3,"numAtRisk":446},{"groupId":"EG002","numEvents":3,"numAffected":3,"numAtRisk":443},{"groupId":"EG003","numEvents":1,"numAffected":1,"numAtRisk":452}]},{"term":"Cardiac pacemaker insertion","organSystem":"Surgical and medical procedures","sourceVocabulary":"MedDRA (24.1)","assessmentType":"NON_SYSTEMATIC_ASSESSMENT","stats":[{"groupId":"EG000","numEvents":2,"numAffected":2,"numAtRisk":445},{"groupId":"EG001","numEvents":1,"numAffected":1,"numAtRisk":446},{"groupId":"EG002","numEvents":0,"numAffected":0,"numAtRisk":443},{"groupId":"EG003","numEvents":0,"numAffected":0,"numAtRisk":452}]},{"term":"Carotid endarterectomy","organSystem":"Surgical and medical procedures","sourceVocabulary":"MedDRA (24.1)","assessmentType":"NON_SYSTEMATIC_ASSESSMENT","stats":[{"groupId":"EG000","numEvents":0,"numAffected":0,"numAtRisk":445},{"groupId":"EG001","numEvents":0,"numAffected":0,"numAtRisk":446},{"groupId":"EG002","numEvents":0,"numAffected":0,"numAtRisk":443},{"groupId":"EG003","numEvents":1,"numAffected":1,"numAtRisk":452}]},{"term":"Cholecystectomy","organSystem":"Surgical and medical procedures","sourceVocabulary":"MedDRA (24.1)","assessmentType":"NON_SYSTEMATIC_ASSESSMENT","stats":[{"groupId":"EG000","numEvents":0,"numAffected":0,"numAtRisk":445},{"groupId":"EG001","numEvents":0,"numAffected":0,"numAtRisk":446},{"groupId":"EG002","numEvents":1,"numAffected":1,"numAtRisk":443},{"groupId":"EG003","numEvents":0,"numAffected":0,"numAtRisk":452}]},{"term":"Coronary artery bypass","organSystem":"Surgical and medical procedures","sourceVocabulary":"MedDRA (24.1)","assessmentType":"NON_SYSTEMATIC_ASSESSMENT","stats":[{"groupId":"EG000","numEvents":0,"numAffected":0,"numAtRisk":445},{"groupId":"EG001","numEvents":0,"numAffected":0,"numAtRisk":446},{"groupId":"EG002","numEvents":0,"numAffected":0,"numAtRisk":443},{"groupId":"EG003","numEvents":1,"numAffected":1,"numAtRisk":452}]},{"term":"Endarterectomy","organSystem":"Surgical and medical procedures","sourceVocabulary":"MedDRA (24.1)","assessmentType":"NON_SYSTEMATIC_ASSESSMENT","stats":[{"groupId":"EG000","numEvents":0,"numAffected":0,"numAtRisk":445},{"groupId":"EG001","numEvents":0,"numAffected":0,"numAtRisk":446},{"groupId":"EG002","numEvents":1,"numAffected":1,"numAtRisk":443},{"groupId":"EG003","numEvents":0,"numAffected":0,"numAtRisk":452}]},{"term":"Hip arthroplasty","organSystem":"Surgical and medical procedures","sourceVocabulary":"MedDRA (24.1)","assessmentType":"NON_SYSTEMATIC_ASSESSMENT","stats":[{"groupId":"EG000","numEvents":0,"numAffected":0,"numAtRisk":445},{"groupId":"EG001","numEvents":0,"numAffected":0,"numAtRisk":446},{"groupId":"EG002","numEvents":0,"numAffected":0,"numAtRisk":443},{"groupId":"EG003","numEvents":1,"numAffected":1,"numAtRisk":452}]},{"term":"Knee arthroplasty","organSystem":"Surgical and medical procedures","sourceVocabulary":"MedDRA (24.1)","assessmentType":"NON_SYSTEMATIC_ASSESSMENT","stats":[{"groupId":"EG000","numEvents":0,"numAffected":0,"numAtRisk":445},{"groupId":"EG001","numEvents":0,"numAffected":0,"numAtRisk":446},{"groupId":"EG002","numEvents":0,"numAffected":0,"numAtRisk":443},{"groupId":"EG003","numEvents":1,"numAffected":1,"numAtRisk":452}]},{"term":"Spinal decompression","organSystem":"Surgical and medical procedures","sourceVocabulary":"MedDRA (24.1)","assessmentType":"NON_SYSTEMATIC_ASSESSMENT","stats":[{"groupId":"EG000","numEvents":0,"numAffected":0,"numAtRisk":445},{"groupId":"EG001","numEvents":0,"numAffected":0,"numAtRisk":446},{"groupId":"EG002","numEvents":0,"numAffected":0,"numAtRisk":443},{"groupId":"EG003","numEvents":1,"numAffected":1,"numAtRisk":452}]},{"term":"Stent placement","organSystem":"Surgical and medical procedures","sourceVocabulary":"MedDRA (24.1)","assessmentType":"NON_SYSTEMATIC_ASSESSMENT","stats":[{"groupId":"EG000","numEvents":0,"numAffected":0,"numAtRisk":445},{"groupId":"EG001","numEvents":2,"numAffected":1,"numAtRisk":446},{"groupId":"EG002","numEvents":0,"numAffected":0,"numAtRisk":443},{"groupId":"EG003","numEvents":0,"numAffected":0,"numAtRisk":452}]},{"term":"Implantable defibrillator insertion","organSystem":"Surgical and medical procedures","sourceVocabulary":"MedDRA (24.1)","assessmentType":"NON_SYSTEMATIC_ASSESSMENT","stats":[{"groupId":"EG000","numEvents":0,"numAffected":0,"numAtRisk":445},{"groupId":"EG001","numEvents":1,"numAffected":1,"numAtRisk":446},{"groupId":"EG002","numEvents":0,"numAffected":0,"numAtRisk":443},{"groupId":"EG003","numEvents":0,"numAffected":0,"numAtRisk":452}]},{"term":"Shoulder arthroplasty","organSystem":"Surgical and medical procedures","sourceVocabulary":"MedDRA (24.1)","assessmentType":"NON_SYSTEMATIC_ASSESSMENT","stats":[{"groupId":"EG000","numEvents":0,"numAffected":0,"numAtRisk":445},{"groupId":"EG001","numEvents":1,"numAffected":1,"numAtRisk":446},{"groupId":"EG002","numEvents":0,"numAffected":0,"numAtRisk":443},{"groupId":"EG003","numEvents":0,"numAffected":0,"numAtRisk":452}]},{"term":"Coronary angioplasty","organSystem":"Surgical and medical procedures","sourceVocabulary":"MedDRA (24.1)","assessmentType":"NON_SYSTEMATIC_ASSESSMENT","stats":[{"groupId":"EG000","numEvents":0,"numAffected":0,"numAtRisk":445},{"groupId":"EG001","numEvents":0,"numAffected":0,"numAtRisk":446},{"groupId":"EG002","numEvents":1,"numAffected":1,"numAtRisk":443},{"groupId":"EG003","numEvents":0,"numAffected":0,"numAtRisk":452}]},{"term":"Coronary arterial stent insertion","organSystem":"Surgical and medical procedures","sourceVocabulary":"MedDRA (24.1)","assessmentType":"NON_SYSTEMATIC_ASSESSMENT","stats":[{"groupId":"EG000","numEvents":0,"numAffected":0,"numAtRisk":445},{"groupId":"EG001","numEvents":0,"numAffected":0,"numAtRisk":446},{"groupId":"EG002","numEvents":0,"numAffected":0,"numAtRisk":443},{"groupId":"EG003","numEvents":1,"numAffected":1,"numAtRisk":452}]},{"term":"Aortic bypass","organSystem":"Surgical and medical procedures","sourceVocabulary":"MedDRA (24.1)","assessmentType":"NON_SYSTEMATIC_ASSESSMENT","stats":[{"groupId":"EG000","numEvents":0,"numAffected":0,"numAtRisk":445},{"groupId":"EG001","numEvents":1,"numAffected":1,"numAtRisk":446},{"groupId":"EG002","numEvents":0,"numAffected":0,"numAtRisk":443},{"groupId":"EG003","numEvents":0,"numAffected":0,"numAtRisk":452}]},{"term":"Bladder polypectomy","organSystem":"Surgical and medical procedures","sourceVocabulary":"MedDRA (24.1)","assessmentType":"NON_SYSTEMATIC_ASSESSMENT","stats":[{"groupId":"EG000","numEvents":0,"numAffected":0,"numAtRisk":445},{"groupId":"EG001","numEvents":1,"numAffected":1,"numAtRisk":446},{"groupId":"EG002","numEvents":0,"numAffected":0,"numAtRisk":443},{"groupId":"EG003","numEvents":0,"numAffected":0,"numAtRisk":452}]},{"term":"Bladder neoplasm surgery","organSystem":"Surgical and medical procedures","sourceVocabulary":"MedDRA (24.1)","assessmentType":"NON_SYSTEMATIC_ASSESSMENT","stats":[{"groupId":"EG000","numEvents":0,"numAffected":0,"numAtRisk":445},{"groupId":"EG001","numEvents":1,"numAffected":1,"numAtRisk":446},{"groupId":"EG002","numEvents":0,"numAffected":0,"numAtRisk":443},{"groupId":"EG003","numEvents":0,"numAffected":0,"numAtRisk":452}]},{"term":"Carotid artery stent insertion","organSystem":"Surgical and medical procedures","sourceVocabulary":"MedDRA (24.1)","assessmentType":"NON_SYSTEMATIC_ASSESSMENT","stats":[{"groupId":"EG000","numEvents":1,"numAffected":1,"numAtRisk":445},{"groupId":"EG001","numEvents":1,"numAffected":1,"numAtRisk":446},{"groupId":"EG002","numEvents":0,"numAffected":0,"numAtRisk":443},{"groupId":"EG003","numEvents":0,"numAffected":0,"numAtRisk":452}]},{"term":"Transcatheter aortic valve implantation","organSystem":"Surgical and medical procedures","sourceVocabulary":"MedDRA (24.1)","assessmentType":"NON_SYSTEMATIC_ASSESSMENT","stats":[{"groupId":"EG000","numEvents":0,"numAffected":0,"numAtRisk":445},{"groupId":"EG001","numEvents":1,"numAffected":1,"numAtRisk":446},{"groupId":"EG002","numEvents":0,"numAffected":0,"numAtRisk":443},{"groupId":"EG003","numEvents":0,"numAffected":0,"numAtRisk":452}]},{"term":"Vocal cord augmentation","organSystem":"Surgical and medical procedures","sourceVocabulary":"MedDRA (24.1)","assessmentType":"NON_SYSTEMATIC_ASSESSMENT","stats":[{"groupId":"EG000","numEvents":0,"numAffected":0,"numAtRisk":445},{"groupId":"EG001","numEvents":0,"numAffected":0,"numAtRisk":446},{"groupId":"EG002","numEvents":1,"numAffected":1,"numAtRisk":443},{"groupId":"EG003","numEvents":0,"numAffected":0,"numAtRisk":452}]},{"term":"Aortic thrombosis","organSystem":"Vascular disorders","sourceVocabulary":"MedDRA (24.1)","assessmentType":"NON_SYSTEMATIC_ASSESSMENT","stats":[{"groupId":"EG000","numEvents":1,"numAffected":1,"numAtRisk":445},{"groupId":"EG001","numEvents":0,"numAffected":0,"numAtRisk":446},{"groupId":"EG002","numEvents":0,"numAffected":0,"numAtRisk":443},{"groupId":"EG003","numEvents":0,"numAffected":0,"numAtRisk":452}]},{"term":"Hypertension","organSystem":"Vascular disorders","sourceVocabulary":"MedDRA (24.1)","assessmentType":"NON_SYSTEMATIC_ASSESSMENT","stats":[{"groupId":"EG000","numEvents":0,"numAffected":0,"numAtRisk":445},{"groupId":"EG001","numEvents":0,"numAffected":0,"numAtRisk":446},{"groupId":"EG002","numEvents":2,"numAffected":2,"numAtRisk":443},{"groupId":"EG003","numEvents":0,"numAffected":0,"numAtRisk":452}]},{"term":"Hypertensive crisis","organSystem":"Vascular disorders","sourceVocabulary":"MedDRA (24.1)","assessmentType":"NON_SYSTEMATIC_ASSESSMENT","stats":[{"groupId":"EG000","numEvents":0,"numAffected":0,"numAtRisk":445},{"groupId":"EG001","numEvents":1,"numAffected":1,"numAtRisk":446},{"groupId":"EG002","numEvents":0,"numAffected":0,"numAtRisk":443},{"groupId":"EG003","numEvents":0,"numAffected":0,"numAtRisk":452}]},{"term":"Peripheral ischaemia","organSystem":"Vascular disorders","sourceVocabulary":"MedDRA (24.1)","assessmentType":"NON_SYSTEMATIC_ASSESSMENT","stats":[{"groupId":"EG000","numEvents":0,"numAffected":0,"numAtRisk":445},{"groupId":"EG001","numEvents":0,"numAffected":0,"numAtRisk":446},{"groupId":"EG002","numEvents":0,"numAffected":0,"numAtRisk":443},{"groupId":"EG003","numEvents":1,"numAffected":1,"numAtRisk":452}]},{"term":"Thrombophlebitis","organSystem":"Vascular disorders","sourceVocabulary":"MedDRA (24.1)","assessmentType":"NON_SYSTEMATIC_ASSESSMENT","stats":[{"groupId":"EG000","numEvents":0,"numAffected":0,"numAtRisk":445},{"groupId":"EG001","numEvents":0,"numAffected":0,"numAtRisk":446},{"groupId":"EG002","numEvents":0,"numAffected":0,"numAtRisk":443},{"groupId":"EG003","numEvents":1,"numAffected":1,"numAtRisk":452}]},{"term":"Venous thrombosis","organSystem":"Vascular disorders","sourceVocabulary":"MedDRA (24.1)","assessmentType":"NON_SYSTEMATIC_ASSESSMENT","stats":[{"groupId":"EG000","numEvents":0,"numAffected":0,"numAtRisk":445},{"groupId":"EG001","numEvents":0,"numAffected":0,"numAtRisk":446},{"groupId":"EG002","numEvents":0,"numAffected":0,"numAtRisk":443},{"groupId":"EG003","numEvents":1,"numAffected":1,"numAtRisk":452}]},{"term":"Deep vein thrombosis","organSystem":"Vascular disorders","sourceVocabulary":"MedDRA (24.1)","assessmentType":"NON_SYSTEMATIC_ASSESSMENT","stats":[{"groupId":"EG000","numEvents":0,"numAffected":0,"numAtRisk":445},{"groupId":"EG001","numEvents":1,"numAffected":1,"numAtRisk":446},{"groupId":"EG002","numEvents":1,"numAffected":1,"numAtRisk":443},{"groupId":"EG003","numEvents":0,"numAffected":0,"numAtRisk":452}]},{"term":"Extremity necrosis","organSystem":"Vascular disorders","sourceVocabulary":"MedDRA (24.1)","assessmentType":"NON_SYSTEMATIC_ASSESSMENT","stats":[{"groupId":"EG000","numEvents":1,"numAffected":1,"numAtRisk":445},{"groupId":"EG001","numEvents":0,"numAffected":0,"numAtRisk":446},{"groupId":"EG002","numEvents":0,"numAffected":0,"numAtRisk":443},{"groupId":"EG003","numEvents":0,"numAffected":0,"numAtRisk":452}]},{"term":"Atheroembolism","organSystem":"Vascular disorders","sourceVocabulary":"MedDRA (24.1)","assessmentType":"NON_SYSTEMATIC_ASSESSMENT","stats":[{"groupId":"EG000","numEvents":0,"numAffected":0,"numAtRisk":445},{"groupId":"EG001","numEvents":0,"numAffected":0,"numAtRisk":446},{"groupId":"EG002","numEvents":0,"numAffected":0,"numAtRisk":443},{"groupId":"EG003","numEvents":1,"numAffected":1,"numAtRisk":452}]}],"otherEvents":[{"term":"Atrial fibrillation","organSystem":"Cardiac disorders","sourceVocabulary":"MedDRA (24.1)","assessmentType":"NON_SYSTEMATIC_ASSESSMENT","stats":[{"groupId":"EG000","numEvents":18,"numAffected":18,"numAtRisk":445},{"groupId":"EG001","numEvents":21,"numAffected":21,"numAtRisk":446},{"groupId":"EG002","numEvents":16,"numAffected":16,"numAtRisk":443},{"groupId":"EG003","numEvents":22,"numAffected":22,"numAtRisk":452}]},{"term":"Constipation","organSystem":"Gastrointestinal disorders","sourceVocabulary":"MedDRA (24.1)","assessmentType":"NON_SYSTEMATIC_ASSESSMENT","stats":[{"groupId":"EG000","numEvents":29,"numAffected":28,"numAtRisk":445},{"groupId":"EG001","numEvents":20,"numAffected":18,"numAtRisk":446},{"groupId":"EG002","numEvents":29,"numAffected":28,"numAtRisk":443},{"groupId":"EG003","numEvents":35,"numAffected":34,"numAtRisk":452}]},{"term":"Diarrhoea","organSystem":"Gastrointestinal disorders","sourceVocabulary":"MedDRA (24.1)","assessmentType":"NON_SYSTEMATIC_ASSESSMENT","stats":[{"groupId":"EG000","numEvents":12,"numAffected":12,"numAtRisk":445},{"groupId":"EG001","numEvents":15,"numAffected":14,"numAtRisk":446},{"groupId":"EG002","numEvents":18,"numAffected":15,"numAtRisk":443},{"groupId":"EG003","numEvents":12,"numAffected":12,"numAtRisk":452}]},{"term":"Urinary tract infection","organSystem":"Infections and infestations","sourceVocabulary":"MedDRA (24.1)","assessmentType":"NON_SYSTEMATIC_ASSESSMENT","stats":[{"groupId":"EG000","numEvents":15,"numAffected":13,"numAtRisk":445},{"groupId":"EG001","numEvents":11,"numAffected":11,"numAtRisk":446},{"groupId":"EG002","numEvents":14,"numAffected":13,"numAtRisk":443},{"groupId":"EG003","numEvents":18,"numAffected":14,"numAtRisk":452}]},{"term":"COVID-19","organSystem":"Infections and infestations","sourceVocabulary":"MedDRA (24.1)","assessmentType":"NON_SYSTEMATIC_ASSESSMENT","stats":[{"groupId":"EG000","numEvents":22,"numAffected":22,"numAtRisk":445},{"groupId":"EG001","numEvents":14,"numAffected":14,"numAtRisk":446},{"groupId":"EG002","numEvents":14,"numAffected":14,"numAtRisk":443},{"groupId":"EG003","numEvents":12,"numAffected":12,"numAtRisk":452}]},{"term":"Arthralgia","organSystem":"Musculoskeletal and connective tissue disorders","sourceVocabulary":"MedDRA (24.1)","assessmentType":"NON_SYSTEMATIC_ASSESSMENT","stats":[{"groupId":"EG000","numEvents":11,"numAffected":11,"numAtRisk":445},{"groupId":"EG001","numEvents":13,"numAffected":11,"numAtRisk":446},{"groupId":"EG002","numEvents":16,"numAffected":16,"numAtRisk":443},{"groupId":"EG003","numEvents":12,"numAffected":12,"numAtRisk":452}]},{"term":"Dizziness","organSystem":"Nervous system disorders","sourceVocabulary":"MedDRA (24.1)","assessmentType":"NON_SYSTEMATIC_ASSESSMENT","stats":[{"groupId":"EG000","numEvents":7,"numAffected":7,"numAtRisk":445},{"groupId":"EG001","numEvents":18,"numAffected":16,"numAtRisk":446},{"groupId":"EG002","numEvents":17,"numAffected":17,"numAtRisk":443},{"groupId":"EG003","numEvents":14,"numAffected":14,"numAtRisk":452}]},{"term":"Headache","organSystem":"Nervous system disorders","sourceVocabulary":"MedDRA (24.1)","assessmentType":"NON_SYSTEMATIC_ASSESSMENT","stats":[{"groupId":"EG000","numEvents":20,"numAffected":19,"numAtRisk":445},{"groupId":"EG001","numEvents":38,"numAffected":19,"numAtRisk":446},{"groupId":"EG002","numEvents":31,"numAffected":21,"numAtRisk":443},{"groupId":"EG003","numEvents":19,"numAffected":18,"numAtRisk":452}]},{"term":"Insomnia","organSystem":"Psychiatric disorders","sourceVocabulary":"MedDRA (24.1)","assessmentType":"NON_SYSTEMATIC_ASSESSMENT","stats":[{"groupId":"EG000","numEvents":6,"numAffected":6,"numAtRisk":445},{"groupId":"EG001","numEvents":16,"numAffected":16,"numAtRisk":446},{"groupId":"EG002","numEvents":12,"numAffected":11,"numAtRisk":443},{"groupId":"EG003","numEvents":13,"numAffected":12,"numAtRisk":452}]},{"term":"Hypertension","organSystem":"Vascular disorders","sourceVocabulary":"MedDRA (24.1)","assessmentType":"NON_SYSTEMATIC_ASSESSMENT","stats":[{"groupId":"EG000","numEvents":24,"numAffected":23,"numAtRisk":445},{"groupId":"EG001","numEvents":19,"numAffected":19,"numAtRisk":446},{"groupId":"EG002","numEvents":25,"numAffected":25,"numAtRisk":443},{"groupId":"EG003","numEvents":25,"numAffected":24,"numAtRisk":452}]}]},"moreInfoModule":{"certainAgreement":{"piSponsorEmployee":false,"restrictionType":"OTHER","restrictiveAgreement":true,"otherDetails":"PI prohibited from publishing results for 18 months following completion of the study at all sites. Sponsor can review results communications prior to public release and can embargo communications regarding trial results for a period that is more than 60 days but less than or equal to 180 days from the time submitted to the sponsor for review."},"pointOfContact":{"title":"Therapeutic Area Head","organization":"Bayer AG","email":"clinical-trials-contact@bayer.com","phone":"(+) 1-888-8422937"}}},"documentSection":{"largeDocumentModule":{"largeDocs":[{"typeAbbrev":"Prot","hasProtocol":true,"hasSap":false,"hasIcf":false,"label":"Study Protocol","date":"2019-10-24","uploadDate":"2023-02-15T07:22","filename":"Prot_000.pdf","size":3286795},{"typeAbbrev":"SAP","hasProtocol":false,"hasSap":true,"hasIcf":false,"label":"Statistical Analysis Plan","date":"2022-01-26","uploadDate":"2023-02-15T07:22","filename":"SAP_001.pdf","size":1147716}]}},"derivedSection":{"miscInfoModule":{"versionHolder":"2024-02-14","removedCountries":["Canada"],"submissionTracking":{"firstMcpInfo":{"postDateStruct":{"date":"2023-03-14","type":"ACTUAL"}}}},"conditionBrowseModule":{"meshes":[{"id":"D000020521","term":"Stroke"},{"id":"D000083242","term":"Ischemic Stroke"},{"id":"D000002544","term":"Cerebral Infarction"},{"id":"D000007511","term":"Ischemia"}],"ancestors":[{"id":"D000002561","term":"Cerebrovascular Disorders"},{"id":"D000001927","term":"Brain Diseases"},{"id":"D000002493","term":"Central Nervous System Diseases"},{"id":"D000009422","term":"Nervous System Diseases"},{"id":"D000014652","term":"Vascular Diseases"},{"id":"D000002318","term":"Cardiovascular Diseases"},{"id":"D000010335","term":"Pathologic Processes"},{"id":"D000020520","term":"Brain Infarction"},{"id":"D000002545","term":"Brain Ischemia"},{"id":"D000007238","term":"Infarction"},{"id":"D000009336","term":"Necrosis"}],"browseLeaves":[{"id":"M21996","name":"Stroke","asFound":"Stroke","relevance":"HIGH"},{"id":"M16376","name":"Thrombosis","relevance":"LOW"},{"id":"M10233","name":"Ischemia","asFound":"Ischemic","relevance":"HIGH"},{"id":"M2401","name":"Ischemic Stroke","asFound":"Ischemic Stroke","relevance":"HIGH"},{"id":"M9972","name":"Infarction","relevance":"LOW"},{"id":"M5483","name":"Cerebral Infarction","asFound":"Ischemic Stroke","relevance":"HIGH"},{"id":"M5500","name":"Cerebrovascular Disorders","relevance":"LOW"},{"id":"M4894","name":"Brain Diseases","relevance":"LOW"},{"id":"M5432","name":"Central Nervous System Diseases","relevance":"LOW"},{"id":"M17090","name":"Vascular Diseases","relevance":"LOW"},{"id":"M21995","name":"Brain Infarction","relevance":"LOW"},{"id":"M5484","name":"Brain Ischemia","relevance":"LOW"},{"id":"M11974","name":"Necrosis","relevance":"LOW"},{"id":"T170","name":"Acute Graft Versus Host Disease","relevance":"LOW"}],"browseBranches":[{"abbrev":"BC10","name":"Nervous System Diseases"},{"abbrev":"BC14","name":"Heart and Blood Diseases"},{"abbrev":"All","name":"All Conditions"},{"abbrev":"BC23","name":"Symptoms and General Pathology"},{"abbrev":"Rare","name":"Rare Diseases"}]}},"hasResults":true}