{"protocolSection":{"identificationModule":{"nctId":"NCT04435626","orgStudyIdInfo":{"id":"20103"},"secondaryIdInfos":[{"id":"2020-000306-29","type":"EUDRACT_NUMBER"}],"organization":{"fullName":"Bayer","class":"INDUSTRY"},"briefTitle":"Study to Evaluate the Efficacy (Effect on Disease) and Safety of Finerenone on Morbidity (Events Indicating Disease Worsening) & Mortality (Death Rate) in Participants With Heart Failure and Left Ventricular Ejection Fraction (Proportion of Blood Expelled Per Heart Stroke) Greater or Equal to 40%","officialTitle":"A Multicenter, Randomized, Double-blind, Parallel-group, Placebo-controlled Study to Evaluate the Efficacy and Safety of Finerenone on Morbidity and Mortality in Participants With Heart Failure (NYHA II-IV) and Left Ventricular Ejection Fraction ≥ 40% (LVEF ≥ 40%)","acronym":"FINEARTS-HF"},"statusModule":{"statusVerifiedDate":"2024-01","overallStatus":"ACTIVE_NOT_RECRUITING","expandedAccessInfo":{"hasExpandedAccess":false},"startDateStruct":{"date":"2020-09-14","type":"ACTUAL"},"primaryCompletionDateStruct":{"date":"2024-05-15","type":"ESTIMATED"},"completionDateStruct":{"date":"2024-06-19","type":"ESTIMATED"},"studyFirstSubmitDate":"2020-06-15","studyFirstSubmitQcDate":"2020-06-15","studyFirstPostDateStruct":{"date":"2020-06-17","type":"ACTUAL"},"lastUpdateSubmitDate":"2024-01-07","lastUpdatePostDateStruct":{"date":"2024-01-09","type":"ACTUAL"}},"sponsorCollaboratorsModule":{"responsibleParty":{"type":"SPONSOR"},"leadSponsor":{"name":"Bayer","class":"INDUSTRY"}},"oversightModule":{"oversightHasDmc":true,"isFdaRegulatedDrug":true,"isFdaRegulatedDevice":false},"descriptionModule":{"briefSummary":"The purpose of this study is to evaluate the effect of finerenone compared to placebo (a tablet without active substance) in the reduction of cardiovascular death (generally meaning death due to disease of the heart or blood vessels) and total Heart Failure (HF) events, including HF hospitalization and urgent visits for HF(generally meaning a hospital stay or urgent presentation to a healthcare unit due to worsening symptoms of heart failure) in patients suffering from HF with an ejection fraction greater than or equal to 40%. Researchers will also collect information on how much the heart disease has impact on patient's lives, change of kidney function, and how well finerenone treatment is tolerated. The study plans to enroll 6000 male and female patients of the age of 40 years and above suffering from heart failure with ejection fraction greater than or equal to 40%. Participants will take the study product as oral tablet with a dose between 0 (Placebo) 40 mg once daily. Study duration will be up to 43 months."},"conditionsModule":{"conditions":["Heart Failure"],"keywords":["Heart Failure with Preserved Ejection Fraction,","Mineralocorticoid receptor antagonist (MRA)"]},"designModule":{"studyType":"INTERVENTIONAL","phases":["PHASE3"],"designInfo":{"allocation":"RANDOMIZED","interventionModel":"PARALLEL","primaryPurpose":"TREATMENT","maskingInfo":{"masking":"QUADRUPLE","whoMasked":["PARTICIPANT","CARE_PROVIDER","INVESTIGATOR","OUTCOMES_ASSESSOR"]}},"enrollmentInfo":{"count":6016,"type":"ACTUAL"}},"armsInterventionsModule":{"armGroups":[{"label":"Arm 1_BAY94-8862","type":"EXPERIMENTAL","description":"Adult patients receive BAY94-8862","interventionNames":["Drug: Finerenone (BAY94-8862)"]},{"label":"Arm 2_Placebo","type":"PLACEBO_COMPARATOR","description":"Adult patients receive placebo","interventionNames":["Other: Placebo"]}],"interventions":[{"type":"DRUG","name":"Finerenone (BAY94-8862)","description":"For participants with an eGFR ≤60 mL/min/1.73 m\\^2: Starting dose is 10 mg OD and maximum dose 20 mg OD.\n\nFor participants with an eGFR \\>60 mL/min/1.73 m\\^2: Starting dose is 20 mg OD and maximum dose 40 mg OD. Finerenone is administered orally as immediate release tablets.","armGroupLabels":["Arm 1_BAY94-8862"]},{"type":"OTHER","name":"Placebo","description":"Placebo tablets matching BAY94-8862 are administered orally.","armGroupLabels":["Arm 2_Placebo"]}]},"outcomesModule":{"primaryOutcomes":[{"measure":"Number of cardiovascular deaths and heart failure events","description":"Composite endpoint. Heart Failure events comprise first and recurrent events","timeFrame":"Up to 42 months"}],"secondaryOutcomes":[{"measure":"Time to total (first and recurrent) HF events","timeFrame":"Up to 42 months"},{"measure":"Improvement in NYHA class from Baseline to Month 12","timeFrame":"Up to 12 month after start of treatment"},{"measure":"Change in Total Symptom Score (TSS) from KCCQ.","description":"Patient Reported Outcomes measured by Kansas City Cardiomyopathy Questionnaire (KCCQ)","timeFrame":"At baseline, Months 6, 9 and 12"},{"measure":"Time to first occurrence of composite renal endpoint","description":"Composite renal endpoint: sustained decrease in estimated glomerular filtration rate (eGFR) ≥50% relative to baseline over at least 4 weeks, or sustained eGFR decline to \\<15ml/min/1.73m2 or initiation of dialysis or renal transplantation.","timeFrame":"Up to 42 months"},{"measure":"Time to death from any cause","timeFrame":"Up to 42 months"}]},"eligibilityModule":{"eligibilityCriteria":"Inclusion Criteria:\n\n* Participant (male or female) must be aged 40 years and older.\n* Diagnosis of heart failure with New York Heart Association(NYHA) class II-IV, ambulatory or hospitalized primarily for heart failure.\n* On diuretic treatment for at least 30 days prior to randomization.\n* Documented left ventricular ejection fraction (LVEF) of ≥40% measured by any modality within the last 12 months.\n* Structural heart abnormalities based on any local imaging measurement within the last 12 months, defined by at least one of the following findings: left atrial diameter (LAD) ≥3.8cm, left atrial area (LAA) ≥20cm2, left atrial volume index (LAVI) \\>30 mL/m2, left ventricular mass index (LVMI) ≥115 g/m2 (♂)/ 95 g/m2 (♀), septal thickness or posterior wall thickness ≥1.1 cm\n* n-terminal prohormone B-type natriuretic peptide (NT-proBNP) ≥300 pg/mL (BNP ≥100 pg/mL) in sinus rhythm and patient does not have an ongoing diagnosis of paroxysmal atrial fibrillation or NT-proBNP ≥900 pg/mL (BNP ≥300 pg/mL) in atrial fibrillation (or if atrial fibrillation status is unknown or if patient has an ongoing diagnosis of paroxysmal atrial fibrillation) for participants obtained at the following time:\n\n  * Within 90 days prior to randomization if patient had been hospitalized for heart failure (HF) requiring initiation or change in HF therapy or if patient had an urgent visit for HF requiring intravenous (IV) diuretic therapy, both within 90 days prior to randomization OR\n  * Within 30 days prior to randomization if patient has not been hospitalized for HF nor had an urgent HF visit within the past 90 days.\n* Women of childbearing potential can only be included in the study if a pregnancy test is negative at screening and baseline and if they agree to use adequate contraception which is consistent with local regulations regarding the methods for contraception for those participating in clinical trials.\n\nExclusion Criteria:\n\n* Estimated glomerular filtration rate (eGFR) \\<25 mL/min/1.73 m² at either screening or randomization visit.\n* Serum/plasma potassium \\>5.0 mmol/L at either screening or randomization visit.\n* Acute inflammatory heart disease, e.g. acute myocarditis, within 90 days prior to randomization\n* Myocardial infarction or any event which could have reduced the ejection fraction within 90 days prior to randomization\n* Coronary artery bypass graft surgery in the 90 days prior to randomization\n* Percutaneous coronary intervention in the 30 days prior to randomization\n* Stroke or transient ischemic cerebral attack within 90 days prior to randomization\n* Probable alternative cause of participants' HF symptoms that in the opinion of the investigator primarily accounts for patient's dyspnea such as significant pulmonary disease, anemia or obesity. Specifically, patients with the below are excluded: Severe pulmonary disease requiring home oxygen, or chronic oral steroid therapy, History of primary pulmonary arterial hypertension, Hemoglobin \\<10 g/dl, Valvular heart disease considered by the investigator to be clinically significant, Body Mass Index (BMI) \\>50 kg/m2 at screening\n* Systolic blood pressure(SBP) ≥160 mmHg if not on treatment with ≥3 blood pressure lowering medications or ≥180 mmHg irrespective of treatments, on 2 consecutive measurements at least 2-minute apart, at screening or at randomization.\n* Concomitant systemic therapy with potent cytochrome P450 isoenzyme 3A4 (CYP3A4) inhibitors (e.g. itraconazole, ritonavir, indinavir, cobicistat, clarithromycin) or moderate or potent CYP3A4 inducers, that cannot be discontinued 7 days prior to randomization and for the duration of the treatment period.","healthyVolunteers":false,"sex":"ALL","minimumAge":"40 Years","stdAges":["ADULT","OLDER_ADULT"]},"contactsLocationsModule":{"locations":[{"facility":"Cardiology, PC","city":"Birmingham","state":"Alabama","zip":"35211","country":"United States","geoPoint":{"lat":33.52066,"lon":-86.80249}},{"facility":"Eastern Shore Research Institute, LLC | Fairhope, AL","city":"Fairhope","state":"Alabama","zip":"36532","country":"United States","geoPoint":{"lat":30.52297,"lon":-87.90333}},{"facility":"Mobile Heart Specialists, PC","city":"Mobile","state":"Alabama","zip":"36608","country":"United States","geoPoint":{"lat":30.69436,"lon":-88.04305}},{"facility":"University of Arizona Health Science Center","city":"Tucson","state":"Arizona","zip":"85724","country":"United States","geoPoint":{"lat":32.22174,"lon":-110.92648}},{"facility":"Heart Clinic Arkansas","city":"Little Rock","state":"Arkansas","zip":"72205","country":"United States","geoPoint":{"lat":34.74648,"lon":-92.28959}},{"facility":"National Heart Institute","city":"Beverly Hills","state":"California","zip":"90211-2285","country":"United States","geoPoint":{"lat":34.07362,"lon":-118.40036}},{"facility":"California Heart Specialists","city":"Cypress","state":"California","zip":"90630","country":"United States","geoPoint":{"lat":33.81696,"lon":-118.03729}},{"facility":"UC Irvine Medical Center","city":"Orange","state":"California","zip":"92868","country":"United States","geoPoint":{"lat":33.78779,"lon":-117.85311}},{"facility":"Sutter Heart & Vascular Institute","city":"Sacramento","state":"California","zip":"95816","country":"United States","geoPoint":{"lat":38.58157,"lon":-121.4944}},{"facility":"NorthBay Clinical Research, LLC | Santa Rosa, CA","city":"Santa Rosa","state":"California","zip":"95405","country":"United States","geoPoint":{"lat":38.44047,"lon":-122.71443}},{"facility":"Harbor - UCLA Medical Center","city":"Torrance","state":"California","zip":"90502","country":"United States","geoPoint":{"lat":33.83585,"lon":-118.34063}},{"facility":"Blue Coast Research Center, LLC","city":"Vista","state":"California","zip":"92083","country":"United States","geoPoint":{"lat":33.20004,"lon":-117.24254}},{"facility":"Interventional Cardio Medical- DCT Department","city":"West Hills","state":"California","zip":"91307","country":"United States","geoPoint":{"lat":34.19731,"lon":-118.64398}},{"facility":"Interventional Cardiology Medical Group | West Hills, CA","city":"West Hills","state":"California","zip":"91307","country":"United States","geoPoint":{"lat":34.19731,"lon":-118.64398}},{"facility":"VA Eastern Colorado Health Care System","city":"Aurora","state":"Colorado","zip":"80045","country":"United States","geoPoint":{"lat":39.72943,"lon":-104.83192}},{"facility":"Colorado Springs Cardiology","city":"Colorado Springs","state":"Colorado","zip":"80923","country":"United States","geoPoint":{"lat":38.83388,"lon":-104.82136}},{"facility":"South Denver Cardiology Associates, PC","city":"Littleton","state":"Colorado","zip":"80120","country":"United States","geoPoint":{"lat":39.61332,"lon":-105.01665}},{"facility":"Cardiovascular and Vein Center of Florida","city":"Bradenton","state":"Florida","zip":"34209","country":"United States","geoPoint":{"lat":27.49893,"lon":-82.57482}},{"facility":"Nova Clinical Research | Brandenton, FL","city":"Bradenton","state":"Florida","zip":"34209","country":"United States","geoPoint":{"lat":27.49893,"lon":-82.57482}},{"facility":"Cardiology Associates Research Company","city":"Daytona Beach","state":"Florida","zip":"32117","country":"United States","geoPoint":{"lat":29.21081,"lon":-81.02283}},{"facility":"Malcom Randall VA Medical Ctr","city":"Gainesville","state":"Florida","zip":"32608","country":"United States","geoPoint":{"lat":29.65163,"lon":-82.32483}},{"facility":"LifeSpring Research Foundation, LLC","city":"Miami","state":"Florida","zip":"33130","country":"United States","geoPoint":{"lat":25.77427,"lon":-80.19366}},{"facility":"Southwest Florida Research | Naples, FL","city":"Naples","state":"Florida","zip":"34102-8143","country":"United States","geoPoint":{"lat":26.14234,"lon":-81.79596}},{"facility":"East Coast Institute for Research, LLC - St Augustine","city":"Saint Augustine","state":"Florida","zip":"32086","country":"United States","geoPoint":{"lat":29.89469,"lon":-81.31452}},{"facility":"Cardiology Partners","city":"Wellington","state":"Florida","zip":"33449","country":"United States","geoPoint":{"lat":26.65868,"lon":-80.24144}},{"facility":"IACT Health","city":"Columbus","state":"Georgia","zip":"31904","country":"United States","geoPoint":{"lat":32.46098,"lon":-84.98771}},{"facility":"Atlanta Heart Specialists, LLC","city":"Tucker","state":"Georgia","zip":"30084","country":"United States","geoPoint":{"lat":33.85455,"lon":-84.21714}},{"facility":"Advocate Illinois Masonic Medical Center","city":"Chicago","state":"Illinois","zip":"60657","country":"United States","geoPoint":{"lat":41.85003,"lon":-87.65005}},{"facility":"Advocate Good Samaritan Hospital","city":"Downers Grove","state":"Illinois","zip":"60515","country":"United States","geoPoint":{"lat":41.80892,"lon":-88.01117}},{"facility":"Advocate Condell Medical Center","city":"Libertyville","state":"Illinois","zip":"60048","country":"United States","geoPoint":{"lat":42.28308,"lon":-87.95313}},{"facility":"Edward Hospital-Main Campus","city":"Naperville","state":"Illinois","zip":"60540","country":"United States","geoPoint":{"lat":41.78586,"lon":-88.14729}},{"facility":"Captain James A. Lovell Federal Health Care Center","city":"North Chicago","state":"Illinois","zip":"60064","country":"United States","geoPoint":{"lat":42.32558,"lon":-87.84118}},{"facility":"Methodist Medical Center of Illinois","city":"Peoria","state":"Illinois","zip":"61606","country":"United States","geoPoint":{"lat":40.69365,"lon":-89.58899}},{"facility":"Midwest Cardiovascular Research and Education Foundation","city":"Elkhart","state":"Indiana","zip":"46514","country":"United States","geoPoint":{"lat":41.68199,"lon":-85.97667}},{"facility":"Reid Physician Associates | Cardiology Department","city":"Richmond","state":"Indiana","zip":"47374","country":"United States","geoPoint":{"lat":39.82894,"lon":-84.89024}},{"facility":"Kansas Nephrology Research Institute, LLC","city":"Wichita","state":"Kansas","zip":"67214","country":"United States","geoPoint":{"lat":37.69224,"lon":-97.33754}},{"facility":"Baptist Health Paducah","city":"Paducah","state":"Kentucky","zip":"42003","country":"United States","geoPoint":{"lat":37.08339,"lon":-88.60005}},{"facility":"Cardiovascular Associates Research, LLC","city":"Covington","state":"Louisiana","zip":"70433","country":"United States","geoPoint":{"lat":30.47549,"lon":-90.10042}},{"facility":"Heart Clinic of Hammond","city":"Hammond","state":"Louisiana","zip":"70403","country":"United States","geoPoint":{"lat":30.50463,"lon":-90.46293}},{"facility":"Louisiana Heart Center Research - Slidell","city":"Slidell","state":"Louisiana","zip":"70458","country":"United States","geoPoint":{"lat":30.27519,"lon":-89.78117}},{"facility":"Southern Clinical Research, LLC","city":"Zachary","state":"Louisiana","zip":"70791","country":"United States","geoPoint":{"lat":30.64852,"lon":-91.1565}},{"facility":"Maine Medical Partners-Maine Health Cardiology","city":"Scarborough","state":"Maine","zip":"04074","country":"United States","geoPoint":{"lat":43.57814,"lon":-70.32172}},{"facility":"Cardiovascular Specialists of Central Maryland, PA","city":"Baltimore","state":"Maryland","zip":"21205","country":"United States","geoPoint":{"lat":39.29038,"lon":-76.61219}},{"facility":"Maryland Cardiovascular Specialists","city":"Baltimore","state":"Maryland","zip":"21229","country":"United States","geoPoint":{"lat":39.29038,"lon":-76.61219}},{"facility":"John Hopkins Outpatient Center","city":"Baltimore","state":"Maryland","zip":"21287","country":"United States","geoPoint":{"lat":39.29038,"lon":-76.61219}},{"facility":"Suburban Hospital","city":"Bethesda","state":"Maryland","zip":"20814","country":"United States","geoPoint":{"lat":38.98067,"lon":-77.10026}},{"facility":"Henry Ford Health System","city":"Detroit","state":"Michigan","zip":"48202","country":"United States","geoPoint":{"lat":42.33143,"lon":-83.04575}},{"facility":"Aa Mrc, Llc","city":"Flint","state":"Michigan","zip":"48504","country":"United States","geoPoint":{"lat":43.01253,"lon":-83.68746}},{"facility":"Western Michigan University School of Medicine","city":"Kalamazoo","state":"Michigan","zip":"49007","country":"United States","geoPoint":{"lat":42.29171,"lon":-85.58723}},{"facility":"M Health Fairview","city":"Maplewood","state":"Minnesota","zip":"55109","country":"United States","geoPoint":{"lat":44.95302,"lon":-92.99522}},{"facility":"M Health Fairview Heart Clinic - Fulton","city":"Minneapolis","state":"Minnesota","zip":"55455","country":"United States","geoPoint":{"lat":44.97997,"lon":-93.26384}},{"facility":"St. Cloud Hospital","city":"Saint Cloud","state":"Minnesota","zip":"56303","country":"United States","geoPoint":{"lat":45.5608,"lon":-94.16249}},{"facility":"Baptist Heart -Cardiology - DCT Dept","city":"Jackson","state":"Mississippi","zip":"39202","country":"United States","geoPoint":{"lat":32.29876,"lon":-90.18481}},{"facility":"University of Mississippi Medical Center","city":"Jackson","state":"Mississippi","zip":"39216-4505","country":"United States","geoPoint":{"lat":32.29876,"lon":-90.18481}},{"facility":"Harry S. Truman Memorial Veterans Hospital","city":"Columbia","state":"Missouri","zip":"65201","country":"United States","geoPoint":{"lat":38.95171,"lon":-92.33407}},{"facility":"Clinical Research Consultants","city":"Kansas City","state":"Missouri","zip":"64111","country":"United States","geoPoint":{"lat":39.09973,"lon":-94.57857}},{"facility":"St. Luke's Mid America Heart Institute","city":"Kansas City","state":"Missouri","zip":"64111","country":"United States","geoPoint":{"lat":39.09973,"lon":-94.57857}},{"facility":"Mercy Hospital Springfield","city":"Springfield","state":"Missouri","zip":"65804","country":"United States","geoPoint":{"lat":37.21533,"lon":-93.29824}},{"facility":"Logan Health Research","city":"Kalispell","state":"Montana","zip":"59901","country":"United States","geoPoint":{"lat":48.19579,"lon":-114.31291}},{"facility":"Nebraska Heart Institute- Grand Island","city":"Grand Island","state":"Nebraska","zip":"68803","country":"United States","geoPoint":{"lat":40.92501,"lon":-98.34201}},{"facility":"CHI Health Nebraska Heart","city":"Lincoln","state":"Nebraska","zip":"68526","country":"United States","geoPoint":{"lat":40.8,"lon":-96.66696}},{"facility":"Advanced Heart Care, LLC | Bridgewater, NJ","city":"Bridgewater","state":"New Jersey","zip":"08807","country":"United States","geoPoint":{"lat":40.60079,"lon":-74.64815}},{"facility":"NJ Medcare/NJ Heart","city":"Linden","state":"New Jersey","zip":"07036","country":"United States","geoPoint":{"lat":40.62205,"lon":-74.24459}},{"facility":"Garden State Heart Care","city":"Manalapan","state":"New Jersey","zip":"07726","country":"United States","geoPoint":{"lat":40.25733,"lon":-74.39571}},{"facility":"Cardiac Care & Vascular Medicine","city":"Bronx","state":"New York","zip":"10469","country":"United States","geoPoint":{"lat":40.84985,"lon":-73.86641}},{"facility":"Hudson Valley Cardiovascular Practice, PC","city":"Poughkeepsie","state":"New York","zip":"12601","country":"United States","geoPoint":{"lat":41.70037,"lon":-73.92097}},{"facility":"Division of Cardiovascular Research at Peconic Bay Med Ctr","city":"Riverhead","state":"New York","zip":"11901","country":"United States","geoPoint":{"lat":40.91704,"lon":-72.66204}},{"facility":"Laurelton Heart Specialists","city":"Rosedale","state":"New York","zip":"11422","country":"United States","geoPoint":{"lat":40.66205,"lon":-73.73541}},{"facility":"Saratoga Clinical Research, LLC","city":"Saratoga Springs","state":"New York","zip":"12866","country":"United States","geoPoint":{"lat":43.08313,"lon":-73.78457}},{"facility":"Stony Brook University Medical Center","city":"Stony Brook","state":"New York","zip":"11794","country":"United States","geoPoint":{"lat":40.92565,"lon":-73.14094}},{"facility":"Northwell Health Phys. Partners Cardiology at Valley Stream","city":"Valley Stream","state":"New York","zip":"11580","country":"United States","geoPoint":{"lat":40.66427,"lon":-73.70846}},{"facility":"Kernodle Clinic West, Private Diagnostic Clinic PLLC","city":"Burlington","state":"North Carolina","zip":"27215","country":"United States","geoPoint":{"lat":36.09569,"lon":-79.4378}},{"facility":"University of North Carolina","city":"Chapel Hill","state":"North Carolina","zip":"27599","country":"United States","geoPoint":{"lat":35.9132,"lon":-79.05584}},{"facility":"Wake Forest Baptist Health","city":"Winston-Salem","state":"North Carolina","zip":"27157-1082","country":"United States","geoPoint":{"lat":36.09986,"lon":-80.24422}},{"facility":"Kettering Health Network","city":"Kettering","state":"Ohio","zip":"45429","country":"United States","geoPoint":{"lat":39.6895,"lon":-84.16883}},{"facility":"Rama Research LLC | Marion, OH","city":"Marion","state":"Ohio","zip":"43302-6774","country":"United States","geoPoint":{"lat":40.58867,"lon":-83.12852}},{"facility":"Mercy Health - St. Elizabeth Youngstown Hospital","city":"Youngstown","state":"Ohio","zip":"44501","country":"United States","geoPoint":{"lat":41.09978,"lon":-80.64952}},{"facility":"South Oklahoma Heart Research, LLC","city":"Oklahoma City","state":"Oklahoma","zip":"73135","country":"United States","geoPoint":{"lat":35.46756,"lon":-97.51643}},{"facility":"Capital Area Research, LLC","city":"Camp Hill","state":"Pennsylvania","zip":"17011","country":"United States","geoPoint":{"lat":40.23981,"lon":-76.91997}},{"facility":"Doylestown Cardiology Associates-VIAA","city":"Doylestown","state":"Pennsylvania","zip":"18901","country":"United States","geoPoint":{"lat":40.31011,"lon":-75.12989}},{"facility":"Kent Hospital","city":"Warwick","state":"Rhode Island","zip":"02886","country":"United States","geoPoint":{"lat":41.7001,"lon":-71.41617}},{"facility":"Trident Cardiology Associates, PA","city":"Ladson","state":"South Carolina","zip":"29456","country":"United States","geoPoint":{"lat":32.98573,"lon":-80.10981}},{"facility":"Carolina Heart Specialists","city":"Lancaster","state":"South Carolina","zip":"29720","country":"United States","geoPoint":{"lat":34.72043,"lon":-80.7709}},{"facility":"PMG Research of Charleston","city":"Mount Pleasant","state":"South Carolina","zip":"29464","country":"United States","geoPoint":{"lat":32.79407,"lon":-79.86259}},{"facility":"Monument Health Clinical Research","city":"Rapid City","state":"South Dakota","zip":"57701","country":"United States","geoPoint":{"lat":44.08054,"lon":-103.23101}},{"facility":"Sanford USD Medical Center","city":"Sioux Falls","state":"South Dakota","zip":"57105","country":"United States","geoPoint":{"lat":43.54997,"lon":-96.70033}},{"facility":"The Stern Cardiovascular Foundation, Inc.","city":"Germantown","state":"Tennessee","zip":"38138","country":"United States","geoPoint":{"lat":35.08676,"lon":-89.81009}},{"facility":"Apex Cardiology, LLC","city":"Jackson","state":"Tennessee","zip":"38301","country":"United States","geoPoint":{"lat":35.61452,"lon":-88.81395}},{"facility":"Memphis VA Medical Center","city":"Memphis","state":"Tennessee","zip":"38104","country":"United States","geoPoint":{"lat":35.14953,"lon":-90.04898}},{"facility":"Cardiovascular Research of Knoxville","city":"Powell","state":"Tennessee","zip":"37849","country":"United States","geoPoint":{"lat":36.03175,"lon":-84.02797}},{"facility":"Seton Heart Institute","city":"Austin","state":"Texas","zip":"78705","country":"United States","geoPoint":{"lat":30.26715,"lon":-97.74306}},{"facility":"Texas Health Physicians Group - Dallas","city":"Dallas","state":"Texas","zip":"75231","country":"United States","geoPoint":{"lat":32.78306,"lon":-96.80667}},{"facility":"Southwest Family Medicine Associates","city":"Dallas","state":"Texas","zip":"75235","country":"United States","geoPoint":{"lat":32.78306,"lon":-96.80667}},{"facility":"Texas Health Physicians Group - Fort Worth","city":"Fort Worth","state":"Texas","zip":"76107","country":"United States","geoPoint":{"lat":32.72541,"lon":-97.32085}},{"facility":"University of Texas Medical Branch at Galveston","city":"Galveston","state":"Texas","zip":"77555-0553","country":"United States","geoPoint":{"lat":29.30135,"lon":-94.7977}},{"facility":"Houston Heart & Vascular Associates","city":"Humble","state":"Texas","zip":"77338","country":"United States","geoPoint":{"lat":29.99883,"lon":-95.26216}},{"facility":"South Texas Cardiovascular Consultants, PLLC / Kerrville, TX","city":"Kerrville","state":"Texas","zip":"78028","country":"United States","geoPoint":{"lat":30.04743,"lon":-99.14032}},{"facility":"North Dallas Research Associate | McKinney, TX","city":"McKinney","state":"Texas","zip":"75069-1780","country":"United States","geoPoint":{"lat":33.19762,"lon":-96.61527}},{"facility":"ClinRx Research, LLC","city":"Plano","state":"Texas","zip":"75024","country":"United States","geoPoint":{"lat":33.01984,"lon":-96.69889}},{"facility":"South Texas Cardiovascular Consultants, PLLC /San Antonio,TX","city":"San Antonio","state":"Texas","zip":"78201","country":"United States","geoPoint":{"lat":29.42412,"lon":-98.49363}},{"facility":"Clinical Advancement Center, PLLC","city":"San Antonio","state":"Texas","zip":"78212-4740","country":"United States","geoPoint":{"lat":29.42412,"lon":-98.49363}},{"facility":"Northwest Houston Heart Center","city":"Tomball","state":"Texas","zip":"77375","country":"United States","geoPoint":{"lat":30.09716,"lon":-95.61605}},{"facility":"University of Utah Health Care","city":"Salt Lake City","state":"Utah","zip":"84132","country":"United States","geoPoint":{"lat":40.76078,"lon":-111.89105}},{"facility":"IMG Cardiology- Fairfax","city":"Fairfax","state":"Virginia","zip":"22031","country":"United States","geoPoint":{"lat":38.84622,"lon":-77.30637}},{"facility":"Virginia Heart","city":"Falls Church","state":"Virginia","zip":"22042","country":"United States","geoPoint":{"lat":38.88233,"lon":-77.17109}},{"facility":"Virginia Heart","city":"Leesburg","state":"Virginia","zip":"20176","country":"United States","geoPoint":{"lat":39.11566,"lon":-77.5636}},{"facility":"Sentara Norfolk General Hospital","city":"Norfolk","state":"Virginia","zip":"23507","country":"United States","geoPoint":{"lat":36.84681,"lon":-76.28522}},{"facility":"Salem VA Medical Center","city":"Salem","state":"Virginia","zip":"24153","country":"United States","geoPoint":{"lat":37.29347,"lon":-80.05476}},{"facility":"Selma Medical Associates","city":"Winchester","state":"Virginia","zip":"22601","country":"United States","geoPoint":{"lat":39.18566,"lon":-78.16333}},{"facility":"William S. Middleton Memorial Veterans Hospital","city":"Madison","state":"Wisconsin","zip":"53705","country":"United States","geoPoint":{"lat":43.07305,"lon":-89.40123}},{"facility":"Aurora Saint Luke's Medical Center","city":"Milwaukee","state":"Wisconsin","zip":"53215","country":"United States","geoPoint":{"lat":43.0389,"lon":-87.90647}},{"facility":"Aspirus Research Institute","city":"Wausau","state":"Wisconsin","zip":"54401","country":"United States","geoPoint":{"lat":44.95914,"lon":-89.63012}},{"facility":"IMOBA Investigaciones Clinicas","city":"Caba","state":"Buenos Aires","zip":"C1179AAB","country":"Argentina","geoPoint":{"lat":-34.61315,"lon":-58.37723}},{"facility":"Clínica Coronel Suarez","city":"Coronel Suarez","state":"Buenos Aires","zip":"B7540GHD","country":"Argentina","geoPoint":{"lat":-37.45467,"lon":-61.93343}},{"facility":"Hospital Italiano de La Plata | Clinical Research Department","city":"La Plata","state":"Buenos Aires","zip":"B1900","country":"Argentina","geoPoint":{"lat":-34.92145,"lon":-57.95453}},{"facility":"Centro de Investigaciones Medicas Lanus | Research Department","city":"Lanus","state":"Buenos Aires","zip":"B1824","country":"Argentina","geoPoint":{"lat":-34.70252,"lon":-58.3955}},{"facility":"Sanatorio Modelo Quilmes","city":"Quilmes","state":"Buenos Aires","country":"Argentina","geoPoint":{"lat":-34.72904,"lon":-58.26374}},{"facility":"Corporación Médica de General San Martín","city":"San Martín","state":"Buenos Aires","zip":"1650","country":"Argentina","geoPoint":{"lat":-33.08103,"lon":-68.46814}},{"facility":"Instituto de Investigaciones Clínicas Zárate","city":"Zárate","state":"Buenos Aires","zip":"B2800DGH","country":"Argentina","geoPoint":{"lat":-34.09814,"lon":-59.02858}},{"facility":"Hospital Militar Central \"CIR. MY. C. Argerich\"","city":"Buenos Aires","state":"Ciudad Auton. De Buenos Aires","zip":"1426","country":"Argentina","geoPoint":{"lat":-34.61315,"lon":-58.37723}},{"facility":"Centro de Investigaciones Metabólicas","city":"Buenos Aires","state":"Ciudad Auton. De Buenos Aires","zip":"C1056ABJ","country":"Argentina","geoPoint":{"lat":-34.61315,"lon":-58.37723}},{"facility":"Instituto Cardiovascular de Buenos Aires","city":"Buenos Aires","state":"Ciudad Auton. De Buenos Aires","zip":"C1428ART","country":"Argentina","geoPoint":{"lat":-34.61315,"lon":-58.37723}},{"facility":"Centro de Investigaciones Clínicas","city":"Caba","state":"Ciudad Auton. De Buenos Aires","zip":"C1018DES","country":"Argentina","geoPoint":{"lat":-34.61315,"lon":-58.37723}},{"facility":"Centro de Especialidades Médicas","city":"Villa Luro","state":"Ciudad Auton. De Buenos Aires","zip":"C1440CFD","country":"Argentina","geoPoint":{"lat":-34.63814,"lon":-58.50273}},{"facility":"Instituto Cardiovascular","city":"Rosario","state":"Santa Fe","zip":"2000","country":"Argentina","geoPoint":{"lat":-32.94682,"lon":-60.63932}},{"facility":"Instituto Médico de la Fundación Estudios Clinicos","city":"Rosario","state":"Santa Fe","zip":"S2000DEJ","country":"Argentina","geoPoint":{"lat":-32.94682,"lon":-60.63932}},{"facility":"Instituto de Cardiología","city":"San Miguel de Tucuman","state":"Tucuman","zip":"4000","country":"Argentina","geoPoint":{"lat":-26.82414,"lon":-65.2226}},{"facility":"Inst. de Cardiología de Corrientes Juana Francisca Cabral","city":"Corrientes","zip":"3400","country":"Argentina","geoPoint":{"lat":-27.4806,"lon":-58.8341}},{"facility":"Clínica Privada del Prado","city":"Córdoba","zip":"X5000AAX","country":"Argentina","geoPoint":{"lat":-31.4135,"lon":-64.18105}},{"facility":"Instituto Médico DAMIC- Fundación Rusculleda","city":"Córdoba","zip":"X5003DCE","country":"Argentina","geoPoint":{"lat":-31.4135,"lon":-64.18105}},{"facility":"Centro de Investigaciones Clinicas del Litoral","city":"Santa Fe","zip":"S3000FWO","country":"Argentina","geoPoint":{"lat":-31.63333,"lon":-60.7}},{"facility":"John Hunter Hospital","city":"New Lambton Heights","state":"New South Wales","zip":"2305","country":"Australia","geoPoint":{"lat":-32.92466,"lon":151.69364}},{"facility":"The Wesley Hospital","city":"Auchenflower","state":"Queensland","zip":"4066","country":"Australia","geoPoint":{"lat":-27.47443,"lon":152.99213}},{"facility":"Royal Brisbane and Women's Hospital","city":"Brisbane","state":"Queensland","zip":"4029","country":"Australia","geoPoint":{"lat":-27.46794,"lon":153.02809}},{"facility":"Flinders Medical Centre","city":"Bedford Park","state":"South Australia","zip":"5042","country":"Australia","geoPoint":{"lat":-35.03333,"lon":138.56667}},{"facility":"GenesisCare Leabrook","city":"Leabrook","state":"South Australia","zip":"5068","country":"Australia","geoPoint":{"lat":-34.92976,"lon":138.65862}},{"facility":"GenesisCare Ringwood","city":"Bundoora","state":"Victoria","zip":"3083","country":"Australia","geoPoint":{"lat":-37.69825,"lon":145.05967}},{"facility":"The Prince Charles Hospital","city":"Chermside","zip":"4032","country":"Australia","geoPoint":{"lat":-27.38472,"lon":153.03062}},{"facility":"Klinikum Klagenfurt am Wörthersee","city":"Klagenfurt","state":"Kärnten","zip":"9020","country":"Austria","geoPoint":{"lat":46.62472,"lon":14.30528}},{"facility":"Universitätsklinikum St. Pölten","city":"St. Pölten","state":"Niederösterreich","zip":"3100","country":"Austria","geoPoint":{"lat":48.2,"lon":15.63333}},{"facility":"Krankenhaus St. Josef Braunau","city":"Braunau","state":"Oberösterreich","zip":"5280","country":"Austria"},{"facility":"Medizinische Universität Graz","city":"Graz","state":"Steiermark","zip":"8036","country":"Austria","geoPoint":{"lat":47.06667,"lon":15.45}},{"facility":"Landeskrankenhaus Feldkirch","city":"Feldkirch","state":"Vorarlberg","zip":"6807","country":"Austria","geoPoint":{"lat":47.23306,"lon":9.6}},{"facility":"Uniklinikum Salzburg - Landeskrankenhaus","city":"Salzburg","zip":"5020","country":"Austria","geoPoint":{"lat":47.79941,"lon":13.04399}},{"facility":"Universitätsklinikum AKH Wien","city":"Wien","zip":"1090","country":"Austria","geoPoint":{"lat":48.20849,"lon":16.37208}},{"facility":"Imed19-privat","city":"Wien","zip":"1190","country":"Austria","geoPoint":{"lat":48.20849,"lon":16.37208}},{"facility":"Klinik Floridsdorf - Krankenhaus Nord","city":"Wien","zip":"1210","country":"Austria","geoPoint":{"lat":48.20849,"lon":16.37208}},{"facility":"Santa Casa de Misericórdia da Bahia","city":"Salvador","state":"Bahia","zip":"40050-410","country":"Brazil","geoPoint":{"lat":-12.97111,"lon":-38.51083}},{"facility":"Hospital do Coração do Brasil","city":"Brasilia","state":"Distrito Federal","zip":"70100-000","country":"Brazil","geoPoint":{"lat":-15.77972,"lon":-47.92972}},{"facility":"Hospital das Clínicas de Goiânia","city":"Goiânia","state":"Goiás","zip":"74605-020","country":"Brazil","geoPoint":{"lat":-16.67861,"lon":-49.25389}},{"facility":"QUANTA Diagnósticos e Terapia","city":"Curitiba","state":"Parana","zip":"80045-170","country":"Brazil","geoPoint":{"lat":-25.42778,"lon":-49.27306}},{"facility":"Núcleo de Pesquisa Clínica do Hospital Angelina Caron","city":"Paraná","state":"Parana","zip":"83430-000","country":"Brazil"},{"facility":"Fundação Universidade de Caxias do Sul","city":"Caxias do Sul","state":"Rio Grande Do Sul","zip":"95070-560","country":"Brazil","geoPoint":{"lat":-29.16806,"lon":-51.17944}},{"facility":"Hospital de Clínicas de Porto Alegre","city":"Porto Alegre","state":"Rio Grande Do Sul","zip":"90035-007","country":"Brazil","geoPoint":{"lat":-30.03306,"lon":-51.23}},{"facility":"Hospital Mae de Deus","city":"Porto Alegre","state":"Rio Grande Do Sul","zip":"90110-000","country":"Brazil","geoPoint":{"lat":-30.03306,"lon":-51.23}},{"facility":"Hospital Nossa Senhora da Conceição","city":"Porto Alegre","state":"Rio Grande Do Sul","zip":"91350-200","country":"Brazil","geoPoint":{"lat":-30.03306,"lon":-51.23}},{"facility":"MK Consultoria Médico Científica Ltda/Angiocor Blumenau","city":"Blumenau","state":"Santa Catarina","zip":"89020-430","country":"Brazil","geoPoint":{"lat":-26.91944,"lon":-49.06611}},{"facility":"Hospital Felício Rocho","city":"Belo Horizonte","state":"Sao Paulo","zip":"30110-130","country":"Brazil","geoPoint":{"lat":-19.92083,"lon":-43.93778}},{"facility":"Inst. Pesq. Clínica de Campinas - Saraiva & Berlinger","city":"Campinas","state":"Sao Paulo","zip":"13060-080","country":"Brazil","geoPoint":{"lat":-22.90556,"lon":-47.06083}},{"facility":"ICM - Instituto do Coração de Marília","city":"Marília","state":"Sao Paulo","zip":"17515-000","country":"Brazil","geoPoint":{"lat":-22.21389,"lon":-49.94583}},{"facility":"Centro Avançado de Pesquisa para Diagnóstico - CAPED","city":"Ribeirão Preto","state":"Sao Paulo","zip":"14026-020","country":"Brazil","geoPoint":{"lat":-21.1775,"lon":-47.81028}},{"facility":"IMC - Instituto de Moléstias Cardiovasculares Tatui","city":"Tatui","state":"Sao Paulo","zip":"18270-170","country":"Brazil","geoPoint":{"lat":-23.35556,"lon":-47.85694}},{"facility":"Santa Casa de Misericórdia de Votuporanga","city":"Votuporanga","state":"Sao Paulo","country":"Brazil","geoPoint":{"lat":-20.42278,"lon":-49.97278}},{"facility":"Clínica do Coração","city":"Aracaju","state":"Sergipe","zip":"49055-530","country":"Brazil","geoPoint":{"lat":-10.91111,"lon":-37.07167}},{"facility":"PUC Campinas","city":"Campinas","zip":"13060-803","country":"Brazil","geoPoint":{"lat":-22.90556,"lon":-47.06083}},{"facility":"Eurolatino Pesquisas Médicas Ltda.","city":"Minas Gerais","zip":"38400-368","country":"Brazil","geoPoint":{"lat":-8.96667,"lon":-72.78333}},{"facility":"Ambulatory facility for specialized outpatient medical care","city":"Burgas","zip":"8000","country":"Bulgaria","geoPoint":{"lat":42.50606,"lon":27.46781}},{"facility":"MHAT Haskovo","city":"Haskovo","zip":"6300","country":"Bulgaria","geoPoint":{"lat":41.93415,"lon":25.55557}},{"facility":"MHAT Zdrave","city":"Pazardjik","zip":"4400","country":"Bulgaria"},{"facility":"¿ultidisc. hosp. for act. treatm. Sveti Georgi - Pernik OOD","city":"Pernik","zip":"2300","country":"Bulgaria","geoPoint":{"lat":42.6,"lon":23.03333}},{"facility":"Medical Center Medconsult Pleven","city":"Pleven","zip":"5800","country":"Bulgaria","geoPoint":{"lat":43.41667,"lon":24.61667}},{"facility":"Medical centre Hipokrat - N EOOD","city":"Plovdiv","zip":"4000","country":"Bulgaria","geoPoint":{"lat":42.15,"lon":24.75}},{"facility":"Multiprofile Hospital for Active Treatment Medline Clinic","city":"Plovdiv","zip":"4000","country":"Bulgaria","geoPoint":{"lat":42.15,"lon":24.75}},{"facility":"Multiprofile Hospital for Active Treatment Sveta Karidad | Cardiology Department","city":"Plovdiv","zip":"4004","country":"Bulgaria","geoPoint":{"lat":42.15,"lon":24.75}},{"facility":"MHAT Shumen AD","city":"Shumen","zip":"9700","country":"Bulgaria","geoPoint":{"lat":43.27064,"lon":26.92286}},{"facility":"MHAT Hadzhi Dimitar","city":"Sliven","zip":"8800","country":"Bulgaria","geoPoint":{"lat":42.68583,"lon":26.32917}},{"facility":"Second Medical Center Sofia EOOD","city":"Sofia","zip":"1202","country":"Bulgaria","geoPoint":{"lat":42.69751,"lon":23.32415}},{"facility":"Multiprofile Hospital for Active Treatment Knyaginya Klementina Sofia EAD | Cardiology Department","city":"Sofia","zip":"1233","country":"Bulgaria","geoPoint":{"lat":42.69751,"lon":23.32415}},{"facility":"NMTH Tzar Boris III","city":"Sofia","zip":"1233","country":"Bulgaria","geoPoint":{"lat":42.69751,"lon":23.32415}},{"facility":"MHAT National Cardiology Hospital EAD","city":"Sofia","zip":"1309","country":"Bulgaria","geoPoint":{"lat":42.69751,"lon":23.32415}},{"facility":"Medical Center Hera","city":"Sofia","zip":"1510","country":"Bulgaria","geoPoint":{"lat":42.69751,"lon":23.32415}},{"facility":"UMHAT Tsaritsa Joanna-ISUL EAD Sofia","city":"Sofia","zip":"1527","country":"Bulgaria","geoPoint":{"lat":42.69751,"lon":23.32415}},{"facility":"Multiprofile Hospital for Active Treatment Sveta Sofia","city":"Sofia","zip":"1618","country":"Bulgaria","geoPoint":{"lat":42.69751,"lon":23.32415}},{"facility":"MHAT Trakia","city":"Stara Zagora","zip":"6000","country":"Bulgaria","geoPoint":{"lat":42.43278,"lon":25.64194}},{"facility":"MHAT Dr Stefan Cherkezov","city":"Veliko Tarnovo","zip":"5000","country":"Bulgaria","geoPoint":{"lat":43.08124,"lon":25.62904}},{"facility":"MHAT Sveti Pantaleymon - Yambol","city":"Yambol","zip":"8600","country":"Bulgaria","geoPoint":{"lat":42.48333,"lon":26.5}},{"facility":"Fraser Clinical Trials, Inc.","city":"New Westminster","state":"British Columbia","zip":"V3L 3W4","country":"Canada","geoPoint":{"lat":49.20678,"lon":-122.91092}},{"facility":"St. Boniface Hospital","city":"Winnipeg","state":"Manitoba","zip":"R2H 2A6","country":"Canada","geoPoint":{"lat":49.8844,"lon":-97.14704}},{"facility":"G.A. Research Associates, Ltd.","city":"Moncton","state":"New Brunswick","zip":"E1G 1A7","country":"Canada","geoPoint":{"lat":46.09454,"lon":-64.7965}},{"facility":"Queen Elizabeth II Health Sciences Centre","city":"Halifax","state":"Nova Scotia","zip":"B3H 3A7","country":"Canada","geoPoint":{"lat":44.64533,"lon":-63.57239}},{"facility":"Brampton Clinical Trials","city":"Brampton","state":"Ontario","zip":"L6Z 4N5","country":"Canada","geoPoint":{"lat":43.68341,"lon":-79.76633}},{"facility":"Cambridge Cardiac Care Center","city":"Cambridge","state":"Ontario","zip":"N1R 6V6","country":"Canada","geoPoint":{"lat":43.3601,"lon":-80.31269}},{"facility":"Vizel Cardiac Research","city":"Cambridge","state":"Ontario","zip":"N1R 7R1","country":"Canada","geoPoint":{"lat":43.3601,"lon":-80.31269}},{"facility":"London Health Sciences Centre","city":"London","state":"Ontario","zip":"N5R 6M6","country":"Canada","geoPoint":{"lat":42.98339,"lon":-81.23304}},{"facility":"KMH Cardiology Clinics Inc.","city":"Mississauga","state":"Ontario","zip":"L5K 2L3","country":"Canada","geoPoint":{"lat":43.5789,"lon":-79.6583}},{"facility":"North York Diagnostic and Cardiac Centre","city":"North York","state":"Ontario","zip":"M6B 3H7","country":"Canada","geoPoint":{"lat":43.76681,"lon":-79.4163}},{"facility":"Oakville Cardiovascular Research","city":"Oakville","state":"Ontario","zip":"L6K 3W7","country":"Canada","geoPoint":{"lat":43.45011,"lon":-79.68292}},{"facility":"Office of Dr. James Cha, MD","city":"Oshawa","state":"Ontario","zip":"L1J 2K1","country":"Canada","geoPoint":{"lat":43.90012,"lon":-78.84957}},{"facility":"Kawartha Cardiology Clinical Trials","city":"Peterborough","state":"Ontario","zip":"K9J 0B2","country":"Canada","geoPoint":{"lat":44.30012,"lon":-78.31623}},{"facility":"Corcare","city":"Scarborough","state":"Ontario","zip":"M1B 5N1","country":"Canada","geoPoint":{"lat":43.77223,"lon":-79.25666}},{"facility":"Medicus MFC Inc.","city":"Toronto","state":"Ontario","zip":"M4P 1E4","country":"Canada","geoPoint":{"lat":43.70011,"lon":-79.4163}},{"facility":"Women's College Hospital","city":"Toronto","state":"Ontario","zip":"M5F 1B2","country":"Canada","geoPoint":{"lat":43.70011,"lon":-79.4163}},{"facility":"Mount Sinai Hospital","city":"Toronto","state":"Ontario","zip":"M5G 1X5","country":"Canada","geoPoint":{"lat":43.70011,"lon":-79.4163}},{"facility":"Centre intégré de santé et de services sociaux de Laval, Hôp","city":"Laval","state":"Quebec","zip":"H7M 3L9","country":"Canada","geoPoint":{"lat":45.56995,"lon":-73.692}},{"facility":"Clinique Sante Cardio MC","city":"Montreal","state":"Quebec","zip":"H1T 3Y7","country":"Canada","geoPoint":{"lat":45.50884,"lon":-73.58781}},{"facility":"Centre Hospitalier de l'Université de Montréal-CHUM","city":"Montreal","state":"Quebec","zip":"H2X 0C1","country":"Canada","geoPoint":{"lat":45.50884,"lon":-73.58781}},{"facility":"Montreal General Hospital","city":"Montreal","state":"Quebec","zip":"H4A 3J1","country":"Canada","geoPoint":{"lat":45.50884,"lon":-73.58781}},{"facility":"Fujian Provincial Hospital","city":"Fuzhou","state":"Fujian","zip":"350001","country":"China","geoPoint":{"lat":26.06139,"lon":119.30611}},{"facility":"Lanzhou University Second Hospital","city":"Lanzhou","state":"Gansu","zip":"730030","country":"China","geoPoint":{"lat":36.05701,"lon":103.83987}},{"facility":"The First Affiliated Hospital,Sun Yat-Sen University","city":"Guangzhou","state":"Guangdong","zip":"510080","country":"China","geoPoint":{"lat":23.11667,"lon":113.25}},{"facility":"Guangdong Provincial People's Hospital","city":"Guangzhou","state":"Guangdong","zip":"510100","country":"China","geoPoint":{"lat":23.11667,"lon":113.25}},{"facility":"Sun Yat-Sen Memorial Hosp. Sun Yat-Sen Univ.","city":"Guangzhou","state":"Guangdong","zip":"510120","country":"China","geoPoint":{"lat":23.11667,"lon":113.25}},{"facility":"The First Affiliated Hospital of Guangzhou University of TCM","city":"Guangzhou","state":"Guangdong","zip":"510405","country":"China","geoPoint":{"lat":23.11667,"lon":113.25}},{"facility":"Nanfang Hospital, Southern Medical University","city":"Guangzhou","state":"Guangdong","zip":"510515","country":"China","geoPoint":{"lat":23.11667,"lon":113.25}},{"facility":"The First Affiliated Hospital of Jinan University","city":"Guangzhou","state":"Guangdong","zip":"510630","country":"China","geoPoint":{"lat":23.11667,"lon":113.25}},{"facility":"Guizhou Provincial People's Hospital","city":"Guiyang","state":"Guizhou","zip":"550002","country":"China","geoPoint":{"lat":26.58333,"lon":106.71667}},{"facility":"Hainan Provincial People's Hospital","city":"Haikou","state":"Hainan","zip":"570311","country":"China","geoPoint":{"lat":20.04583,"lon":110.34167}},{"facility":"Hainan Third People's Hospital (Province Nongken Sanya Hopt)","city":"Sanya","state":"Hainan","zip":"572000","country":"China","geoPoint":{"lat":18.24306,"lon":109.505}},{"facility":"The First Hospital of Hebei Medical Univesity","city":"Shijiazhuang","state":"Hebei","zip":"050000","country":"China","geoPoint":{"lat":38.04139,"lon":114.47861}},{"facility":"Daqing Oilfield General Hospital","city":"Daqing","state":"Heilongjiang","zip":"163311","country":"China","geoPoint":{"lat":46.58333,"lon":125.0}},{"facility":"Xinxiang Central Hospital","city":"Xinxiang","state":"Henan","zip":"453000","country":"China","geoPoint":{"lat":35.19033,"lon":113.80151}},{"facility":"Changsha Central Hospital","city":"Changsha","state":"Hunan","zip":"410004","country":"China","geoPoint":{"lat":28.19874,"lon":112.97087}},{"facility":"Hunan Provincial People's Hospital","city":"Changsha","state":"Hunan","zip":"410005","country":"China","geoPoint":{"lat":28.19874,"lon":112.97087}},{"facility":"The Third Xiangya Hospital of Central South University","city":"Changsha","state":"Hunan","zip":"410013","country":"China","geoPoint":{"lat":28.19874,"lon":112.97087}},{"facility":"Huai'an First People's Hospital, Nanjing Medical University","city":"Huai'An","state":"Jiangsu","zip":"223300","country":"China","geoPoint":{"lat":33.50389,"lon":119.14417}},{"facility":"The First People's Hospital of Lianyungang","city":"Lianyungang","state":"Jiangsu","zip":"222002","country":"China","geoPoint":{"lat":34.59845,"lon":119.21556}},{"facility":"The Second Affiliated Hospital of Nanjing Medical university","city":"Nanjing","state":"Jiangsu","zip":"210000","country":"China","geoPoint":{"lat":32.06167,"lon":118.77778}},{"facility":"NJ Drum Tower Hospital, the Affil Hos of NJ Univ Med School","city":"Nanjing","state":"Jiangsu","zip":"210008","country":"China","geoPoint":{"lat":32.06167,"lon":118.77778}},{"facility":"Zhongda Hospital Southeast University","city":"Nanjing","state":"Jiangsu","zip":"210009","country":"China","geoPoint":{"lat":32.06167,"lon":118.77778}},{"facility":"Jiangsu Province Hospital","city":"Nanjing","state":"Jiangsu","zip":"210029","country":"China","geoPoint":{"lat":32.06167,"lon":118.77778}},{"facility":"Nanjing Jiangning Hospital","city":"Nanjing","state":"Jiangsu","zip":"211103","country":"China","geoPoint":{"lat":32.06167,"lon":118.77778}},{"facility":"1st Affiliated hospital of Soochow University","city":"Suzhou","state":"Jiangsu","zip":"215006","country":"China","geoPoint":{"lat":31.30408,"lon":120.59538}},{"facility":"The First Hospital of Jilin University","city":"Changchun","state":"Jilin","zip":"130000","country":"China","geoPoint":{"lat":43.88,"lon":125.32278}},{"facility":"Jilin Province People's Hospital","city":"Changchun","state":"Jilin","zip":"130021","country":"China","geoPoint":{"lat":43.88,"lon":125.32278}},{"facility":"Panjin Liaohe Oilfield Gem Flower Hospital","city":"Panjin","state":"Liaoning","zip":"124010","country":"China","geoPoint":{"lat":41.121,"lon":122.0739}},{"facility":"The First People's Hospital of Yinchuan","city":"Yinchuan","state":"Ningxia","zip":"750001","country":"China","geoPoint":{"lat":38.46806,"lon":106.27306}},{"facility":"General Hospital of Ningxia Medical University","city":"Yinchuan","state":"Ningxia","zip":"750004","country":"China","geoPoint":{"lat":38.46806,"lon":106.27306}},{"facility":"Jinan Central Hospital","city":"Jinan","state":"Shandong","zip":"250013","country":"China","geoPoint":{"lat":36.66833,"lon":116.99722}},{"facility":"Shanxi Provincial People's Hospital","city":"XI 'an","state":"Shanxi","zip":"710068","country":"China"},{"facility":"The First Affiliated Hospital of Xi'an Jiaotong University","city":"Xi'an","state":"Shanxi","zip":"710061","country":"China","geoPoint":{"lat":34.25833,"lon":108.92861}},{"facility":"Shaanxi Provincial People's Hospital","city":"Xi'an","state":"Shanxi","zip":"710068","country":"China","geoPoint":{"lat":34.25833,"lon":108.92861}},{"facility":"West China Hospital Sichuan University","city":"Chengdu","state":"Sichuan","zip":"610041","country":"China","geoPoint":{"lat":30.66667,"lon":104.06667}},{"facility":"SichuanAcademyofMedicalSciences&SichuanProvincialPeople'sHos","city":"Chengdu","state":"Sichuan","zip":"610072","country":"China","geoPoint":{"lat":30.66667,"lon":104.06667}},{"facility":"People's Hospital of Xinjiang Uygur Autonomous Region","city":"Urumqi","state":"Xinjiang","zip":"830001","country":"China","geoPoint":{"lat":43.80096,"lon":87.60046}},{"facility":"The First Affiliated Hospital of Xinjiang Medical University","city":"Urumqi","state":"Xinjiang","zip":"830054","country":"China","geoPoint":{"lat":43.80096,"lon":87.60046}},{"facility":"1st Affiliated Hospital of College Medicine, Zhejiang Univ.","city":"Hangzhou","state":"Zhejiang","zip":"310003","country":"China","geoPoint":{"lat":30.29365,"lon":120.16142}},{"facility":"Beijing Anzhen Hospital, Capital Medical University","city":"Beijing","zip":"100029","country":"China","geoPoint":{"lat":39.9075,"lon":116.39723}},{"facility":"Beijing Friendship Hospital, Capital Medical University","city":"Beijing","zip":"100050","country":"China","geoPoint":{"lat":39.9075,"lon":116.39723}},{"facility":"Beijing Tsinghua Changgung Hospital","city":"Beijing","zip":"102218","country":"China","geoPoint":{"lat":39.9075,"lon":116.39723}},{"facility":"Shanghai East Hospital Affiated to Tongji University","city":"Shanghai","zip":"200123","country":"China","geoPoint":{"lat":31.22222,"lon":121.45806}},{"facility":"Shanghai Tongji Hospital of Tongji University","city":"Shanghai","country":"China","geoPoint":{"lat":31.22222,"lon":121.45806}},{"facility":"Tianjin People's Hospital","city":"Tianjin","zip":"300000","country":"China","geoPoint":{"lat":39.14222,"lon":117.17667}},{"facility":"Hospital General de Medellin","city":"Medellin","state":"Antioquia","zip":"050015","country":"Colombia","geoPoint":{"lat":6.25184,"lon":-75.56359}},{"facility":"Rodrigo Botero S.A.S","city":"Medellin","state":"Antioquia","zip":"050030","country":"Colombia","geoPoint":{"lat":6.25184,"lon":-75.56359}},{"facility":"Hospital Alma Mater de Antioquia","city":"Medellín","state":"Antioquia","country":"Colombia","geoPoint":{"lat":6.25184,"lon":-75.56359}},{"facility":"Sociedad Médica Rionegro SOMER S.A.","city":"Rionegro","state":"Antioquia","zip":"054040","country":"Colombia","geoPoint":{"lat":6.15515,"lon":-75.37371}},{"facility":"Clínica de la Costa SAS","city":"Baranquilla","state":"Atlántico","zip":"080020","country":"Colombia"},{"facility":"IPS Centro Cientifico Asistencial S.A.S","city":"Barranquilla","state":"Atlántico","zip":"080020","country":"Colombia","geoPoint":{"lat":10.96854,"lon":-74.78132}},{"facility":"Corazón IPS S.A.S.","city":"Barranquilla","state":"Atlántico","country":"Colombia","geoPoint":{"lat":10.96854,"lon":-74.78132}},{"facility":"Caja de Compensación Familiar CAFAM","city":"Bogota","state":"Distrito Capital De Bogotá","zip":"111061","country":"Colombia","geoPoint":{"lat":4.60971,"lon":-74.08175}},{"facility":"Fundación Cardiomet CEQUIN Eje Cafetero","city":"Armenia","state":"Quindío","zip":"630004","country":"Colombia","geoPoint":{"lat":4.53389,"lon":-75.68111}},{"facility":"Instituto del Corazón de Bucaramanga","city":"Bucaramanga","state":"Santander","zip":"680002","country":"Colombia","geoPoint":{"lat":7.12539,"lon":-73.1198}},{"facility":"Mediservis del Tolima IPS S.A.S","city":"Ibague","state":"Tolima","zip":"730006","country":"Colombia","geoPoint":{"lat":4.43889,"lon":-75.23222}},{"facility":"Clínica Imbanaco S.A.S","city":"Cali","state":"Valle Del Cauca","zip":"760042","country":"Colombia","geoPoint":{"lat":3.43722,"lon":-76.5225}},{"facility":"Fundacio del Caribe para la Investigacio Bio-Medica (BIOS)","city":"Barranquilla","country":"Colombia","geoPoint":{"lat":10.96854,"lon":-74.78132}},{"facility":"Fundación Cardioinfantil","city":"Bogota","zip":"110131","country":"Colombia","geoPoint":{"lat":4.60971,"lon":-74.08175}},{"facility":"Hospital Universitario Clínica San Rafael","city":"Bogota","zip":"110621","country":"Colombia","geoPoint":{"lat":4.60971,"lon":-74.08175}},{"facility":"Hospital San Vicente Fundación","city":"Medellin","zip":"050010","country":"Colombia","geoPoint":{"lat":6.25184,"lon":-75.56359}},{"facility":"Clinica Cardio VID","city":"Medellin","zip":"050034","country":"Colombia","geoPoint":{"lat":6.25184,"lon":-75.56359}},{"facility":"Hospital Universitario de San Ignacio","city":"Santa Fe De Bogotá","country":"Colombia"},{"facility":"Kardiologie MUDr. Libor Nechvatal s.r.o.","city":"Brno","zip":"602 00","country":"Czechia","geoPoint":{"lat":49.19522,"lon":16.60796}},{"facility":"Kardiologicka ambulance Brno s.r.o.","city":"Brno","zip":"612 00","country":"Czechia","geoPoint":{"lat":49.19522,"lon":16.60796}},{"facility":"Fakultni nemocnice Brno","city":"Brno","zip":"625 00","country":"Czechia","geoPoint":{"lat":49.19522,"lon":16.60796}},{"facility":"Kardiologicka ambulance","city":"Cesky Krumlov","zip":"381 01","country":"Czechia","geoPoint":{"lat":48.81091,"lon":14.31521}},{"facility":"Kardio Chlumec s.r.o.- Kardiologická ambulance","city":"Chlumec nad Cidlinou","zip":"503 51","country":"Czechia","geoPoint":{"lat":50.1544,"lon":15.46026}},{"facility":"Poliklinika Dolni Brezany","city":"Dolni Brezany","zip":"252 41","country":"Czechia","geoPoint":{"lat":49.96321,"lon":14.4585}},{"facility":"Fakultni Nemocnice Hradec Kralove","city":"Hradec kralove","zip":"500 05","country":"Czechia","geoPoint":{"lat":50.20923,"lon":15.83277}},{"facility":"LUNACOR, Centrum pro choroby srdce a cev","city":"Kromeriz","zip":"767 01","country":"Czechia","geoPoint":{"lat":49.29785,"lon":17.39312}},{"facility":"Kromerizska nemocnice a.s.","city":"Kromeriz","zip":"767 55","country":"Czechia","geoPoint":{"lat":49.29785,"lon":17.39312}},{"facility":"Krajska Nemocnice Liberec","city":"Liberec","zip":"460 63","country":"Czechia","geoPoint":{"lat":50.76711,"lon":15.05619}},{"facility":"KardioBusak s.r.o.","city":"Louny","zip":"440 01","country":"Czechia","geoPoint":{"lat":50.35699,"lon":13.79667}},{"facility":"Kardiologicka a interni ambulance","city":"Pisek","zip":"39701","country":"Czechia","geoPoint":{"lat":49.3088,"lon":14.1475}},{"facility":"Fakultni nemocnice Plzen","city":"Plzen","zip":"301 00","country":"Czechia","geoPoint":{"lat":49.74747,"lon":13.37759}},{"facility":"Polabska zdravotni, s.r.o.","city":"Podebrady","zip":"290 01","country":"Czechia","geoPoint":{"lat":50.14242,"lon":15.11881}},{"facility":"Affidea Praha s.r.o","city":"Praha 11 - Chodov","zip":"148 00","country":"Czechia","geoPoint":{"lat":50.08804,"lon":14.42076}},{"facility":"Vseobecna fakultni nemocnice v Praze","city":"Praha 2","zip":"12808","country":"Czechia","geoPoint":{"lat":50.08804,"lon":14.42076}},{"facility":"Institut Klinicke a Experimentalni Mediciny","city":"Praha 4","zip":"140 21","country":"Czechia","geoPoint":{"lat":50.08804,"lon":14.42076}},{"facility":"Fakultni nemocnice v Motole","city":"Praha 5","zip":"150 06","country":"Czechia","geoPoint":{"lat":50.08804,"lon":14.42076}},{"facility":"Ustredni vojenska nemocnice Praha","city":"Praha 6","zip":"169 02","country":"Czechia","geoPoint":{"lat":50.08804,"lon":14.42076}},{"facility":"Kardio s.r.o.","city":"Trebic","zip":"67401","country":"Czechia","geoPoint":{"lat":49.21492,"lon":15.88166}},{"facility":"Nemocnice Podlesi","city":"Trinec","zip":"73961","country":"Czechia","geoPoint":{"lat":49.67763,"lon":18.67078}},{"facility":"Angiocor s.r.o.","city":"Zlin","zip":"760 01","country":"Czechia","geoPoint":{"lat":49.22645,"lon":17.67065}},{"facility":"Nemocnice Znojmo","city":"Znojmo","zip":"669 02","country":"Czechia","geoPoint":{"lat":48.8555,"lon":16.0488}},{"facility":"Aarhus Universitetshospital, Skejby","city":"Aarhus N","zip":"8200","country":"Denmark","geoPoint":{"lat":56.15674,"lon":10.21076}},{"facility":"Sydvestjysk Sygehus Esbjerg | Kardiologisk Forskningsenhed","city":"Esbjerg","zip":"6700","country":"Denmark","geoPoint":{"lat":55.47028,"lon":8.45187}},{"facility":"Capital Region | Gentofte Hospital - Cardiology Research","city":"Hellerup","zip":"2900","country":"Denmark","geoPoint":{"lat":55.73204,"lon":12.57093}},{"facility":"Capital Region | Herlev Hospital - Department of Heart Disease","city":"Herlev","zip":"2730","country":"Denmark","geoPoint":{"lat":55.72366,"lon":12.43998}},{"facility":"Region Midtjylland | Regionshospitalet Godstrup - Clinic for Heart Research","city":"Herning","zip":"7400","country":"Denmark","geoPoint":{"lat":56.13932,"lon":8.97378}},{"facility":"Holbæk Sygehus","city":"Holbæk","zip":"4300","country":"Denmark","geoPoint":{"lat":55.71354,"lon":11.7169}},{"facility":"Hvidovre Hospital","city":"Hvidovre","zip":"2650","country":"Denmark","geoPoint":{"lat":55.65719,"lon":12.47364}},{"facility":"Regionshospitalet Randers","city":"Randers","zip":"8930","country":"Denmark","geoPoint":{"lat":56.4607,"lon":10.03639}},{"facility":"Odense University Hospital | Svendborg Hospital - Cardiovascular Research Unit","city":"Svendborg","zip":"5700","country":"Denmark","geoPoint":{"lat":55.05982,"lon":10.60677}},{"facility":"HUS Jorvin sairaala","city":"Espoo","zip":"02740","country":"Finland","geoPoint":{"lat":60.2052,"lon":24.6522}},{"facility":"Tampereen yliopistollinen sairaala, keskussairaala","city":"Tampere","zip":"33520","country":"Finland","geoPoint":{"lat":61.49911,"lon":23.78712}},{"facility":"Turun yliopistollinen keskussairaala","city":"Turku","zip":"20520","country":"Finland","geoPoint":{"lat":60.45148,"lon":22.26869}},{"facility":"Herzklinik Ulm GbR","city":"Ulm","state":"Baden-Württemberg","zip":"89077","country":"Germany","geoPoint":{"lat":48.39841,"lon":9.99155}},{"facility":"Klinikum der Universität Würzburg","city":"Würzburg","state":"Bayern","zip":"97078","country":"Germany","geoPoint":{"lat":49.79391,"lon":9.95121}},{"facility":"Medizinische Hochschule Hannover (MHH)","city":"Hannover","state":"Niedersachsen","zip":"30625","country":"Germany","geoPoint":{"lat":52.37052,"lon":9.73322}},{"facility":"Städt. Kliniken Bielefeld gGmbH","city":"Bielefeld","state":"Nordrhein-Westfalen","zip":"33604","country":"Germany","geoPoint":{"lat":52.03333,"lon":8.53333}},{"facility":"Sana-Klinikum Remscheid GmbH","city":"Remscheid","state":"Nordrhein-Westfalen","zip":"42859","country":"Germany","geoPoint":{"lat":51.17983,"lon":7.1925}},{"facility":"Forschungszentrum Ruhr - KliFoCenter GmbH","city":"Witten","state":"Nordrhein-Westfalen","zip":"58455","country":"Germany","geoPoint":{"lat":51.44362,"lon":7.35258}},{"facility":"KAT General Hospital of Athens","city":"Kifisia / Athens","state":"Attica","zip":"14561","country":"Greece"},{"facility":"University General Hospital of Alexandroupolis","city":"Alexandroupoli","zip":"68100","country":"Greece","geoPoint":{"lat":40.84995,"lon":25.87644}},{"facility":"General Hosp of Athens \"Korgialenio-Benakeio\" RCH","city":"Ampelokipi - Athens","zip":"11526","country":"Greece"},{"facility":"HIPPOKRATION General Hospital of Athens","city":"Athens","zip":"115 27","country":"Greece","geoPoint":{"lat":37.97945,"lon":23.71622}},{"facility":"G. GENNIMATAS General State Hospital of Athens","city":"Athens","zip":"11527","country":"Greece","geoPoint":{"lat":37.97945,"lon":23.71622}},{"facility":"General Hospital of Athens \"ALEXANDRA\"","city":"Athens","zip":"11528","country":"Greece","geoPoint":{"lat":37.97945,"lon":23.71622}},{"facility":"University General Hospital ATTIKON","city":"Chaidari","zip":"12462","country":"Greece","geoPoint":{"lat":38.01135,"lon":23.66597}},{"facility":"University General Hospital of Heraklion","city":"Heraklion","zip":"71110","country":"Greece","geoPoint":{"lat":35.32787,"lon":25.14341}},{"facility":"University General Hospital of Larissa","city":"Larissa","zip":"41110","country":"Greece","geoPoint":{"lat":39.63689,"lon":22.41761}},{"facility":"Konstantopoulio General Hospital of Nea Ionia - AGIA OLGA","city":"Nea Ionia / Athens","zip":"142 33","country":"Greece"},{"facility":"University General Hospital of Patra","city":"Patra","zip":"26504","country":"Greece","geoPoint":{"lat":38.24444,"lon":21.73444}},{"facility":"Hippokration General Hospital of Thessaloniki","city":"Thessaloniki","zip":"54642","country":"Greece","geoPoint":{"lat":40.64361,"lon":22.93086}},{"facility":"Prince of Wales Hospital Hong Kong","city":"Shatin","state":"N.T","country":"Hong Kong","geoPoint":{"lat":22.38333,"lon":114.18333}},{"facility":"Queen Mary Hospital","city":"Hong Kong","country":"Hong Kong","geoPoint":{"lat":22.27832,"lon":114.17469}},{"facility":"Queen Elizabeth Hospital Hong Kong","city":"Kowloon","country":"Hong Kong","geoPoint":{"lat":22.31667,"lon":114.18333}},{"facility":"Princess Margaret Hospital","city":"Lai Chi Kok","country":"Hong Kong","geoPoint":{"lat":22.3369,"lon":114.14031}},{"facility":"Cardiomobile Egeszsegugyi Szolgaltato Kft.","city":"Balatonfured","zip":"8230","country":"Hungary","geoPoint":{"lat":46.96188,"lon":17.87187}},{"facility":"Budai Irgalmasrendi Korhaz","city":"Budapest","zip":"1023","country":"Hungary","geoPoint":{"lat":47.49801,"lon":19.03991}},{"facility":"University of Semmelweis/ Semmelweis Egyetem","city":"Budapest","zip":"1085","country":"Hungary","geoPoint":{"lat":47.49801,"lon":19.03991}},{"facility":"University of Semmelweis/ Semmelweis Egyetem","city":"Budapest","zip":"1122","country":"Hungary","geoPoint":{"lat":47.49801,"lon":19.03991}},{"facility":"Budapesti Uzsoki Utcai Korhaz","city":"Budapest","zip":"1145","country":"Hungary","geoPoint":{"lat":47.49801,"lon":19.03991}},{"facility":"Budapesti Jahn Ferenc Del-pesti Korhaz es Rendelointezet","city":"Budapest","zip":"1204","country":"Hungary","geoPoint":{"lat":47.49801,"lon":19.03991}},{"facility":"Eszak-Pesti Centrumkorhaz-Honvedkorhaz","city":"Budapest","country":"Hungary","geoPoint":{"lat":47.49801,"lon":19.03991}},{"facility":"Bugat Pal Korhaz","city":"Gyongyos","zip":"3200","country":"Hungary","geoPoint":{"lat":47.78257,"lon":19.928}},{"facility":"Pharma4Trial Kft.","city":"Gyongyos","zip":"3200","country":"Hungary","geoPoint":{"lat":47.78257,"lon":19.928}},{"facility":"Csongrad Megyei Egeszsegugyi Ellato Kozpont,Hodmezovasarhely","city":"Hodmezovasarhely","zip":"6800","country":"Hungary","geoPoint":{"lat":46.41667,"lon":20.33333}},{"facility":"Borsod-Abauj-Zemplen Varmegyei Korhaz es Egyetemi Oktatokorhaz","city":"Miskolc","zip":"3526","country":"Hungary","geoPoint":{"lat":48.1,"lon":20.78333}},{"facility":"Kanizsai Dorottya Hospital","city":"Nagykanizsa","zip":"8800","country":"Hungary","geoPoint":{"lat":46.45347,"lon":16.99104}},{"facility":"Medifarma-98 Egeszsegugyi, Kereskedelmi es Szolgaltato Kft.","city":"Nyiregyhaza","zip":"4400","country":"Hungary","geoPoint":{"lat":47.95539,"lon":21.71671}},{"facility":"Coromed Smo Kft","city":"Pecs","zip":"7623","country":"Hungary","geoPoint":{"lat":46.08333,"lon":18.23333}},{"facility":"Da Vinci Maganklinika","city":"Pecs","zip":"7635","country":"Hungary","geoPoint":{"lat":46.08333,"lon":18.23333}},{"facility":"SZTE ÁOK Szent Györgyi Albert Klinikai Kozpont","city":"Szeged","zip":"6725","country":"Hungary","geoPoint":{"lat":46.253,"lon":20.14824}},{"facility":"Fejer Varmegyei Szent Gyorgy Egyetemi Oktato Korhaz","city":"Szekesfehervar","zip":"8000","country":"Hungary","geoPoint":{"lat":47.18995,"lon":18.41034}},{"facility":"Tolna Varmegyei Balassa Janos Korhaz","city":"Szekszard","zip":"7100","country":"Hungary","geoPoint":{"lat":46.35014,"lon":18.70905}},{"facility":"Csongrad-Csanad Megyei Dr. Bugyi Istvan Korhaz","city":"Szentes","zip":"6600","country":"Hungary","geoPoint":{"lat":46.65628,"lon":20.27194}},{"facility":"Max Super Speciality Hospital, Saket","city":"New Delhi","state":"Delhi","zip":"110017","country":"India","geoPoint":{"lat":28.63576,"lon":77.22445}},{"facility":"Safdarjung Hospital","city":"New Delhi","state":"Delhi","zip":"110029","country":"India","geoPoint":{"lat":28.63576,"lon":77.22445}},{"facility":"Deenanath Mangeshkar Hospital","city":"Pune","state":"Maharashtra","zip":"411004","country":"India","geoPoint":{"lat":18.51957,"lon":73.85535}},{"facility":"KEM hospital","city":"Pune","state":"Maharashtra","zip":"411011","country":"India","geoPoint":{"lat":18.51957,"lon":73.85535}},{"facility":"Madras Medical Mission Institute","city":"Chennai","state":"Tamil Nadu","zip":"600037","country":"India","geoPoint":{"lat":13.08784,"lon":80.27847}},{"facility":"Assuta Ashdod","city":"Ashdod","zip":"7747629","country":"Israel","geoPoint":{"lat":31.79211,"lon":34.64967}},{"facility":"Barzilai Ashkelon University Medical Center | Cardiology Department","city":"Ashkelon","zip":"7830604","country":"Israel","geoPoint":{"lat":31.66926,"lon":34.57149}},{"facility":"Rambam Health Corporation","city":"Haifa","zip":"3109601","country":"Israel","geoPoint":{"lat":32.81841,"lon":34.9885}},{"facility":"Bnai Zion Medical Center","city":"Haifa","zip":"3339419","country":"Israel","geoPoint":{"lat":32.81841,"lon":34.9885}},{"facility":"Lady Davis Carmel Medical Center","city":"Haifa","zip":"3436212","country":"Israel","geoPoint":{"lat":32.81841,"lon":34.9885}},{"facility":"Hadassah Hebrew University Hospital Ein Kerem","city":"Jerusalem","zip":"9112001","country":"Israel","geoPoint":{"lat":31.76904,"lon":35.21633}},{"facility":"Meir Medical Center","city":"Kfar Saba","zip":"4428164","country":"Israel","geoPoint":{"lat":32.175,"lon":34.90694}},{"facility":"Poriya Medical Center | Cardiology Department","city":"Lower Galilee","zip":"15208","country":"Israel"},{"facility":"Health Corporation of Galilee Medical Center","city":"Nahariya","zip":"22100","country":"Israel","geoPoint":{"lat":33.00892,"lon":35.09814}},{"facility":"Chaim Sheba Medical Center","city":"Ramat Gan","zip":"52621","country":"Israel","geoPoint":{"lat":32.08227,"lon":34.81065}},{"facility":"Kaplan Medical Center","city":"Rehovot","zip":"7610001","country":"Israel","geoPoint":{"lat":31.89421,"lon":34.81199}},{"facility":"Tel-Aviv Sourasky Medical Center","city":"Tel Aviv","zip":"6423906","country":"Israel","geoPoint":{"lat":32.08088,"lon":34.78057}},{"facility":"Health Corporation of the Ziv Medical Center (R.A.)","city":"Zefat","zip":"1311001","country":"Israel","geoPoint":{"lat":32.96465,"lon":35.496}},{"facility":"Shamir Medical Center (Assaf Harofeh)","city":"Zrifin","zip":"7030000","country":"Israel","geoPoint":{"lat":31.95857,"lon":4.83723}},{"facility":"A.O.U. Mater Domini","city":"Catanzaro","state":"Calabria","zip":"88100","country":"Italy","geoPoint":{"lat":38.88247,"lon":16.60086}},{"facility":"A.O.U. Policlinico Federico II Napoli","city":"Napoli","state":"Campania","zip":"80131","country":"Italy","geoPoint":{"lat":40.85216,"lon":14.26811}},{"facility":"AUSL di Bologna","city":"Bologna","state":"Emilia-Romagna","zip":"40133","country":"Italy","geoPoint":{"lat":44.49381,"lon":11.33875}},{"facility":"A.O.U. di Bologna Policlinico S.Orsola Malpighi","city":"Bologna","state":"Emilia-Romagna","zip":"40138","country":"Italy","geoPoint":{"lat":44.49381,"lon":11.33875}},{"facility":"A.O.U. di Ferrara","city":"Ferrara","state":"Emilia-Romagna","zip":"44124","country":"Italy","geoPoint":{"lat":44.83804,"lon":11.62057}},{"facility":"AUSL di Piacenza","city":"Piacenza","state":"Emilia-Romagna","zip":"29121","country":"Italy","geoPoint":{"lat":45.05242,"lon":9.69342}},{"facility":"ASST Papa Giovanni XXIII","city":"Bergamo","state":"Lombardia","zip":"24127","country":"Italy","geoPoint":{"lat":45.69601,"lon":9.66721}},{"facility":"ASST del Garda","city":"Brescia","state":"Lombardia","zip":"25085","country":"Italy","geoPoint":{"lat":45.53558,"lon":10.21472}},{"facility":"ASST Spedali Civili di Brescia","city":"Brescia","state":"Lombardia","zip":"25123","country":"Italy","geoPoint":{"lat":45.53558,"lon":10.21472}},{"facility":"ASST di Cremona","city":"Cremona","state":"Lombardia","zip":"26100","country":"Italy","geoPoint":{"lat":45.13325,"lon":10.02129}},{"facility":"Istituto Clinico Humanitas - Humanitas Mirasole S.p.A.","city":"Milano","state":"Lombardia","zip":"20089","country":"Italy","geoPoint":{"lat":45.46427,"lon":9.18951}},{"facility":"IRCCS Centro Cardiologico Monzino S.p.A","city":"Milano","state":"Lombardia","zip":"20138","country":"Italy","geoPoint":{"lat":45.46427,"lon":9.18951}},{"facility":"IRCCS Istituti Clinici Scientifici Maugeri SpA SB","city":"Milano","state":"Lombardia","zip":"20138","country":"Italy","geoPoint":{"lat":45.46427,"lon":9.18951}},{"facility":"ASST di Monza","city":"Monza Brianza","state":"Lombardia","zip":"20090","country":"Italy"},{"facility":"ASST della Brianza","city":"Monza Brianza","state":"Lombardia","zip":"20871","country":"Italy"},{"facility":"Fondazione IRCCS Policlinico San Matteo","city":"Pavia","state":"Lombardia","zip":"27100","country":"Italy","geoPoint":{"lat":45.19205,"lon":9.15917}},{"facility":"ASST Sette Laghi","city":"Varese","state":"Lombardia","zip":"21049","country":"Italy","geoPoint":{"lat":45.82058,"lon":8.82511}},{"facility":"A.O.U. Maggiore della Carità","city":"Novara","state":"Piemonte","zip":"28100","country":"Italy","geoPoint":{"lat":45.44694,"lon":8.62118}},{"facility":"AUSL Toscana Sud-Est","city":"Arezzo","state":"Toscana","zip":"52044","country":"Italy","geoPoint":{"lat":43.46276,"lon":11.88068}},{"facility":"A.O.U. Senese","city":"Siena","state":"Toscana","zip":"53100","country":"Italy","geoPoint":{"lat":43.31822,"lon":11.33064}},{"facility":"A.O. di Perugia","city":"Perugia","state":"Umbria","zip":"06129","country":"Italy","geoPoint":{"lat":43.1122,"lon":12.38878}},{"facility":"A.O.U.I. Verona","city":"Verona","state":"Veneto","zip":"37126","country":"Italy","geoPoint":{"lat":45.4299,"lon":10.98444}},{"facility":"Kasugai Municipal Hospital","city":"Kasugai","state":"Aichi","zip":"486-8510","country":"Japan","geoPoint":{"lat":35.24762,"lon":136.97229}},{"facility":"TOYOTA Memorial Hospital","city":"Toyota","state":"Aichi","zip":"471-8513","country":"Japan","geoPoint":{"lat":35.08333,"lon":137.15}},{"facility":"Funabashi Municipal Medical Center","city":"Funabashi","state":"Chiba","zip":"273-8588","country":"Japan","geoPoint":{"lat":35.70129,"lon":139.98648}},{"facility":"Steel Memorial Yawata Hospital","city":"Kitakyushu","state":"Fukuoka","zip":"805-8508","country":"Japan","geoPoint":{"lat":33.85181,"lon":130.85034}},{"facility":"Onga Nakama Medical Association Onga Hospital","city":"Onga-gun","state":"Fukuoka","zip":"811-4342","country":"Japan"},{"facility":"Ogaki Municipal Hospital","city":"Ogaki","state":"Gifu","zip":"503-8502","country":"Japan","geoPoint":{"lat":35.35,"lon":136.61667}},{"facility":"Shobara Red Cross Hospital","city":"Shobara","state":"Hiroshima","zip":"727-0013","country":"Japan","geoPoint":{"lat":34.85,"lon":133.01667}},{"facility":"Hyogo Prefectural Harima-Himeji General Medical Center","city":"Himeji","state":"Hyogo","zip":"670-8560","country":"Japan","geoPoint":{"lat":34.81667,"lon":134.7}},{"facility":"National Hospital Organization Kobe Medical Center","city":"Kobe","state":"Hyogo","zip":"654-0155","country":"Japan","geoPoint":{"lat":34.6913,"lon":135.183}},{"facility":"Higashi Takarazuka Satoh Hospital","city":"Takarazuka","state":"Hyogo","zip":"665-0873","country":"Japan","geoPoint":{"lat":34.79936,"lon":135.35697}},{"facility":"JA Toride Medical Center","city":"Toride","state":"Ibaraki","zip":"302-0022","country":"Japan","geoPoint":{"lat":35.9,"lon":140.08333}},{"facility":"Public Central Hospital of Matto Ishikawa","city":"Hakusan","state":"Ishikawa","zip":"924-8588","country":"Japan"},{"facility":"National Hospital Organization Kanazawa Medical Center","city":"Kanazawa","state":"Ishikawa","zip":"920-8650","country":"Japan","geoPoint":{"lat":36.6,"lon":136.61667}},{"facility":"Iwate Prefectural Central Hospital","city":"Morioka","state":"Iwate","zip":"020-0066","country":"Japan","geoPoint":{"lat":39.7,"lon":141.15}},{"facility":"Mitoyo General Hospital","city":"Kanonji","state":"Kagawa","zip":"769-1695","country":"Japan"},{"facility":"Kagawa Prefectural Central Hospital","city":"Takamatsu","state":"Kagawa","zip":"760-8557","country":"Japan","geoPoint":{"lat":34.33333,"lon":134.05}},{"facility":"Kitasato University Hospital","city":"Sagamihara","state":"Kanagawa","zip":"252-0375","country":"Japan","geoPoint":{"lat":35.54899,"lon":139.26064}},{"facility":"Sagamihara Kyodo Hospital","city":"Sagamihara","state":"Kanagawa","zip":"252-5188","country":"Japan","geoPoint":{"lat":35.54899,"lon":139.26064}},{"facility":"Japan Red Cross Society Azumino Hospital","city":"Azumino","state":"Nagano","zip":"399-8292","country":"Japan","geoPoint":{"lat":36.28815,"lon":137.88705}},{"facility":"National Hospital Organization Shinshu Ueda Medical Center","city":"Ueda","state":"Nagano","zip":"386-8610","country":"Japan","geoPoint":{"lat":36.40265,"lon":138.28161}},{"facility":"R.I.A.C Naha City Hospital","city":"Naha","state":"Okinawa","zip":"902-8511","country":"Japan","geoPoint":{"lat":26.21667,"lon":127.68333}},{"facility":"Kishiwada Tokushukai Hospital","city":"Kishiwada","state":"Osaka","zip":"596-0042","country":"Japan","geoPoint":{"lat":34.46667,"lon":135.36667}},{"facility":"Takatsuki Red Cross Hospital","city":"Takatsuki","state":"Osaka","zip":"569-1096","country":"Japan","geoPoint":{"lat":34.84833,"lon":135.61678}},{"facility":"Ageo Central General Hospital","city":"Ageo","state":"Saitama","zip":"362-8588","country":"Japan","geoPoint":{"lat":35.97145,"lon":139.61382}},{"facility":"Kawaguchi Cardiovascular and Respiratory Hospital","city":"Kawaguchi","state":"Saitama","zip":"333-0842","country":"Japan","geoPoint":{"lat":35.80521,"lon":139.71072}},{"facility":"Saitama Sekishinkai Hospital","city":"Sayama","state":"Saitama","zip":"350-1305","country":"Japan","geoPoint":{"lat":35.85295,"lon":139.41212}},{"facility":"National Hospital Organization Hamada Medical Center","city":"Hamada","state":"Shimane","zip":"697-8511","country":"Japan","geoPoint":{"lat":34.88333,"lon":132.08333}},{"facility":"Nishiarai Heart Central Clinic","city":"Adachi-ku","state":"Tokyo","zip":"123-0845","country":"Japan"},{"facility":"Minamino Cardiovascular Hospital","city":"Hachioji","state":"Tokyo","zip":"192-0918","country":"Japan","geoPoint":{"lat":35.65583,"lon":139.32389}},{"facility":"National Hospital Organization Tokyo Medical Center","city":"Meguro-ku","state":"Tokyo","zip":"152-8902","country":"Japan","geoPoint":{"lat":42.12755,"lon":143.31736}},{"facility":"Toho University Omori Medical Center","city":"Ota-ku","state":"Tokyo","zip":"143-8541","country":"Japan","geoPoint":{"lat":36.3,"lon":139.36667}},{"facility":"Japan Organization of Occupational Health and Safety Sanin Rosai Hospital","city":"Yonago","state":"Tottori","zip":"683-8605","country":"Japan","geoPoint":{"lat":35.43333,"lon":133.33333}},{"facility":"National Hospital Organization Iwakuni Clinical Center","city":"Iwakuni","state":"Yamaguchi","zip":"740-8510","country":"Japan","geoPoint":{"lat":34.16297,"lon":132.22}},{"facility":"JCHO Shimonoseki Medical Center","city":"Shimonoseki","state":"Yamaguchi","zip":"750-0061","country":"Japan","geoPoint":{"lat":33.95001,"lon":130.94999}},{"facility":"Fukuoka University Nishijin Hospital","city":"Fukuoka","zip":"814-8522","country":"Japan","geoPoint":{"lat":33.6,"lon":130.41667}},{"facility":"Gifu Prefectural General Medical Center","city":"Gifu","zip":"500-8717","country":"Japan","geoPoint":{"lat":35.42291,"lon":136.76039}},{"facility":"National Hospital Organization Kumamoto Medical Center","city":"Kumamoto","zip":"860-0008","country":"Japan","geoPoint":{"lat":32.80589,"lon":130.69182}},{"facility":"Kumamoto University Hospital","city":"Kumamoto","zip":"860-8556","country":"Japan","geoPoint":{"lat":32.80589,"lon":130.69182}},{"facility":"Miyazaki Medical Association Hospital","city":"Miyazaki","zip":"880-2102","country":"Japan","geoPoint":{"lat":31.91667,"lon":131.41667}},{"facility":"Shinrakuen Hospital","city":"Niigata","zip":"950-2087","country":"Japan","geoPoint":{"lat":37.88637,"lon":139.00589}},{"facility":"Oita Prefectural Hospital","city":"Oita","zip":"870-8511","country":"Japan","geoPoint":{"lat":33.23333,"lon":131.6}},{"facility":"The Sakakibara Heart Institute of Okayama","city":"Okayama","zip":"700-0804","country":"Japan","geoPoint":{"lat":34.65,"lon":133.93333}},{"facility":"Osaka Police Hospital","city":"Osaka","zip":"543-0035","country":"Japan","geoPoint":{"lat":34.69374,"lon":135.50218}},{"facility":"Osaka General Medical Center","city":"Osaka","zip":"558-8558","country":"Japan","geoPoint":{"lat":34.69374,"lon":135.50218}},{"facility":"Social Corporation Keigakukai Minamiosaka Hospital","city":"Osaka","zip":"559-0012","country":"Japan","geoPoint":{"lat":34.69374,"lon":135.50218}},{"facility":"Toyama University Hospital","city":"Toyama","zip":"930-0194","country":"Japan","geoPoint":{"lat":36.7,"lon":137.21667}},{"facility":"Seiyu Memorial Hospital","city":"Wakayama","zip":"649-6335","country":"Japan","geoPoint":{"lat":34.23333,"lon":135.16667}},{"facility":"Chungbuk National University Hospital","city":"Cheongju-Si","state":"Chungcheongbugdo","zip":"361-711","country":"Korea, Republic of","geoPoint":{"lat":36.63722,"lon":127.48972}},{"facility":"Yonsei University Wonju Christian Hospital","city":"Wonju","state":"Gang''weondo","zip":"26426","country":"Korea, Republic of","geoPoint":{"lat":37.35139,"lon":127.94528}},{"facility":"Hallym University Sacred Heart Hospital","city":"Anyang","state":"Gyeonggido","zip":"431-070","country":"Korea, Republic of","geoPoint":{"lat":37.3925,"lon":126.92694}},{"facility":"Bundang Cha Hospital","city":"Seongnam-si","state":"Gyeonggido","zip":"13496","country":"Korea, Republic of","geoPoint":{"lat":37.43861,"lon":127.13778}},{"facility":"Pusan National University Hospital","city":"Busan","zip":"49241","country":"Korea, Republic of","geoPoint":{"lat":35.10278,"lon":129.04028}},{"facility":"Dong-A University Hospital","city":"Busan","zip":"602-715","country":"Korea, Republic of","geoPoint":{"lat":35.10278,"lon":129.04028}},{"facility":"Chung Nam National University Hospital","city":"Daejeon","zip":"35015","country":"Korea, Republic of","geoPoint":{"lat":36.32139,"lon":127.41972}},{"facility":"Chonnam National University Hospital","city":"Gwangju","zip":"501-757","country":"Korea, Republic of","geoPoint":{"lat":35.15472,"lon":126.91556}},{"facility":"Seoul National University Hospital","city":"Seoul","zip":"110-744","country":"Korea, Republic of","geoPoint":{"lat":37.566,"lon":126.9784}},{"facility":"Severance Hospital, Yonsei University Health System","city":"Seoul","zip":"3722","country":"Korea, Republic of","geoPoint":{"lat":37.566,"lon":126.9784}},{"facility":"Daugavpils Regional Hospital","city":"Daugavpils","zip":"LV-5417","country":"Latvia","geoPoint":{"lat":55.88333,"lon":26.53333}},{"facility":"Jelgava Outpatient Clinic","city":"Jelgava","zip":"LV-3001","country":"Latvia","geoPoint":{"lat":56.65,"lon":23.71278}},{"facility":"Liepaja Regional Hospital","city":"Liepaja","zip":"LV-3414","country":"Latvia","geoPoint":{"lat":56.51667,"lon":21.01667}},{"facility":"1st Riga Clinical Hospital","city":"Riga","zip":"LV-1001","country":"Latvia","geoPoint":{"lat":56.946,"lon":24.10589}},{"facility":"P. Stradins Clinical University Hospital","city":"Riga","zip":"LV-1002","country":"Latvia","geoPoint":{"lat":56.946,"lon":24.10589}},{"facility":"GK Neiroklinika","city":"Riga","zip":"LV-1024","country":"Latvia","geoPoint":{"lat":56.946,"lon":24.10589}},{"facility":"Gita Rancane - cardiology private practice","city":"Ventspils","zip":"LV-3601","country":"Latvia","geoPoint":{"lat":57.38988,"lon":21.57288}},{"facility":"UAB \"Klinikiniai sprendimai\" Alytus","city":"Alytus","zip":"LT-63200","country":"Lithuania","geoPoint":{"lat":54.39636,"lon":24.04143}},{"facility":"LUHS Kauno Hospital (Laisves ave.)","city":"Kaunas","zip":"LT-44320","country":"Lithuania","geoPoint":{"lat":54.90272,"lon":23.90961}},{"facility":"LUHS Kauno Hospital (Josvainiu str.)","city":"Kaunas","zip":"LT-47144","country":"Lithuania","geoPoint":{"lat":54.90272,"lon":23.90961}},{"facility":"Saules family medicine center","city":"Kaunas","zip":"LT-49449","country":"Lithuania","geoPoint":{"lat":54.90272,"lon":23.90961}},{"facility":"Klaipeda Seamen's Hospital","city":"Klaipeda","zip":"LT-92288","country":"Lithuania","geoPoint":{"lat":55.70888,"lon":21.14311}},{"facility":"Siauliai Republican hospital","city":"Siauliai","zip":"76231","country":"Lithuania","geoPoint":{"lat":55.93333,"lon":23.31667}},{"facility":"Vilnius University Hospital Santaros Klinikos","city":"Vilnius","zip":"LT-08661","country":"Lithuania","geoPoint":{"lat":54.68916,"lon":25.2798}},{"facility":"Institute Jantung Negara","city":"Kuala Lumpur","zip":"50400","country":"Malaysia","geoPoint":{"lat":3.1412,"lon":101.68653}},{"facility":"University Malaya Medical Centre","city":"Kuala Lumpur","zip":"59100","country":"Malaysia","geoPoint":{"lat":3.1412,"lon":101.68653}},{"facility":"Hospital Raja Permaisuri Bainun","city":"Perak","zip":"30450","country":"Malaysia"},{"facility":"Gleneagles Penang Medical Center","city":"Pulau Pinang","zip":"10050","country":"Malaysia","geoPoint":{"lat":3.55,"lon":102.56667}},{"facility":"Hospital Pulau Pinang","city":"Pulau Pinang","zip":"10450","country":"Malaysia","geoPoint":{"lat":3.55,"lon":102.56667}},{"facility":"Sarawak Heart Centre","city":"Sarawak","zip":"94300","country":"Malaysia"},{"facility":"Hospital Serdang","city":"Selangor","zip":"43000","country":"Malaysia"},{"facility":"Centro de Investigación Médica Dr. Alberto Bazzoni SA de CV","city":"Torreón","state":"Coahuila","zip":"27000","country":"Mexico","geoPoint":{"lat":25.54389,"lon":-103.41898}},{"facility":"Fundación de Atencion e Investigacion Medica Lindavista SC","city":"Alcaldia Gustavo A. Madero","state":"Distrito Federal","zip":"7300","country":"Mexico"},{"facility":"Hospital de Jesús","city":"Alcaldía Cuauhtemoc","state":"Distrito Federal","zip":"06090","country":"Mexico"},{"facility":"Hospital General de Acapulco","city":"Acapulco","state":"Guerrero","zip":"39910","country":"Mexico","geoPoint":{"lat":16.86336,"lon":-99.8901}},{"facility":"Consultorio de Medicina Especializada del Sector Privado","city":"Guadalajara","state":"Jalisco","zip":"44657","country":"Mexico","geoPoint":{"lat":20.66682,"lon":-103.39182}},{"facility":"Centro de Estudios Clinicos de Queretaro S. C. (CECLIQ)","city":"Queretaro","state":"Querétaro","zip":"76000","country":"Mexico"},{"facility":"Hospital Ángeles de Xalapa","city":"Xalapa","state":"Veracruz","zip":"91193","country":"Mexico","geoPoint":{"lat":19.53124,"lon":-96.91589}},{"facility":"Hospital Cardiologica Aguascalientes","city":"Aguascalientes","zip":"20230","country":"Mexico","geoPoint":{"lat":21.88234,"lon":-102.28259}},{"facility":"Centro de Investigacion y Atencion Integral Durango S.C.","city":"Durango","zip":"34080","country":"Mexico","geoPoint":{"lat":24.02032,"lon":-104.65756}},{"facility":"Ziekenhuis Groep Twente","city":"Almelo","zip":"7609 PP","country":"Netherlands","geoPoint":{"lat":52.35667,"lon":6.6625}},{"facility":"Tergooiziekenhuizen-Blaricum","city":"Blaricum","zip":"1261 AN","country":"Netherlands","geoPoint":{"lat":52.2725,"lon":5.24167}},{"facility":"Deventer Ziekenhuis","city":"Deventer","zip":"7416 SE","country":"Netherlands","geoPoint":{"lat":52.255,"lon":6.16389}},{"facility":"Slingeland Ziekenhuis","city":"Doetinchem","zip":"7009 BL","country":"Netherlands","geoPoint":{"lat":51.965,"lon":6.28889}},{"facility":"Ziekenhuis Gelderse Vallei","city":"EDE","zip":"6716 RP","country":"Netherlands","geoPoint":{"lat":52.03333,"lon":5.65833}},{"facility":"Catharina Ziekenhuis","city":"Eindhoven","zip":"5623 EJ","country":"Netherlands","geoPoint":{"lat":51.44083,"lon":5.47778}},{"facility":"Universitair Medisch Centrum Groningen","city":"Groningen","zip":"9700 RB","country":"Netherlands","geoPoint":{"lat":53.21917,"lon":6.56667}},{"facility":"Ziekenhuis St. Jansdal","city":"Harderwijk","zip":"3844 DG","country":"Netherlands","geoPoint":{"lat":52.34167,"lon":5.62083}},{"facility":"Maastricht UMC","city":"Maastricht","zip":"6229 HX","country":"Netherlands","geoPoint":{"lat":50.84833,"lon":5.68889}},{"facility":"Diaconessenhuis Meppel","city":"Meppel","zip":"7943 KA","country":"Netherlands","geoPoint":{"lat":52.69583,"lon":6.19444}},{"facility":"Antonius Ziekenhuis Sneek","city":"Sneek","zip":"8601 ZR","country":"Netherlands","geoPoint":{"lat":53.03297,"lon":5.6589}},{"facility":"Maxima Medisch Centrum, locatie Veldhoven","city":"Veldhoven","zip":"5504 DB","country":"Netherlands","geoPoint":{"lat":51.41833,"lon":5.40278}},{"facility":"University of Auckland","city":"Auckland","zip":"1023","country":"New Zealand","geoPoint":{"lat":-36.84853,"lon":174.76349}},{"facility":"Christchurch Heart Institute","city":"Christchurch","zip":"8140","country":"New Zealand","geoPoint":{"lat":-43.53333,"lon":172.63333}},{"facility":"Dunedin Hospital","city":"Dunedin","zip":"9016","country":"New Zealand","geoPoint":{"lat":-45.87416,"lon":170.50361}},{"facility":"P3 Research Ltd Hawkes Bay","city":"Hawkes Bay","zip":"4130","country":"New Zealand"},{"facility":"Hutt Hospital","city":"Lower Hutt","zip":"5010","country":"New Zealand","geoPoint":{"lat":-41.21667,"lon":174.91667}},{"facility":"Nelson Hospital","city":"Nelson","zip":"7042","country":"New Zealand","geoPoint":{"lat":-41.27078,"lon":173.28404}},{"facility":"P3 Research","city":"Tauranga","zip":"3110","country":"New Zealand","geoPoint":{"lat":-37.68611,"lon":176.16667}},{"facility":"MICS Centrum Medyczne Bydgoszcz","city":"Bydgoszcz","zip":"85-065","country":"Poland","geoPoint":{"lat":53.1235,"lon":18.00762}},{"facility":"KLIMED Marek Klimkiewicz","city":"Dzialki","zip":"96-315","country":"Poland","geoPoint":{"lat":52.06648,"lon":20.39414}},{"facility":"Uniwersyteckie Centrum Medycyny Morskiej i Tropikalnej","city":"Gdynia","country":"Poland","geoPoint":{"lat":54.51889,"lon":18.53188}},{"facility":"Samodzielny Publiczny Specjalistyczny Szpital Zachodni","city":"Grodzisk Mazowiecki","zip":"05 825","country":"Poland","geoPoint":{"lat":52.10387,"lon":20.6337}},{"facility":"CLINICAL MEDICAL RESEARCH Sp. z o. o.","city":"Katowice","zip":"40-156","country":"Poland","geoPoint":{"lat":50.25841,"lon":19.02754}},{"facility":"Unicardia Specjalistyczne Centrum Leczenia Ch.Serca i Naczyn","city":"Krakow","zip":"31-271","country":"Poland","geoPoint":{"lat":50.06143,"lon":19.93658}},{"facility":"IMEDICA Centrum Medyczne","city":"Lublin","zip":"20-068","country":"Poland","geoPoint":{"lat":51.25,"lon":22.56667}},{"facility":"NZOZ \"Twoja Przychodnia\" Sp. z o.o.","city":"Lublin","zip":"20-857","country":"Poland","geoPoint":{"lat":51.25,"lon":22.56667}},{"facility":"Zechowicz Medeusz-Plus Lekarska Spolka Partnerska","city":"Olsztyn","zip":"10-010","country":"Poland","geoPoint":{"lat":53.77995,"lon":20.49416}},{"facility":"Oswiecimskie Centrum Badan Klinicznych Medicome Sp. z o.o.","city":"Oswiecim","zip":"32-600","country":"Poland","geoPoint":{"lat":50.03437,"lon":19.21037}},{"facility":"Uniwersytecki Szpital Kliniczny w Poznaniu","city":"Poznan","zip":"61-848","country":"Poland","geoPoint":{"lat":52.40692,"lon":16.92993}},{"facility":"Szpital Specjalistyczny SPZOZ","city":"Pulawy","zip":"24-100","country":"Poland","geoPoint":{"lat":51.41655,"lon":21.96939}},{"facility":"NZOZ Pro-Cordis Sopockie Centrum Badan Kardiologicznych","city":"Sopot","zip":"81-717","country":"Poland","geoPoint":{"lat":54.4418,"lon":18.56003}},{"facility":"Twoja Przychodnia - Szczecinskie Centrum Medyczne","city":"Szczecin","zip":"71-434","country":"Poland","geoPoint":{"lat":53.42894,"lon":14.55302}},{"facility":"Gessek Jacek Prywatny Gabinet Lekarski","city":"Torun","zip":"87-100","country":"Poland","geoPoint":{"lat":53.01375,"lon":18.59814}},{"facility":"Hospital da Senhora da Oliveira | Clinical Research Department","city":"Guimaraes","state":"Braga","zip":"4835-044","country":"Portugal","geoPoint":{"lat":41.44443,"lon":-8.29619}},{"facility":"Centro Hospitalar Universitario Cova de Beira | Clinical Research Department","city":"Covilha","state":"Castelo Branco","zip":"6200-251","country":"Portugal","geoPoint":{"lat":40.28601,"lon":-7.50396}},{"facility":"ULSM - Hospital Pedro Hispano","city":"Matosinhos","state":"Porto","zip":"4464-513","country":"Portugal","geoPoint":{"lat":41.18207,"lon":-8.68908}},{"facility":"Hospital da Luz - Setubal","city":"Setubal","state":"Setúbal","zip":"2900-722","country":"Portugal","geoPoint":{"lat":38.5244,"lon":-8.8882}},{"facility":"Hospital Prof. Dr. Fernando Fonseca","city":"Amadora","zip":"2720-276","country":"Portugal","geoPoint":{"lat":38.75382,"lon":-9.23083}},{"facility":"BlueClinical | Centro Hospitalar Baixo Vouga - Unidade Aveiro - Gabinete de Ensaios Clinicos","city":"Aveiro","zip":"3810-501","country":"Portugal","geoPoint":{"lat":40.64427,"lon":-8.64554}},{"facility":"Centro Hospitalar e Universitario de Coimbra, E.P.E. | Department of Cardiology, Research Unit","city":"Coimbra","zip":"3004-561","country":"Portugal","geoPoint":{"lat":40.20564,"lon":-8.41955}},{"facility":"ULSG - Unidade Local de Saude da Guarda","city":"Guarda","zip":"6300-659","country":"Portugal","geoPoint":{"lat":40.53733,"lon":-7.26575}},{"facility":"Centro Hospitalar de Leiria | Santo Andre Hospital - Research Center","city":"Leiria","zip":"2410-197","country":"Portugal","geoPoint":{"lat":39.74362,"lon":-8.80705}},{"facility":"Centro Hospitalar de Lisboa Ocidental | Clin Res Dept","city":"Lisboa","zip":"1449-005","country":"Portugal","geoPoint":{"lat":38.71667,"lon":-9.13333}},{"facility":"Hospital da Luz - Lisboa","city":"Lisboa","zip":"1500-650","country":"Portugal","geoPoint":{"lat":38.71667,"lon":-9.13333}},{"facility":"Centro Hospitalar Universitario do Porto","city":"Porto","zip":"4099-001","country":"Portugal","geoPoint":{"lat":41.14961,"lon":-8.61099}},{"facility":"CMI. Dr. Podoleanu Cristian","city":"Targu Mures","state":"Mures","country":"Romania","geoPoint":{"lat":46.54245,"lon":24.55747}},{"facility":"Spitalul Clinic Municipal de Urgenta \"Timisoara\"","city":"Timisoara","state":"Timis","zip":"300040","country":"Romania","geoPoint":{"lat":45.75372,"lon":21.22571}},{"facility":"Sp. Judetean de Urgenta Dr. Constantin Opris Baia Mare","city":"Baia Mare","zip":"430031","country":"Romania","geoPoint":{"lat":47.65529,"lon":23.57381}},{"facility":"Emergency County Hospital, Braila","city":"Braila","zip":"810318","country":"Romania","geoPoint":{"lat":45.26667,"lon":27.98333}},{"facility":"S.C Thera Card S.R.L","city":"Brasov","country":"Romania","geoPoint":{"lat":45.64861,"lon":25.60613}},{"facility":"Emergency Institute for Cardiovascular Diseases","city":"Bucharest","zip":"022322","country":"Romania","geoPoint":{"lat":44.43225,"lon":26.10626}},{"facility":"Spitatul Universitar de Urgenta Bucuresti","city":"Bucharest","zip":"050098","country":"Romania","geoPoint":{"lat":44.43225,"lon":26.10626}},{"facility":"Emergency Institute for Cardiovascular Diseases","city":"Bucuresti","zip":"022322","country":"Romania","geoPoint":{"lat":44.42802,"lon":26.09665}},{"facility":"Spitalul Clinic de Urgenta \"Sf. Pantelimon\"","city":"Bucuresti","country":"Romania","geoPoint":{"lat":44.42802,"lon":26.09665}},{"facility":"Emergency Clinical County Hospital Craiova","city":"Craiova Dolj","zip":"200642","country":"Romania"},{"facility":"Sf. Ap. Andrei Emergency Clinical County Hospital Galati","city":"Galati","zip":"800578","country":"Romania","geoPoint":{"lat":45.45,"lon":28.05}},{"facility":"S.C. CARDIOMED S.R.L. Iasi","city":"Iasi","zip":"700732","country":"Romania","geoPoint":{"lat":47.16667,"lon":27.6}},{"facility":"S.C. Sal Med SRL","city":"Pitesti","country":"Romania","geoPoint":{"lat":44.85,"lon":24.86667}},{"facility":"S.C. Cardio Med S.R.L.","city":"Targu Mures","zip":"540124","country":"Romania","geoPoint":{"lat":46.54245,"lon":24.55747}},{"facility":"Municipal Clinical Emergency Hospital of Timisoara","city":"Timisoara","zip":"300079","country":"Romania","geoPoint":{"lat":45.75372,"lon":21.22571}},{"facility":"Timisoara Institute of Cardiovascular Diseases","city":"Timisoara","zip":"300310","country":"Romania","geoPoint":{"lat":45.75372,"lon":21.22571}},{"facility":"SBHI of Sverdlovsk Region Aramil City Hospital","city":"Aramil","zip":"624003","country":"Russian Federation","geoPoint":{"lat":56.6977,"lon":60.8369}},{"facility":"First City Clinical Hospital n.a. E.E. Volosevich","city":"Arkhangelsk","zip":"163001","country":"Russian Federation","geoPoint":{"lat":64.5401,"lon":40.5433}},{"facility":"Altai Regional Cardiological Dispensary","city":"Barnaul","zip":"656055","country":"Russian Federation","geoPoint":{"lat":53.36056,"lon":83.76361}},{"facility":"SBEI \"Chita State Medical Academy\"","city":"Chita","zip":"672000","country":"Russian Federation","geoPoint":{"lat":52.03171,"lon":113.50087}},{"facility":"Izhevsk City Clinical Hospital #9","city":"Izhevsk","zip":"426063","country":"Russian Federation","geoPoint":{"lat":56.84976,"lon":53.20448}},{"facility":"Kazan Federal University","city":"Kazan","zip":"420008","country":"Russian Federation","geoPoint":{"lat":55.78874,"lon":49.12214}},{"facility":"Clinical Diagnostic Center","city":"Kazan","zip":"420101","country":"Russian Federation","geoPoint":{"lat":55.78874,"lon":49.12214}},{"facility":"Sci-Res. Institute of Complex Cardiovascular Disorders","city":"Kemerovo","zip":"650002","country":"Russian Federation","geoPoint":{"lat":55.33333,"lon":86.08333}},{"facility":"Center of cardiology and neurology","city":"Kirov","zip":"610014","country":"Russian Federation","geoPoint":{"lat":58.59665,"lon":49.66007}},{"facility":"Research center of therapy and prophylactic medicine","city":"Moscow","zip":"101990","country":"Russian Federation","geoPoint":{"lat":55.75222,"lon":37.61556}},{"facility":"City clinical hospital n.a. V.V. Vinogradov","city":"Moscow","zip":"117292","country":"Russian Federation","geoPoint":{"lat":55.75222,"lon":37.61556}},{"facility":"Moscow State University n.a. M.V. Lomonosov","city":"Moscow","zip":"119192","country":"Russian Federation","geoPoint":{"lat":55.75222,"lon":37.61556}},{"facility":"City Clinical Hospital #51","city":"Moscow","zip":"121309","country":"Russian Federation","geoPoint":{"lat":55.75222,"lon":37.61556}},{"facility":"Russian Clinical and Research Center of Gerontology","city":"Moscow","zip":"129226","country":"Russian Federation","geoPoint":{"lat":55.75222,"lon":37.61556}},{"facility":"State Novosibirsk Regional Clinical Hospital","city":"Novosibirsk","zip":"630087","country":"Russian Federation","geoPoint":{"lat":55.0415,"lon":82.9346}},{"facility":"Omsk Region \"Clinical Health Unit No. 9\"","city":"Omsk","zip":"644018","country":"Russian Federation","geoPoint":{"lat":54.99244,"lon":73.36859}},{"facility":"Penza Regional Clinical Hospital n.a. N.N. Burdenko","city":"Penza","zip":"440026","country":"Russian Federation","geoPoint":{"lat":53.20066,"lon":45.00464}},{"facility":"Perm Regional Hospital for War Veterans","city":"Perm","zip":"614097","country":"Russian Federation","geoPoint":{"lat":58.01046,"lon":56.25017}},{"facility":"Rostov-on-Don Emergency Clinical Hospital","city":"Rostov-on-Don","zip":"344068","country":"Russian Federation","geoPoint":{"lat":47.23135,"lon":39.72328}},{"facility":"SBI of the Ryazan region \"Regional clinical hospital\"","city":"Ryazan","zip":"390039","country":"Russian Federation","geoPoint":{"lat":54.6269,"lon":39.6916}},{"facility":"Samara Regional Clinical Cardiology Dispensary n.a. Polyakov","city":"Samara","zip":"443070","country":"Russian Federation","geoPoint":{"lat":53.20007,"lon":50.15}},{"facility":"Clinical Hospital #3 n.a. S.R. Mirotvortsev","city":"Saratov","zip":"410054","country":"Russian Federation","geoPoint":{"lat":51.54056,"lon":46.00861}},{"facility":"Scien. Res. Inst. of Emergency Care n.a. I.I. Dzhanelidze","city":"St. Petersburg","zip":"192242","country":"Russian Federation","geoPoint":{"lat":59.93863,"lon":30.31413}},{"facility":"St. Petersburg Clinical Hospital of RAS","city":"St. Petersburg","zip":"194017","country":"Russian Federation","geoPoint":{"lat":59.93863,"lon":30.31413}},{"facility":"LLC Astarta","city":"St. Petersburg","zip":"199226","country":"Russian Federation","geoPoint":{"lat":59.93863,"lon":30.31413}},{"facility":"Scientific Research Institute of Cardiology","city":"Tomsk","zip":"634012","country":"Russian Federation","geoPoint":{"lat":56.49771,"lon":84.97437}},{"facility":"Tomsk Regional Clinical Hospital","city":"Tomsk","zip":"634063","country":"Russian Federation","geoPoint":{"lat":56.49771,"lon":84.97437}},{"facility":"Sverdlovsk Regional Clinical Hospital #1","city":"Yekaterinburg","zip":"620102","country":"Russian Federation","geoPoint":{"lat":56.8519,"lon":60.6122}},{"facility":"Stredoslovensky ustav srdcovych a cievnych chorob, a.s.","city":"Banska Bystrica","zip":"974 01","country":"Slovakia","geoPoint":{"lat":48.73946,"lon":19.15349}},{"facility":"ALIAN s.r.o.","city":"Bardejov","zip":"085 01","country":"Slovakia","geoPoint":{"lat":49.29175,"lon":21.27271}},{"facility":"Narodny ustav srdcovych a cievnych chorob, a.s","city":"Bratislava 37","zip":"833 48","country":"Slovakia","geoPoint":{"lat":48.14816,"lon":17.10674}},{"facility":"Nemocnica svateho Michala, a.s.","city":"Bratislava","zip":"811 08","country":"Slovakia","geoPoint":{"lat":48.14816,"lon":17.10674}},{"facility":"Univerzitna nemocnica Bratislava, Nemocnica Stare Mesto","city":"Bratislava","zip":"813 69","country":"Slovakia","geoPoint":{"lat":48.14816,"lon":17.10674}},{"facility":"Centrum interv. neuroradiologie a endovaskularnej liecby","city":"Bratislava","zip":"84103","country":"Slovakia","geoPoint":{"lat":48.14816,"lon":17.10674}},{"facility":"Kardiosanus | Bratislava, Slovakia","city":"Bratislava","zip":"84107","country":"Slovakia","geoPoint":{"lat":48.14816,"lon":17.10674}},{"facility":"Nemocnica s poliklinikou Brezno, n.o.","city":"Brezno","zip":"977 01","country":"Slovakia","geoPoint":{"lat":48.80431,"lon":19.63631}},{"facility":"Dolnooravska nemocnica s poliklinikou L. Nadasi Jegeho","city":"Dolny Kubin","zip":"026 14","country":"Slovakia","geoPoint":{"lat":49.20983,"lon":19.30341}},{"facility":"JG-COR s.r.o.","city":"Kosice","zip":"040 01","country":"Slovakia","geoPoint":{"lat":48.71395,"lon":21.25808}},{"facility":"Medical Group Kosice s.r.o. | Kosice, Slovakia","city":"Kosice","zip":"040 01","country":"Slovakia","geoPoint":{"lat":48.71395,"lon":21.25808}},{"facility":"KARDIO-ANGIO s.r.o.","city":"Levice","zip":"934 01","country":"Slovakia","geoPoint":{"lat":48.21563,"lon":18.60705}},{"facility":"KardioMed s.r.o.","city":"Lucenec","zip":"984 01","country":"Slovakia","geoPoint":{"lat":48.33249,"lon":19.66708}},{"facility":"MEDI M&M, s.r.o.","city":"Moldava nad Bodvou","zip":"045 01","country":"Slovakia","geoPoint":{"lat":48.61428,"lon":20.99957}},{"facility":"Kardiocentrum Nitra | Cardiology Clinic - Outpatient Department","city":"Nitra","zip":"94901","country":"Slovakia","geoPoint":{"lat":48.30763,"lon":18.08453}},{"facility":"KARDIOMED NZ s.r.o.","city":"Nove Zamky","zip":"940 01","country":"Slovakia","geoPoint":{"lat":47.98544,"lon":18.16195}},{"facility":"MEDISPOL s.r.o.","city":"Presov","zip":"080 01","country":"Slovakia","geoPoint":{"lat":48.99839,"lon":21.23393}},{"facility":"COR, s.r.o","city":"Sahy","zip":"936 01","country":"Slovakia","geoPoint":{"lat":48.07408,"lon":18.94946}},{"facility":"Medivasa s.r.o.","city":"Zilina","zip":"01001","country":"Slovakia","geoPoint":{"lat":49.22315,"lon":18.73941}},{"facility":"Complejo Hospitalario Universitario de Ferrol | Hospital Naval - Unidad de Hipertensión Arterial","city":"Ferrol","state":"A Coruña","zip":"15405","country":"Spain","geoPoint":{"lat":43.4896,"lon":-8.21942}},{"facility":"Hospital del Servei Valencià de Salud de la Vega Baja","city":"San Bartolomé","state":"Alicante","zip":"03314","country":"Spain","geoPoint":{"lat":29.00093,"lon":-13.613}},{"facility":"Hospital Central de Asturias","city":"Oviedo","state":"Asturias","zip":"33011","country":"Spain","geoPoint":{"lat":43.36029,"lon":-5.84476}},{"facility":"Hospital Universitari de Bellvitge | Bellvitge Biomedical Research Institute - Cardiology - AF, Stroke Prevention","city":"L'Hospitalet de Llobregat","state":"Barcelona","zip":"08907","country":"Spain","geoPoint":{"lat":41.35967,"lon":2.10028}},{"facility":"Hospital Santa María del Puerto","city":"El Puerto de Santa María","state":"Cádiz","zip":"11500","country":"Spain","geoPoint":{"lat":36.59389,"lon":-6.23298}},{"facility":"Jose Manuel Pascual Pascual S.A. | Hospital Virgen del Camino - Internal Medicine Department","city":"Sanlucar de Barrameda","state":"Cádiz","zip":"11540","country":"Spain","geoPoint":{"lat":36.77808,"lon":-6.3515}},{"facility":"Jose Manuel Pascual Pascual S.A. | Hospital Virgen de las Montanas - Internal Medicine Department","city":"Villamartin","state":"Cádiz","zip":"11650","country":"Spain","geoPoint":{"lat":36.85979,"lon":-5.64485}},{"facility":"Hospital Dr. Negrín","city":"Las Palmas de Gran Canaria","state":"Las Palmas","zip":"35020","country":"Spain","geoPoint":{"lat":28.09973,"lon":-15.41343}},{"facility":"Hospital Universitario Virgen de la Victoria | Cardiology Department","city":"Malaga","state":"Málaga","zip":"29010","country":"Spain","geoPoint":{"lat":36.72016,"lon":-4.42034}},{"facility":"Hospital Alta Resolucion de Utrera | Cardiology Service Department","city":"Utrera","state":"Sevilla","zip":"41710","country":"Spain","geoPoint":{"lat":37.18516,"lon":-5.78093}},{"facility":"Hospital San Rafael","city":"A Coruña","zip":"15006","country":"Spain","geoPoint":{"lat":43.37135,"lon":-8.396}},{"facility":"Hospital del Mar","city":"Barcelona","zip":"08003","country":"Spain","geoPoint":{"lat":41.38879,"lon":2.15899}},{"facility":"Ciutat Sanitaria i Universitaria de la Vall d'Hebron","city":"Barcelona","zip":"08035","country":"Spain","geoPoint":{"lat":41.38879,"lon":2.15899}},{"facility":"Hospital Universitario Virgen de las Nieves|Cardiologia","city":"Granada","zip":"18014","country":"Spain","geoPoint":{"lat":37.18817,"lon":-3.60667}},{"facility":"Hospital Universitario Arnau de Vilanova de Lleida","city":"Lleida","zip":"25198","country":"Spain","geoPoint":{"lat":41.61674,"lon":0.62218}},{"facility":"Hospital Sanitas La Zarzuela | Cardiologia","city":"Madrid","zip":"28023","country":"Spain","geoPoint":{"lat":40.4165,"lon":-3.70256}},{"facility":"Hospital Ramón y Cajal | Medicina Interna","city":"Madrid","zip":"28034","country":"Spain","geoPoint":{"lat":40.4165,"lon":-3.70256}},{"facility":"Hospital Universitario 12 de Octubre","city":"Madrid","zip":"28041","country":"Spain","geoPoint":{"lat":40.4165,"lon":-3.70256}},{"facility":"Complejo Hospitalario Ntra. Sra. de Valme","city":"Sevilla","zip":"41014","country":"Spain","geoPoint":{"lat":37.38283,"lon":-5.97317}},{"facility":"Hospital Clínico Universitario de Valencia","city":"Valencia","zip":"46010","country":"Spain","geoPoint":{"lat":39.46975,"lon":-0.37739}},{"facility":"Hospital General Universitario de Valencia","city":"Valencia","zip":"46014","country":"Spain","geoPoint":{"lat":39.46975,"lon":-0.37739}},{"facility":"La Fe University and Polytechnic Hospital | Cardiology Department","city":"Valencia","zip":"46026","country":"Spain","geoPoint":{"lat":39.46975,"lon":-0.37739}},{"facility":"Hospital de Manises","city":"Valencia","zip":"46940","country":"Spain","geoPoint":{"lat":39.46975,"lon":-0.37739}},{"facility":"Kaohsiung Medical University Chung-Ho Memorial Hospital","city":"Kaohsiung City","state":"Kaohsiung","zip":"807377","country":"Taiwan","geoPoint":{"lat":22.61626,"lon":120.31333}},{"facility":"Changhua Christian Hospital","city":"Changhua","zip":"50006","country":"Taiwan","geoPoint":{"lat":24.07327,"lon":120.56276}},{"facility":"Mackay Memorial Hospital - Hsinchu Branch","city":"Hsinchu","zip":"300","country":"Taiwan","geoPoint":{"lat":24.80361,"lon":120.96861}},{"facility":"Taichung Veterans General Hospital","city":"Taichung","zip":"1650","country":"Taiwan","geoPoint":{"lat":24.1469,"lon":120.6839}},{"facility":"National Taiwan University Hospital","city":"Taipei","zip":"100","country":"Taiwan","geoPoint":{"lat":25.04776,"lon":121.53185}},{"facility":"Taipei Medical University Hospital","city":"Taipei","zip":"110","country":"Taiwan","geoPoint":{"lat":25.04776,"lon":121.53185}},{"facility":"Taipei Veterans General Hospital","city":"Taipei","zip":"11217","country":"Taiwan","geoPoint":{"lat":25.04776,"lon":121.53185}},{"facility":"Chang Gung Memorial Hospital at Linkou","city":"Tao-Yuan","zip":"333","country":"Taiwan"},{"facility":"Afyonkarahisar Saglik Bilimleri Universitesi","city":"Afyonkarahisar","zip":"03218","country":"Turkey","geoPoint":{"lat":38.75667,"lon":30.54333}},{"facility":"Saglik Bilimleri Universitesi Antalya EA Hastanesi","city":"Antalya","zip":"7100","country":"Turkey","geoPoint":{"lat":36.90812,"lon":30.69556}},{"facility":"Trakya Univ. Tip Fak.","city":"Edirne","zip":"22030","country":"Turkey","geoPoint":{"lat":41.67719,"lon":26.55597}},{"facility":"Eskisehir Osmangazi Universitesi Tip Fakultesi","city":"Eskisehir","zip":"26480","country":"Turkey","geoPoint":{"lat":39.77667,"lon":30.52056}},{"facility":"Istanbul Universitesi Cerrahpasa-Cerrahpasa Tip Fakultesi","city":"Istanbul","zip":"34098","country":"Turkey","geoPoint":{"lat":41.01384,"lon":28.94966}},{"facility":"Istanbul Universitesi Kardiyoloji Enstitusu","city":"Istanbul","zip":"34304","country":"Turkey","geoPoint":{"lat":41.01384,"lon":28.94966}},{"facility":"Istanbul Mehmet Akif Ersoy Gogus Kalp Damar Cerrahisi E.A.H.","city":"Istanbul","country":"Turkey","geoPoint":{"lat":41.01384,"lon":28.94966}},{"facility":"Dokuz Eylul Universitesi Tip Fakultesi","city":"Izmir","zip":"35100","country":"Turkey","geoPoint":{"lat":38.41273,"lon":27.13838}},{"facility":"Erciyes Universitesi Tip Fakultesi","city":"Kayseri","zip":"38039","country":"Turkey","geoPoint":{"lat":38.73222,"lon":35.48528}},{"facility":"Kocaeli Universitesi Tip Fakultesi","city":"Kocaeli","zip":"41380","country":"Turkey","geoPoint":{"lat":39.62497,"lon":27.51145}},{"facility":"Necmettin Erbakan Universitesi Meram Tip Fakultesi Hastanesi","city":"Konya","zip":"42080","country":"Turkey","geoPoint":{"lat":37.87135,"lon":32.48464}},{"facility":"Kutahya Saglik Bilimleri Uni. Evliya Celebi Egitim ve Arasti","city":"Kutahya","zip":"43040","country":"Turkey","geoPoint":{"lat":39.42417,"lon":29.98333}},{"facility":"Mersin Universitesi Tip Fakultesi","city":"Mersin","zip":"33079","country":"Turkey","geoPoint":{"lat":36.79526,"lon":34.61792}},{"facility":"Cherkasy Regional Cardiological Center","city":"Cherkasy","zip":"18009","country":"Ukraine","geoPoint":{"lat":49.42854,"lon":32.06207}},{"facility":"\"Clinical Emergency Hospital\" of Dnipro City Council","city":"Dnipro","zip":"49006","country":"Ukraine","geoPoint":{"lat":48.4593,"lon":35.03864}},{"facility":"National Institute of Therapy named after L.T.Maloyi","city":"Kharkiv","zip":"61039","country":"Ukraine","geoPoint":{"lat":49.98081,"lon":36.25272}},{"facility":"Regional Dispensary of Radiation Protection of Population","city":"Kharkiv","zip":"61166","country":"Ukraine","geoPoint":{"lat":49.98081,"lon":36.25272}},{"facility":"Miska Klinichna likarnya No 8","city":"Kharkiv","zip":"61176","country":"Ukraine","geoPoint":{"lat":49.98081,"lon":36.25272}},{"facility":"City Clinical Hospital # 1","city":"Kiev","zip":"02 091","country":"Ukraine","geoPoint":{"lat":50.45466,"lon":30.5238}},{"facility":"Institute of Cardiology AMS","city":"Kiev","zip":"03680","country":"Ukraine","geoPoint":{"lat":50.45466,"lon":30.5238}},{"facility":"Medbud-Clinic LLC","city":"Kyiv","zip":"03037","country":"Ukraine","geoPoint":{"lat":50.45466,"lon":30.5238}},{"facility":"Railway Clinical Hospital #2","city":"Kyiv","zip":"03049","country":"Ukraine","geoPoint":{"lat":50.45466,"lon":30.5238}},{"facility":"LLC Medical Centre CONSILIUM MEDICAL","city":"Kyiv","zip":"04050","country":"Ukraine","geoPoint":{"lat":50.45466,"lon":30.5238}},{"facility":"Lviv regional clinical medical & diagnostic cardiology cente","city":"Lviv","zip":"79015","country":"Ukraine","geoPoint":{"lat":49.83826,"lon":24.02324}},{"facility":"Poltava Regional Clinical Hospital n.a. M.V. Skliphosovskyi","city":"Poltava","zip":"36011","country":"Ukraine","geoPoint":{"lat":49.59373,"lon":34.54073}},{"facility":"Zakarpatsky Oblasnyi Kardiologichnyi Dyspanser","city":"Uzhgorod","zip":"880000","country":"Ukraine","geoPoint":{"lat":48.61667,"lon":22.3}},{"facility":"Vinnytsia City Clinical Hospital #1","city":"Vinnytsia","zip":"21029","country":"Ukraine","geoPoint":{"lat":49.23278,"lon":28.48097}},{"facility":"Regional Clinical Hospital - Vinnytsya","city":"Vinnytsya","zip":"21018","country":"Ukraine","geoPoint":{"lat":49.23278,"lon":28.48097}},{"facility":"Regional medical center of cardio-vascular disease","city":"Zaporizhzhja","zip":"69005","country":"Ukraine"},{"facility":"Zaporizhia Municipal Clinical Hospital No.10","city":"Zaporizhzhya","zip":"69001","country":"Ukraine","geoPoint":{"lat":50.60727,"lon":31.78792}},{"facility":"Zaporizhzhya City Emergency Care Hospital","city":"Zaporizhzhya","zip":"69005","country":"Ukraine","geoPoint":{"lat":50.60727,"lon":31.78792}},{"facility":"Communal Institution Central City Hospital 1 of Zhytomyr","city":"Zhytomyr","zip":"10002","country":"Ukraine","geoPoint":{"lat":50.26487,"lon":28.67669}},{"facility":"Royal Bournemouth General Hospital","city":"Bournemouth","state":"Dorset","zip":"BH7 7DW","country":"United Kingdom","geoPoint":{"lat":50.72048,"lon":-1.8795}},{"facility":"Poole Hospital NHS Trust","city":"Poole","state":"Dorset","zip":"BH15 2JB","country":"United Kingdom","geoPoint":{"lat":50.71429,"lon":-1.98458}},{"facility":"Queen Elizabeth University Hospital","city":"Glasgow","state":"Glasgow City","zip":"G51 4TF","country":"United Kingdom","geoPoint":{"lat":55.86515,"lon":-4.25763}},{"facility":"North Hampshire Hospital","city":"Basingstoke","state":"Hampshire","zip":"RG24 9NA","country":"United Kingdom","geoPoint":{"lat":51.26249,"lon":-1.08708}},{"facility":"Lister Hospital","city":"Stevenage","state":"Hertfordshire","zip":"SG1 4AB","country":"United Kingdom","geoPoint":{"lat":51.90224,"lon":-0.20256}},{"facility":"Blackpool Victoria Hospital","city":"Blackpool","state":"Lancashire","zip":"FY3 8NR","country":"United Kingdom","geoPoint":{"lat":53.81667,"lon":-3.05}},{"facility":"University Hospitals Leicester","city":"Leicester","state":"Leicestershire","zip":"LE3 9QP","country":"United Kingdom","geoPoint":{"lat":52.6386,"lon":-1.13169}},{"facility":"Wansbeck General Hospital","city":"Ashington","state":"Northumberland","zip":"NE63 9JJ","country":"United Kingdom","geoPoint":{"lat":55.17714,"lon":-1.5642}},{"facility":"Russells Hall Hospital","city":"Dudley","state":"West Midlands","zip":"DY1 2HQ","country":"United Kingdom","geoPoint":{"lat":52.5,"lon":-2.08333}},{"facility":"St Richard's Hospital","city":"Chichester","state":"West Sussex","zip":"PO19 6SE","country":"United Kingdom","geoPoint":{"lat":50.83673,"lon":-0.78003}},{"facility":"Castle Hill Hospital","city":"Cottingham","zip":"HU16 5JQ","country":"United Kingdom","geoPoint":{"lat":52.50243,"lon":-0.7554}},{"facility":"Glasgow Royal Infirmary | Glasgow Clinical Research Facility","city":"Glasgow","zip":"G31 2ER","country":"United Kingdom","geoPoint":{"lat":55.86515,"lon":-4.25763}},{"facility":"Manchester Royal Infirmary","city":"Manchester","zip":"M13 9WL","country":"United Kingdom","geoPoint":{"lat":53.48095,"lon":-2.23743}},{"facility":"Great Western Hospital","city":"Swindon","zip":"SN3 6BB","country":"United Kingdom","geoPoint":{"lat":51.55797,"lon":-1.78116}}]},"ipdSharingStatementModule":{"ipdSharing":"NO","description":"Availability of this study's data will later be determined according to Bayer's commitment to the EFPIA/PhRMA \"Principles for responsible clinical trial data sharing\". This pertains to scope, timepoint and process of data access. As such, Bayer commits to sharing upon request from qualified researchers patient-level clinical trial data, study-level clinical trial data, and protocols from clinical trials in patients for medicines and indications approved in the US and EU as necessary for conducting legitimate research. This applies to data on new medicines and indications that have been approved by the EU and US regulatory agencies on or after January 01, 2014.\n\nInterested researchers can use www.vivli.org to request access to anonymized patient-level data and supporting documents from clinical studies to conduct research. Information on the Bayer criteria for listing studies and other relevant information is provided in the member section of the portal."}},"derivedSection":{"miscInfoModule":{"versionHolder":"2024-02-14"},"conditionBrowseModule":{"meshes":[{"id":"D000006333","term":"Heart Failure"}],"ancestors":[{"id":"D000006331","term":"Heart Diseases"},{"id":"D000002318","term":"Cardiovascular Diseases"}],"browseLeaves":[{"id":"M21996","name":"Stroke","relevance":"LOW"},{"id":"M9111","name":"Heart Failure","asFound":"Heart Failure","relevance":"HIGH"},{"id":"M6535","name":"Death","relevance":"LOW"},{"id":"M9109","name":"Heart Diseases","relevance":"LOW"}],"browseBranches":[{"abbrev":"BC10","name":"Nervous System Diseases"},{"abbrev":"BC14","name":"Heart and Blood Diseases"},{"abbrev":"All","name":"All Conditions"},{"abbrev":"BC23","name":"Symptoms and General Pathology"}]},"interventionBrowseModule":{"browseLeaves":[{"id":"M3487","name":"Mineralocorticoid Receptor Antagonists","relevance":"LOW"},{"id":"M11561","name":"Mineralocorticoids","relevance":"LOW"}],"browseBranches":[{"abbrev":"All","name":"All Drugs and Chemicals"}]}},"hasResults":false}