{"protocolSection":{"identificationModule":{"nctId":"NCT06055725","orgStudyIdInfo":{"id":"CLIN-52120-458"},"organization":{"fullName":"Ipsen","class":"INDUSTRY"},"briefTitle":"A Study to Estimate How Often Post-stroke Spasticity Occurs and to Provide a Standard Guideline on the Best Way to Monitor Its Development","officialTitle":"A Prospective, Multicountry Study to Estimate the Incidence of and Provide a Best Practice Model for Monitoring the Development of Post-Stroke Spasticity","acronym":"EPITOME"},"statusModule":{"statusVerifiedDate":"2024-01","overallStatus":"RECRUITING","expandedAccessInfo":{"hasExpandedAccess":false},"startDateStruct":{"date":"2023-11-01","type":"ACTUAL"},"primaryCompletionDateStruct":{"date":"2027-01-01","type":"ESTIMATED"},"completionDateStruct":{"date":"2027-01-01","type":"ESTIMATED"},"studyFirstSubmitDate":"2023-09-20","studyFirstSubmitQcDate":"2023-09-20","studyFirstPostDateStruct":{"date":"2023-09-28","type":"ACTUAL"},"lastUpdateSubmitDate":"2024-01-30","lastUpdatePostDateStruct":{"date":"2024-01-31","type":"ACTUAL"}},"sponsorCollaboratorsModule":{"responsibleParty":{"type":"SPONSOR"},"leadSponsor":{"name":"Ipsen","class":"INDUSTRY"}},"oversightModule":{"isFdaRegulatedDrug":false,"isFdaRegulatedDevice":false},"descriptionModule":{"briefSummary":"This study will monitor patients during the first year following their stroke.\n\nStroke is a very serious condition where there is a sudden interruption of blood flow in the brain.\n\nThe main aim of the study will be to find out how many of those who experience their first-ever stroke then go on to develop spasticity that would benefit from treatment with medication.\n\nSpasticity is a common post-stroke condition that causes stiff or ridged muscles.\n\nThe results of this study will provide a standard guideline on the best way to monitor the development of post-stroke spasticity."},"conditionsModule":{"conditions":["Spasticity as Sequela of Stroke"]},"designModule":{"studyType":"OBSERVATIONAL","patientRegistry":false,"designInfo":{"observationalModel":"COHORT","timePerspective":"PROSPECTIVE"},"enrollmentInfo":{"count":1051,"type":"ESTIMATED"}},"outcomesModule":{"primaryOutcomes":[{"measure":"Percentage of participants at the Clinical Confirmation Visit (CCV) who have problematic spasticity and who the investigator considers would benefit from pharmacological therapy","description":"This is based on the investigator's clinical judgement and could include spasticity characterised by any of the following criteria aligned with the World Health Organization International Classification of Functioning, Disability and Health in three dimensions: Impairment, Activity limitations \\& Restriction on participation.","timeFrame":"At the Clinical Confirmation Visit (CCV) up to maximum 18 months"}],"secondaryOutcomes":[{"measure":"Distribution of National Institutes of Health Stroke Scale (NIHSS) scores","description":"Including description of score for each physical item (arm and leg motor scores) and total physical item score National Institutes of Health Stroke Scale (NIHSS) is a 15-item impairment scale, intended to evaluate neurologic outcome and degree of recovery for patients with stroke. The scale assesses level of consciousness, extraocular movements, visual fields, facial muscle function, extremity strength, sensory function, coordination (ataxia), language (aphasia), speech (dysarthria), and hemi-inattention (neglect) (Lyden, Lu, \\& Jackson, 1999; Lyden, Lu, \\& Levine, 2001). The higher the NIHSS score the worse the outcome for the participant. If the participant has a score greater than '0' they will satisfy Inclusion Criteria number 3.","timeFrame":"At enrollment"},{"measure":"Percentage of participants who develop signs of possible spasticity","timeFrame":"At Week 2, Month 1, Month 2, and every 3 months up to Month 12."},{"measure":"Percentage of participants who develop clinically confirmed spasticity","timeFrame":"Week 2 to Month 14"},{"measure":"Time from first ever stroke to detection of signs of possible spasticity","timeFrame":"Week 2 to Month12"},{"measure":"Time from first ever stroke to onset of clinically confirmed spasticity","timeFrame":"Week 2 to Month 14"},{"measure":"Time from first-ever stroke to onset of clinically confirmed problematic spasticity","timeFrame":"Week 2 to Month 18"},{"measure":"Description of signs of possible spasticity from the Post-stroke Spasticity Monitoring Questionnaire (PSMQ)","description":"Post-stroke Spasticity Monitoring Questionnaire (PSMQ) is a modified version (in local language) of a published 13-item patient reported screening questionnaire designed as a practical, easy-to-use tool to enable health care providers to identify patients with spasticity in need of treatment in routine clinical practice. The PSMQ will have an additional (14th) question for the participant to answer only if he/she has a total score for the first 13 questions of \\> 0 and has given an identical pattern of responses for any previously answered questionnaire which led to a F2F visit where a result of Modified Ashworth Scale (MAS) = 0 was obtained. The higher the PSMQ or MAS score is the worse the outcome for the participant.","timeFrame":"At Week 2, Month 1, Month 2, and every 3 months up to Month 12."},{"measure":"MAS distribution at the CCV (overall and distribution by timing post-stroke)","timeFrame":"Week 2 to Month 14"},{"measure":"Distribution of spasticity (arm/leg, unilateral/bilateral, affected muscle groups) at the CCV","timeFrame":"Week 2 to Month 14"},{"measure":"Severity of spasticity by Modified Ashworth Scale (MAS) at the CCV","timeFrame":"Week 2 to Month 14"},{"measure":"MAS distribution (overall and distribution by timing post stroke) at the CCV","description":"MAS score per joint/muscle group and MAS total score by limb","timeFrame":"At Week 2, Month 1, Month 2, and every 3 months up to Month 14."},{"measure":"MAS distribution of problematic spasticity at the CCV (overall and distribution by timing post-stroke)","timeFrame":"Week 2 to Month 18"},{"measure":"Distribution of problematic spasticity (arm/leg, unilateral/bilateral, affected muscle groups) Severity of problematic spasticity by MAS at the CCV","timeFrame":"Week 2 to Month 18"},{"measure":"Distribution of 36-Item Short-form Health Survey (SF-36) quality of life questionnaire scores in participants with clinically confirmed spasticity[c] at the CCV","description":"Participants with clinically confirmed spasticity (MAS \\> 0 in any muscle group of arm and/or leg) at the CCV will be asked to complete the SF-36 health survey to assess their general health and wellbeing. The SF-36 is a generic, multipurpose short form survey consisting of 36 questions. Most of the questions are answered based on how the participant has been feeling over the previous 4 weeks.","timeFrame":"Week 2 to Month 14"},{"measure":"Percentage of participants who develop problematic spasticity at the time of the confirmed diagnosis of spasticity at CCV","timeFrame":"Week 2 to Month 14"},{"measure":"Percentage of participants who develop problematic spasticity","timeFrame":"At CCV and 4 months after the CCV"},{"measure":"Stroke types","description":"In terms of side (Left/Right), aetiology (Ischaemic/Haemorrhagic), and Bamford/Oxford classification (Total Anterior Circulation (TAC), Partial Anterior Circulation (PAC), Lacunar syndrome (LAC), Posterior Circulation syndrome (POC)).","timeFrame":"Week 2 to Month 14"}]},"eligibilityModule":{"eligibilityCriteria":"Inclusion Criteria:\n\n* Participant must be aged 18 to 85 years at the time of providing informed consent\n* First-ever clinical stroke, defined according to World Health Organization criteria as rapidly developing clinical signs of focal (at times global) disturbance of cerebral function lasting more than 24 hours, within the past 4 weeks;\n* Confirmed paresis of the arms and/or legs which does not resolve within 1 day, according to the NIHSS score (a score of \\> 0 on Question 5 or 6 of the scale) within 2 weeks after the stroke\n* Capable of giving informed consent which includes compliance with the requirements and restrictions listed in the ICF and in this protocol\n\nExclusion Criteria:\n\n* Upper or lower extremity functional impairment prior to stroke per investigator judgement (e.g., modified Rankin Scale \\>2);\n* Presence of significant/major neurological impairment that might affect muscle tone (other than limb paresis);\n* Severe multi-impairment or diminished physical condition before stroke that could have caused paresis/spasticity/motor deficit per investigator judgement;\n* Life expectancy of less than 12 months as a result of severity of stroke or other illnesses (e.g. cardiac disease, malignancy, etc.)\n* Participation in any interventional study","healthyVolunteers":true,"sex":"ALL","minimumAge":"18 Years","maximumAge":"85 Years","stdAges":["ADULT","OLDER_ADULT"],"studyPopulation":"The Main Population will be participants aged 18 to 85 years with confirmed paresis within 2 weeks of a first-ever clinical stroke that has occurred within the past 6 weeks","samplingMethod":"NON_PROBABILITY_SAMPLE"},"contactsLocationsModule":{"centralContacts":[{"name":"Ipsen Clinical Study Enquiries","role":"CONTACT","phone":"See e mail","email":"clinical.trials@ipsen.com"}],"overallOfficials":[{"name":"Ipsen Medical Director","affiliation":"Ipsen","role":"STUDY_DIRECTOR"}],"locations":[{"facility":"University Of California, Los Angeles Medical Center","status":"NOT_YET_RECRUITING","city":"Los Angeles","state":"California","zip":"90095","country":"United States","geoPoint":{"lat":34.05223,"lon":-118.24368}},{"facility":"Emory University Merge","status":"NOT_YET_RECRUITING","city":"Atlanta","state":"Georgia","zip":"30329-2206","country":"United States","geoPoint":{"lat":33.749,"lon":-84.38798}},{"facility":"Medstar Health Research Institute, Inc","status":"ACTIVE_NOT_RECRUITING","city":"Hyattsville","state":"Maryland","zip":"20782","country":"United States","geoPoint":{"lat":38.95594,"lon":-76.94553}},{"facility":"Spaulding Rehabilitation Hospital","status":"RECRUITING","city":"Boston","state":"Massachusetts","zip":"02129","country":"United States","geoPoint":{"lat":42.35843,"lon":-71.05977}},{"facility":"Mayo Clinic","status":"NOT_YET_RECRUITING","city":"Rochester","state":"Minnesota","zip":"55905","country":"United States","geoPoint":{"lat":44.02163,"lon":-92.4699}},{"facility":"Methodist Physicians Clinic","status":"RECRUITING","city":"Omaha","state":"Nebraska","zip":"68114","country":"United States","contacts":[{"name":"Methodist P Clinic","role":"CONTACT"}],"geoPoint":{"lat":41.25626,"lon":-95.94043}},{"facility":"Duke University School of Medicine","status":"NOT_YET_RECRUITING","city":"Durham","state":"North Carolina","zip":"27705","country":"United States","geoPoint":{"lat":35.99403,"lon":-78.89862}},{"facility":"Moss Rehab","status":"NOT_YET_RECRUITING","city":"Elkins Park","state":"Pennsylvania","zip":"19027","country":"United States","geoPoint":{"lat":40.07706,"lon":-75.12684}},{"facility":"The University Of Texas Southwestern Medical Center","status":"NOT_YET_RECRUITING","city":"Dallas","state":"Texas","zip":"75390-8869","country":"United States","geoPoint":{"lat":32.78306,"lon":-96.80667}},{"facility":"The University of Texas Health Science Center","status":"NOT_YET_RECRUITING","city":"San Antonio","state":"Texas","zip":"78229","country":"United States","geoPoint":{"lat":29.42412,"lon":-98.49363}},{"facility":"University Of Utah","status":"NOT_YET_RECRUITING","city":"Salt Lake City","state":"Utah","zip":"84112","country":"United States","geoPoint":{"lat":40.76078,"lon":-111.89105}},{"facility":"Medical College of Wisconsin","status":"NOT_YET_RECRUITING","city":"Milwaukee","state":"Wisconsin","zip":"53226","country":"United States","geoPoint":{"lat":43.0389,"lon":-87.90647}},{"facility":"CHU Bordeaux-Hopital Pellegrin","status":"NOT_YET_RECRUITING","city":"Bordeaux","zip":"33076","country":"France","geoPoint":{"lat":44.84044,"lon":-0.5805}},{"facility":"CHU de Caen","status":"ACTIVE_NOT_RECRUITING","city":"Caen","zip":"14033","country":"France","geoPoint":{"lat":49.18585,"lon":-0.35912}},{"facility":"CHU de Rennes, Hopital de Pontchaillou","status":"RECRUITING","city":"Rennes","zip":"35033","country":"France","geoPoint":{"lat":48.11198,"lon":-1.67429}},{"facility":"Hospices Civils de Lyon (HCL) - Hopital Henry Gabrielle","status":"RECRUITING","city":"Saint-Genis-Laval","zip":"69230","country":"France","geoPoint":{"lat":45.69558,"lon":4.7934}},{"facility":"Universitaetsklinikum Essen","status":"NOT_YET_RECRUITING","city":"Essen","zip":"45147","country":"Germany","geoPoint":{"lat":51.45657,"lon":7.01228}},{"facility":"Universitaetsklinikum Schleswig-Holstein, UKSH-Campus Kiel","status":"NOT_YET_RECRUITING","city":"Kiel","zip":"24105","country":"Germany","geoPoint":{"lat":54.32133,"lon":10.13489}},{"facility":"Universitaetsklinikum Schleswig-Holstein Campus Luebeck","status":"ACTIVE_NOT_RECRUITING","city":"Luebeck","zip":"23562","country":"Germany","geoPoint":{"lat":53.86893,"lon":10.68729}},{"facility":"Universitaetsmedizin der Johannes - Gutenberg Universitaet Mainz","status":"NOT_YET_RECRUITING","city":"Mainz","zip":"55131","country":"Germany","geoPoint":{"lat":49.98419,"lon":8.2791}},{"facility":"Azienda Ospedaliero Universitaria OO RR di Foggia","status":"NOT_YET_RECRUITING","city":"Foggia","zip":"71100","country":"Italy","geoPoint":{"lat":41.45845,"lon":15.55188}},{"facility":"AOU maggiore della Carita'","status":"NOT_YET_RECRUITING","city":"Novara","zip":"28100","country":"Italy","geoPoint":{"lat":45.44694,"lon":8.62118}},{"facility":"AOU San giovanni di Dio e Ruggi d'aragona Univ. di Salerno","status":"NOT_YET_RECRUITING","city":"Salerno","zip":"84131","country":"Italy","geoPoint":{"lat":40.67545,"lon":14.79328}},{"facility":"Neurological Rehabilitation Unit- Policlinico Borgo Roma.","status":"NOT_YET_RECRUITING","city":"Verona","zip":"37134","country":"Italy","geoPoint":{"lat":45.4299,"lon":10.98444}},{"facility":"Hospital Mutua De Terrassa","status":"NOT_YET_RECRUITING","city":"Barcelona","zip":"08221","country":"Spain","geoPoint":{"lat":41.38879,"lon":2.15899}},{"facility":"Hospital Universitario La Paz","status":"NOT_YET_RECRUITING","city":"Madrid","zip":"28046","country":"Spain","geoPoint":{"lat":40.4165,"lon":-3.70256}},{"facility":"Hospital Universitario Virgen del Rocio","status":"NOT_YET_RECRUITING","city":"Sevilla","zip":"41013","country":"Spain","geoPoint":{"lat":37.38283,"lon":-5.97317}},{"facility":"Complexo Hospitalario Universitario De Vigo - Hospital Do Mexoeiro","status":"ACTIVE_NOT_RECRUITING","city":"Vigo","zip":"36200","country":"Spain","geoPoint":{"lat":42.23282,"lon":-8.72264}},{"facility":"Sodra Alvsborgs Sjukhus","status":"NOT_YET_RECRUITING","city":"Borås","zip":"50455","country":"Sweden","geoPoint":{"lat":57.72101,"lon":12.9401}},{"facility":"Skane University Hospital","status":"NOT_YET_RECRUITING","city":"Malmö","zip":"20502","country":"Sweden","geoPoint":{"lat":55.60587,"lon":13.00073}},{"facility":"Karnsjukhuset Skaraborg","status":"NOT_YET_RECRUITING","city":"Skövde","zip":"54185","country":"Sweden","geoPoint":{"lat":58.39118,"lon":13.84506}},{"facility":"Angelholm Northern Hospital","status":"ACTIVE_NOT_RECRUITING","city":"Ängelholm","zip":"26281","country":"Sweden","geoPoint":{"lat":56.2428,"lon":12.8622}},{"facility":"University Hospitals of Leicester NHS Trust - Leicester General Hospital (LGH)","status":"NOT_YET_RECRUITING","city":"Leicester","zip":"LE5 4PW","country":"United Kingdom","geoPoint":{"lat":52.6386,"lon":-1.13169}},{"facility":"The Walton Centre","status":"NOT_YET_RECRUITING","city":"Liverpool","country":"United Kingdom","geoPoint":{"lat":53.41058,"lon":-2.97794}},{"facility":"South Tees Hospitals Foundation Nhs Trust","status":"NOT_YET_RECRUITING","city":"Middlesbrough","country":"United Kingdom","geoPoint":{"lat":54.57623,"lon":-1.23483}},{"facility":"Nottingham University Hospitals NHS Trust - Nottingham City Hospital","status":"NOT_YET_RECRUITING","city":"Nottingham","country":"United Kingdom","geoPoint":{"lat":52.9536,"lon":-1.15047}}]},"ipdSharingStatementModule":{"ipdSharing":"YES","description":"Qualified researchers may request access to patient level data and related study documents including the clinical study report, study protocol with any amendments, annotated case report form, statistical analysis plan, and dataset specifications.\n\nPatient level data will be anonymized and study documents will be redacted to protect the privacy of study participants.\n\nAny requests should be submitted to www.vivli.org for assessment by an independent scientific review board.","timeFrame":"Where applicable, data from eligible studies are available 6 months after the studied medicine and indication have been approved in the US and EU or after the primary manuscript describing the results has been accepted for publication, whichever is later.","accessCriteria":"Further details on Ipsen's sharing criteria, eligible studies and process for sharing are available here (https://vivli.org/members/ourmembers/).","url":"https://vivli.org/members/ourmembers/"}},"derivedSection":{"miscInfoModule":{"versionHolder":"2024-02-14"},"conditionBrowseModule":{"meshes":[{"id":"D000009128","term":"Muscle Spasticity"},{"id":"D000020521","term":"Stroke"}],"ancestors":[{"id":"D000002561","term":"Cerebrovascular Disorders"},{"id":"D000001927","term":"Brain Diseases"},{"id":"D000002493","term":"Central Nervous System Diseases"},{"id":"D000009422","term":"Nervous System Diseases"},{"id":"D000014652","term":"Vascular Diseases"},{"id":"D000002318","term":"Cardiovascular Diseases"},{"id":"D000009135","term":"Muscular Diseases"},{"id":"D000009140","term":"Musculoskeletal Diseases"},{"id":"D000009122","term":"Muscle Hypertonia"},{"id":"D000020879","term":"Neuromuscular Manifestations"},{"id":"D000009461","term":"Neurologic Manifestations"}],"browseLeaves":[{"id":"M21996","name":"Stroke","asFound":"Stroke","relevance":"HIGH"},{"id":"M11775","name":"Muscle Spasticity","asFound":"Spasticity","relevance":"HIGH"},{"id":"M5500","name":"Cerebrovascular Disorders","relevance":"LOW"},{"id":"M4894","name":"Brain Diseases","relevance":"LOW"},{"id":"M5432","name":"Central Nervous System Diseases","relevance":"LOW"},{"id":"M17090","name":"Vascular Diseases","relevance":"LOW"},{"id":"M11782","name":"Muscular Diseases","relevance":"LOW"},{"id":"M11787","name":"Musculoskeletal Diseases","relevance":"LOW"},{"id":"M11769","name":"Muscle Hypertonia","relevance":"LOW"},{"id":"M22309","name":"Neuromuscular Manifestations","relevance":"LOW"},{"id":"M12094","name":"Neurologic Manifestations","relevance":"LOW"}],"browseBranches":[{"abbrev":"BC10","name":"Nervous System Diseases"},{"abbrev":"BC14","name":"Heart and Blood Diseases"},{"abbrev":"All","name":"All Conditions"},{"abbrev":"BC05","name":"Musculoskeletal Diseases"},{"abbrev":"BC23","name":"Symptoms and General Pathology"}]}},"hasResults":false}