{"protocolSection":{"identificationModule":{"nctId":"NCT00129545","orgStudyIdInfo":{"id":"ST1021 and ST1055"},"organization":{"fullName":"Boston Scientific Corporation","class":"INDUSTRY"},"briefTitle":"WATCHMAN Left Atrial Appendage System for Embolic PROTECTion in Patients With Atrial Fibrillation","officialTitle":"WATCHMAN Left Atrial Appendage System for Embolic PROTECTion in Patients With Atrial Fibrillation (PROTECT AF)"},"statusModule":{"statusVerifiedDate":"2015-04","overallStatus":"COMPLETED","expandedAccessInfo":{"hasExpandedAccess":false},"startDateStruct":{"date":"2005-02"},"primaryCompletionDateStruct":{"date":"2013-08","type":"ACTUAL"},"completionDateStruct":{"date":"2014-05","type":"ACTUAL"},"studyFirstSubmitDate":"2005-08-10","studyFirstSubmitQcDate":"2005-08-10","studyFirstPostDateStruct":{"date":"2005-08-12","type":"ESTIMATED"},"resultsFirstSubmitDate":"2014-10-03","resultsFirstSubmitQcDate":"2015-04-29","resultsFirstPostDateStruct":{"date":"2015-05-15","type":"ESTIMATED"},"lastUpdateSubmitDate":"2015-04-29","lastUpdatePostDateStruct":{"date":"2015-05-15","type":"ESTIMATED"}},"sponsorCollaboratorsModule":{"responsibleParty":{"type":"SPONSOR"},"leadSponsor":{"name":"Boston Scientific Corporation","class":"INDUSTRY"}},"oversightModule":{"oversightHasDmc":true},"descriptionModule":{"briefSummary":"This is a multi-center, prospective, randomized study, stratified by center, comparing the WATCHMAN device to long term warfarin therapy, demonstrating that the treatment arm is non-inferior to the control arm. This study was amended to allow for a non-randomized arm and increased enrollment.","detailedDescription":"The WATCHMAN device is designed to be permanently implanted distal to the ostium of the left atrial appendage (LAA) to trap potential emboli before they exit the LAA."},"conditionsModule":{"conditions":["Atrial Fibrillation","Stroke"],"keywords":["Atrial Fibrillation","AF","A Fib","Stroke","Coumadin","Warfarin","Blood thinning medication","transient ischemic attack (TIA)","WATCHMAN","Left atrial appendage","LAA isolation","LAA occlusion"]},"designModule":{"studyType":"INTERVENTIONAL","phases":["PHASE2","PHASE3"],"designInfo":{"allocation":"RANDOMIZED","interventionModel":"PARALLEL","primaryPurpose":"PREVENTION","maskingInfo":{"masking":"NONE"}},"enrollmentInfo":{"count":800,"type":"ACTUAL"}},"armsInterventionsModule":{"armGroups":[{"label":"WATCHMAN","type":"EXPERIMENTAL","description":"Implant of WATCHMAN Left Atrial Appendage Closure Technology","interventionNames":["Device: WATCHMAN Left Atrial Appendage Closure Technology"]},{"label":"Warfarin control","type":"ACTIVE_COMPARATOR","description":"Subjects are treated with current standard of care Oral Anticoagulation Therapy with Warfarin","interventionNames":["Drug: Warfarin"]},{"label":"Roll-in","type":"OTHER","description":"Implant of WATCHMAN Left Atrial Appendage Closure Technology. Up to 3 non-randomized subjects per site, these subjects were not included in the primary analysis.","interventionNames":["Device: WATCHMAN Left Atrial Appendage Closure Technology"]}],"interventions":[{"type":"DEVICE","name":"WATCHMAN Left Atrial Appendage Closure Technology","description":"Implant of WATCHMAN Left Atrial Appendage Closure Technology","armGroupLabels":["Roll-in","WATCHMAN"],"otherNames":["WATCHMAN"]},{"type":"DRUG","name":"Warfarin","description":"Subjects receive warfarin","armGroupLabels":["Warfarin control"],"otherNames":["Coumadin"]}]},"outcomesModule":{"primaryOutcomes":[{"measure":"Composite of Stroke, Systemic Embolism and Cardiovascular or Unexplained Death","description":"A Bayesian model allowed for sequential evaluation of the primary endpoints, event rates reported per 100 patient-years (calculated as 100\\*N events/Total patient-years)","timeFrame":"5 years"},{"measure":"The Occurrence of Life-threatening Events, Including Device Embolization or Serious Bleeding Events","description":"Serious bleeding events evaluated by the Clinical Events Committee included pericardial effusion requiring drainage, cranial bleeding events due to any source, gastrointestinal bleeds requiring transfusion, and any bleeding related to the device or procedure that necessitates an operation.","timeFrame":"5 years"}],"secondaryOutcomes":[{"measure":"Procedure Success","description":"Implant procedure success is defined as the delivery and release of a WATCHMAN Device into the LAA.","timeFrame":"Initial implant procedure"}]},"eligibilityModule":{"eligibilityCriteria":"Inclusion Criteria:\n\n* Patient has paroxysmal, persistent or permanent non-valvular atrial fibrillation (AF)\n* Eligible for long term warfarin\n* CHADS score \\>= 1 \\[congestive heart failure (CHF), history of high blood pressure, 75 years of age or older, diabetes, prior stroke or transient ischemic attack (TIA)\\]\n\nExclusion Criteria:\n\n* Contraindicated for warfarin\n* Contraindicated for aspirin or clopidogrel (Plavix)\n* Congestive heart failure (CHF) Class 4\n* Implanted mechanical valve\n* Atrial septal or Patent Foramen Ovale (PFO) device\n* Platelets \\< 100,000 or hemoglobin \\< 10\n* Left ventricular ejection fraction (LVEF) \\< 30%","healthyVolunteers":false,"sex":"ALL","minimumAge":"18 Years","stdAges":["ADULT","OLDER_ADULT"]},"contactsLocationsModule":{"overallOfficials":[{"name":"David Holmes, MD","affiliation":"Mayo Clinic","role":"PRINCIPAL_INVESTIGATOR"}],"locations":[{"facility":"Advanced Cardiac Specialists","city":"Gilbert","state":"Arizona","zip":"85233","country":"United States","geoPoint":{"lat":33.35283,"lon":-111.78903}},{"facility":"Arizona Arrhythmia","city":"Scottsdale","state":"Arizona","zip":"85251","country":"United States","geoPoint":{"lat":33.50921,"lon":-111.89903}},{"facility":"Foundation for Cardiovascular Medicine","city":"La Jolla","state":"California","zip":"92037","country":"United States","geoPoint":{"lat":32.84727,"lon":-117.2742}},{"facility":"Los Angeles Cardiology Associates","city":"Los Angeles","state":"California","zip":"90017","country":"United States","geoPoint":{"lat":34.05223,"lon":-118.24368}},{"facility":"Cedars-Sinai Medical Center","city":"Los Angeles","state":"California","zip":"90048","country":"United States","geoPoint":{"lat":34.05223,"lon":-118.24368}},{"facility":"El Camino Hospital","city":"Mountain View","state":"California","zip":"94040","country":"United States","geoPoint":{"lat":37.38605,"lon":-122.08385}},{"facility":"Orange County Heart","city":"Orange County","state":"California","zip":"92868","country":"United States"},{"facility":"UC Davis Medical Center","city":"Sacramento","state":"California","zip":"95817","country":"United States","geoPoint":{"lat":38.58157,"lon":-121.4944}},{"facility":"St. John's Hospital / Pacific Heart","city":"Santa Monica","state":"California","zip":"90404","country":"United States","geoPoint":{"lat":34.01945,"lon":-118.49119}},{"facility":"Washington Hospital Center","city":"Washington","state":"District of Columbia","zip":"20010","country":"United States","geoPoint":{"lat":38.89511,"lon":-77.03637}},{"facility":"University of Miami","city":"Miami","state":"Florida","zip":"33136","country":"United States","geoPoint":{"lat":25.77427,"lon":-80.19366}},{"facility":"Baptist Cardiac and Vascular Institute","city":"Miami","state":"Florida","zip":"33176","country":"United States","geoPoint":{"lat":25.77427,"lon":-80.19366}},{"facility":"Bay Heart Group","city":"Tampa","state":"Florida","zip":"33607","country":"United States","geoPoint":{"lat":27.94752,"lon":-82.45843}},{"facility":"Emory University Midtown Hospital","city":"Atlanta","state":"Georgia","zip":"30308","country":"United States","geoPoint":{"lat":33.749,"lon":-84.38798}},{"facility":"Piedmont Hospital","city":"Atlanta","state":"Georgia","zip":"30309","country":"United States","geoPoint":{"lat":33.749,"lon":-84.38798}},{"facility":"Emory University Hospital","city":"Atlanta","state":"Georgia","zip":"30322","country":"United States","geoPoint":{"lat":33.749,"lon":-84.38798}},{"facility":"University of Chicago","city":"Chicago","state":"Illinois","zip":"60637","country":"United States","geoPoint":{"lat":41.85003,"lon":-87.65005}},{"facility":"North Shore University","city":"Evanston","state":"Illinois","zip":"60201","country":"United States","geoPoint":{"lat":42.04114,"lon":-87.69006}},{"facility":"Loyola University Medical Center","city":"Maywood","state":"Illinois","zip":"60153","country":"United States","geoPoint":{"lat":41.8792,"lon":-87.84312}},{"facility":"Prairie Education Research Cooperative","city":"Springfield","state":"Illinois","zip":"60637","country":"United States","geoPoint":{"lat":39.80172,"lon":-89.64371}},{"facility":"Baptist Hospital West","city":"Lexington","state":"Kentucky","zip":"40503","country":"United States","geoPoint":{"lat":37.98869,"lon":-84.47772}},{"facility":"University of Kentucky","city":"Lexington","state":"Kentucky","zip":"40536-0294","country":"United States","geoPoint":{"lat":37.98869,"lon":-84.47772}},{"facility":"Terrebonne General Medical Center","city":"Houma","state":"Louisiana","zip":"70360","country":"United States","geoPoint":{"lat":29.59577,"lon":-90.71953}},{"facility":"Ochsner Clinic","city":"New Orleans","state":"Louisiana","zip":"70121","country":"United States","geoPoint":{"lat":29.95465,"lon":-90.07507}},{"facility":"Massachusetts General Hospital","city":"Boston","state":"Massachusetts","zip":"02114","country":"United States","geoPoint":{"lat":42.35843,"lon":-71.05977}},{"facility":"University of Michigan Medical Center","city":"Ann Arbor","state":"Michigan","zip":"48109","country":"United States","geoPoint":{"lat":42.27756,"lon":-83.74088}},{"facility":"William Beaumont","city":"Royal Oak","state":"Michigan","zip":"48073","country":"United States","geoPoint":{"lat":42.48948,"lon":-83.14465}},{"facility":"Abbott Northwestern Hospital","city":"Minneapolis","state":"Minnesota","zip":"55407","country":"United States","geoPoint":{"lat":44.97997,"lon":-93.26384}},{"facility":"Mayo Clinic","city":"Rochester","state":"Minnesota","zip":"55902","country":"United States","geoPoint":{"lat":44.02163,"lon":-92.4699}},{"facility":"St. Paul Heart Clinic","city":"St. Paul","state":"Minnesota","zip":"55102","country":"United States","geoPoint":{"lat":44.94441,"lon":-93.09327}},{"facility":"University of Mississippi Healthcare Center","city":"Jackson","state":"Mississippi","zip":"39216","country":"United States","geoPoint":{"lat":32.29876,"lon":-90.18481}},{"facility":"St. Luke's Hospital","city":"Kansas City","state":"Missouri","zip":"64111","country":"United States","geoPoint":{"lat":39.09973,"lon":-94.57857}},{"facility":"Nebraska Heart Institute","city":"Lincoln","state":"Nebraska","zip":"68526","country":"United States","geoPoint":{"lat":40.8,"lon":-96.66696}},{"facility":"Cooper University Hospital","city":"Camden","state":"New Jersey","zip":"08103","country":"United States","geoPoint":{"lat":39.92595,"lon":-75.11962}},{"facility":"New Mexico Heart Institute","city":"Albuquerque","state":"New Mexico","zip":"87102","country":"United States","geoPoint":{"lat":35.08449,"lon":-106.65114}},{"facility":"New York University Medical Center","city":"New York","state":"New York","zip":"10016","country":"United States","geoPoint":{"lat":40.71427,"lon":-74.00597}},{"facility":"Columbia University Medical Center","city":"New York","state":"New York","zip":"10032","country":"United States","geoPoint":{"lat":40.71427,"lon":-74.00597}},{"facility":"Mt. Sinai Medical Center","city":"New York","state":"New York","country":"United States","geoPoint":{"lat":40.71427,"lon":-74.00597}},{"facility":"Summa Health System","city":"Akron","state":"Ohio","zip":"44304","country":"United States","geoPoint":{"lat":41.08144,"lon":-81.51901}},{"facility":"Lindner Clinical Trial Center","city":"Cincinnati","state":"Ohio","zip":"45219","country":"United States","geoPoint":{"lat":39.12713,"lon":-84.51435}},{"facility":"Cleveland Clinic Foundation","city":"Cleveland","state":"Ohio","zip":"44195","country":"United States","geoPoint":{"lat":41.4995,"lon":-81.69541}},{"facility":"Ohio State University","city":"Columbus","state":"Ohio","zip":"43210","country":"United States","geoPoint":{"lat":39.96118,"lon":-82.99879}},{"facility":"Riverside Methodist Hospital","city":"Columbus","state":"Ohio","zip":"43214","country":"United States","geoPoint":{"lat":39.96118,"lon":-82.99879}},{"facility":"Geisinger Medical Center","city":"Danville","state":"Pennsylvania","zip":"17822","country":"United States","geoPoint":{"lat":40.96342,"lon":-76.61273}},{"facility":"Harrisburg Hospital / Associated Cardiology","city":"Harrisburg","state":"Pennsylvania","zip":"17110","country":"United States","geoPoint":{"lat":40.2737,"lon":-76.88442}},{"facility":"Allegheny General Hospital","city":"Pittsburgh","state":"Pennsylvania","zip":"15212","country":"United States","geoPoint":{"lat":40.44062,"lon":-79.99589}},{"facility":"Presbyterian University Hospital","city":"Pittsburgh","state":"Pennsylvania","zip":"15213","country":"United States","geoPoint":{"lat":40.44062,"lon":-79.99589}},{"facility":"Moffitt Heart & Vascular","city":"Wormleysburg","state":"Pennsylvania","zip":"17043","country":"United States","geoPoint":{"lat":40.26287,"lon":-76.91386}},{"facility":"Mercy Medical Center West","city":"Knoxville","state":"Tennessee","zip":"37934","country":"United States","geoPoint":{"lat":35.96064,"lon":-83.92074}},{"facility":"St. Thomas Research Institute","city":"Nashville","state":"Tennessee","country":"United States","geoPoint":{"lat":36.16589,"lon":-86.78444}},{"facility":"Texas Cardiac Arrhythmia","city":"Austin","state":"Texas","zip":"78705","country":"United States","geoPoint":{"lat":30.26715,"lon":-97.74306}},{"facility":"St. Lukes Episcopal Hospital","city":"Houston","state":"Texas","zip":"77030","country":"United States","geoPoint":{"lat":29.76328,"lon":-95.36327}},{"facility":"Intermountain Medical Center","city":"Salt Lake City","state":"Utah","zip":"84107","country":"United States","geoPoint":{"lat":40.76078,"lon":-111.89105}},{"facility":"University of Virginia","city":"Charlottesville","state":"Virginia","zip":"22908","country":"United States","geoPoint":{"lat":38.02931,"lon":-78.47668}},{"facility":"Inova Fairfax Hospital","city":"Falls Church","state":"Virginia","zip":"22042","country":"United States","geoPoint":{"lat":38.88233,"lon":-77.17109}},{"facility":"Sentara Norfolk General Hospital","city":"Norfolk","state":"Virginia","zip":"23507","country":"United States","geoPoint":{"lat":36.84681,"lon":-76.28522}},{"facility":"Swedish Medical Center","city":"Seattle","state":"Washington","zip":"98104","country":"United States","geoPoint":{"lat":47.60621,"lon":-122.33207}},{"facility":"Marshfield Clinic","city":"Marshfield","state":"Wisconsin","zip":"54449","country":"United States","geoPoint":{"lat":44.66885,"lon":-90.1718}},{"facility":"Na Homolce","city":"Prague","zip":"15030","country":"Czech Republic","geoPoint":{"lat":50.08804,"lon":14.42076}},{"facility":"Krankenhaus der Barmherzige Bruder","city":"Regensburg","state":"Bayern","zip":"93049","country":"Germany","geoPoint":{"lat":49.01513,"lon":12.10161}},{"facility":"Cardiovasculares Centrum Frankfurt - Sankt Katharinen","city":"Frankfurt am Main","state":"Hessen","zip":"60389","country":"Germany","geoPoint":{"lat":50.11552,"lon":8.68417}},{"facility":"Herzzentrum","city":"Leipzig","country":"Germany","geoPoint":{"lat":51.33962,"lon":12.37129}}]},"referencesModule":{"references":[{"pmid":"35902169","type":"DERIVED","citation":"Dukkipati SR, Holmes DR Jr, Doshi SK, Kar S, Singh SM, Gibson D, Price MJ, Natale A, Mansour M, Sievert H, Houle VM, Allocco DJ, Reddy VY. Impact of Peridevice Leak on 5-Year Outcomes After Left Atrial Appendage Closure. J Am Coll Cardiol. 2022 Aug 2;80(5):469-483. doi: 10.1016/j.jacc.2022.04.062."},{"pmid":"31752643","type":"DERIVED","citation":"Brouwer TF, Whang W, Kuroki K, Halperin JL, Reddy VY. Net Clinical Benefit of Left Atrial Appendage Closure Versus Warfarin in Patients With Atrial Fibrillation: A Pooled Analysis of the Randomized PROTECT-AF and PREVAIL Studies. J Am Heart Assoc. 2019 Dec 3;8(23):e013525. doi: 10.1161/JAHA.119.013525. Epub 2019 Nov 22."},{"pmid":"26627989","type":"DERIVED","citation":"Price MJ, Reddy VY, Valderrabano M, Halperin JL, Gibson DN, Gordon N, Huber KC, Holmes DR Jr. Bleeding Outcomes After Left Atrial Appendage Closure Compared With Long-Term Warfarin: A Pooled, Patient-Level Analysis of the WATCHMAN Randomized Trial Experience. JACC Cardiovasc Interv. 2015 Dec 28;8(15):1925-1932. doi: 10.1016/j.jcin.2015.08.035. Epub 2015 Nov 25."},{"pmid":"25399274","type":"DERIVED","citation":"Reddy VY, Sievert H, Halperin J, Doshi SK, Buchbinder M, Neuzil P, Huber K, Whisenant B, Kar S, Swarup V, Gordon N, Holmes D; PROTECT AF Steering Committee and Investigators. Percutaneous left atrial appendage closure vs warfarin for atrial fibrillation: a randomized clinical trial. JAMA. 2014 Nov 19;312(19):1988-98. doi: 10.1001/jama.2014.15192. Erratum In: JAMA. 2015 Mar 10;313(10):1061."},{"pmid":"23500276","type":"DERIVED","citation":"Alli O, Doshi S, Kar S, Reddy V, Sievert H, Mullin C, Swarup V, Whisenant B, Holmes D Jr. Quality of life assessment in the randomized PROTECT AF (Percutaneous Closure of the Left Atrial Appendage Versus Warfarin Therapy for Prevention of Stroke in Patients With Atrial Fibrillation) trial of patients at risk for stroke with nonvalvular atrial fibrillation. J Am Coll Cardiol. 2013 Apr 30;61(17):1790-8. doi: 10.1016/j.jacc.2013.01.061. Epub 2013 Feb 28."},{"pmid":"23325525","type":"DERIVED","citation":"Reddy VY, Doshi SK, Sievert H, Buchbinder M, Neuzil P, Huber K, Halperin JL, Holmes D; PROTECT AF Investigators. Percutaneous left atrial appendage closure for stroke prophylaxis in patients with atrial fibrillation: 2.3-Year Follow-up of the PROTECT AF (Watchman Left Atrial Appendage System for Embolic Protection in Patients with Atrial Fibrillation) Trial. Circulation. 2013 Feb 12;127(6):720-9. doi: 10.1161/CIRCULATIONAHA.112.114389. Epub 2013 Jan 16."},{"pmid":"21242484","type":"DERIVED","citation":"Reddy VY, Holmes D, Doshi SK, Neuzil P, Kar S. Safety of percutaneous left atrial appendage closure: results from the Watchman Left Atrial Appendage System for Embolic Protection in Patients with AF (PROTECT AF) clinical trial and the Continued Access Registry. Circulation. 2011 Feb 1;123(4):417-24. doi: 10.1161/CIRCULATIONAHA.110.976449. Epub 2011 Jan 17."},{"pmid":"19683639","type":"DERIVED","citation":"Holmes DR, Reddy VY, Turi ZG, Doshi SK, Sievert H, Buchbinder M, Mullin CM, Sick P; PROTECT AF Investigators. Percutaneous closure of the left atrial appendage versus warfarin therapy for prevention of stroke in patients with atrial fibrillation: a randomised non-inferiority trial. Lancet. 2009 Aug 15;374(9689):534-42. doi: 10.1016/S0140-6736(09)61343-X. Erratum In: Lancet. 2009 Nov 7;374(9701):1596."}],"seeAlsoLinks":[{"label":"Sponsor website","url":"http://www.atritech.net"}]}},"resultsSection":{"participantFlowModule":{"groups":[{"id":"FG000","title":"Roll-in","description":"Investigational centers were allowed up to 3 roll in subjects before initiating the randomization phase"},{"id":"FG001","title":"WATCHMAN","description":"Randomized to receive implantation of the WATCHMAN left atrial appendage (LAA) closure Technology"},{"id":"FG002","title":"WARFARIN","description":"Randomized to receive Warfarin control"}],"periods":[{"title":"Overall Study","milestones":[{"type":"STARTED","achievements":[{"groupId":"FG000","numSubjects":"93"},{"groupId":"FG001","comment":"2:1 randomization WATCHMAN to warfarin","numSubjects":"463"},{"groupId":"FG002","numSubjects":"244"}]},{"type":"COMPLETED","achievements":[{"groupId":"FG000","numSubjects":"67"},{"groupId":"FG001","numSubjects":"299"},{"groupId":"FG002","numSubjects":"133"}]},{"type":"NOT COMPLETED","achievements":[{"groupId":"FG000","numSubjects":"26"},{"groupId":"FG001","numSubjects":"164"},{"groupId":"FG002","numSubjects":"111"}]}],"dropWithdraws":[{"type":"Death","reasons":[{"groupId":"FG000","numSubjects":"5"},{"groupId":"FG001","numSubjects":"60"},{"groupId":"FG002","numSubjects":"44"}]},{"type":"Withdrawal by Subject","reasons":[{"groupId":"FG000","numSubjects":"3"},{"groupId":"FG001","numSubjects":"18"},{"groupId":"FG002","numSubjects":"44"}]},{"type":"Lost to Follow-up","reasons":[{"groupId":"FG000","numSubjects":"2"},{"groupId":"FG001","numSubjects":"22"},{"groupId":"FG002","numSubjects":"13"}]},{"type":"Physician Decision","reasons":[{"groupId":"FG000","numSubjects":"0"},{"groupId":"FG001","numSubjects":"3"},{"groupId":"FG002","numSubjects":"10"}]},{"type":"Device not implanted","reasons":[{"groupId":"FG000","numSubjects":"16"},{"groupId":"FG001","numSubjects":"61"},{"groupId":"FG002","numSubjects":"0"}]}]}]},"baselineCharacteristicsModule":{"populationDescription":"2:1 randomazation, outcome analysis excludes the 93 subjects in the Roll-in arm","groups":[{"id":"BG000","title":"WATCHMAN","description":"WATCHMAN Left Atrial Appendage Closure Technology:"},{"id":"BG001","title":"Warfarin Control","description":"Subjects were treated with current standard of care Oral Anticoagulation Therapy with Warfarin"},{"id":"BG002","title":"Roll-in","description":"Subjects received WATCHMAN Left Atrial Appendage Closure Technology but were not included in the outcome analysis"},{"id":"BG003","title":"Total","description":"Total of all reporting groups"}],"denoms":[{"units":"Participants","counts":[{"groupId":"BG000","value":"463"},{"groupId":"BG001","value":"244"},{"groupId":"BG002","value":"93"},{"groupId":"BG003","value":"800"}]}],"measures":[{"title":"Age, Continuous","paramType":"MEAN","dispersionType":"STANDARD_DEVIATION","unitOfMeasure":"years","classes":[{"categories":[{"measurements":[{"groupId":"BG000","value":"71.7","spread":"8.8"},{"groupId":"BG001","value":"72.7","spread":"9.2"},{"groupId":"BG002","value":"72.2","spread":"8.9"},{"groupId":"BG003","value":"72.0","spread":"8.9"}]}]}]},{"title":"Sex: Female, Male","paramType":"COUNT_OF_PARTICIPANTS","unitOfMeasure":"Participants","classes":[{"categories":[{"title":"Female","measurements":[{"groupId":"BG000","value":"137"},{"groupId":"BG001","value":"73"},{"groupId":"BG002","value":"28"},{"groupId":"BG003","value":"238"}]},{"title":"Male","measurements":[{"groupId":"BG000","value":"326"},{"groupId":"BG001","value":"171"},{"groupId":"BG002","value":"65"},{"groupId":"BG003","value":"562"}]}]}]},{"title":"Race/Ethnicity, Customized","paramType":"NUMBER","unitOfMeasure":"participants","classes":[{"title":"Asian","categories":[{"measurements":[{"groupId":"BG000","value":"4"},{"groupId":"BG001","value":"1"},{"groupId":"BG002","value":"0"},{"groupId":"BG003","value":"5"}]}]},{"title":"Black/African American","categories":[{"measurements":[{"groupId":"BG000","value":"6"},{"groupId":"BG001","value":"5"},{"groupId":"BG002","value":"3"},{"groupId":"BG003","value":"14"}]}]},{"title":"Caucasian","categories":[{"measurements":[{"groupId":"BG000","value":"425"},{"groupId":"BG001","value":"222"},{"groupId":"BG002","value":"87"},{"groupId":"BG003","value":"734"}]}]},{"title":"Hispanic/Latino","categories":[{"measurements":[{"groupId":"BG000","value":"25"},{"groupId":"BG001","value":"15"},{"groupId":"BG002","value":"3"},{"groupId":"BG003","value":"43"}]}]},{"title":"Hawaiian/Pacific Islander","categories":[{"measurements":[{"groupId":"BG000","value":"1"},{"groupId":"BG001","value":"1"},{"groupId":"BG002","value":"0"},{"groupId":"BG003","value":"2"}]}]},{"title":"other","categories":[{"measurements":[{"groupId":"BG000","value":"2"},{"groupId":"BG001","value":"0"},{"groupId":"BG002","value":"0"},{"groupId":"BG003","value":"2"}]}]}]},{"title":"Region of Enrollment","paramType":"NUMBER","unitOfMeasure":"participants","classes":[{"title":"United States","categories":[{"measurements":[{"groupId":"BG000","value":"382"},{"groupId":"BG001","value":"201"},{"groupId":"BG002","value":"87"},{"groupId":"BG003","value":"670"}]}]},{"title":"Czech Republic","categories":[{"measurements":[{"groupId":"BG000","value":"19"},{"groupId":"BG001","value":"10"},{"groupId":"BG002","value":"3"},{"groupId":"BG003","value":"32"}]}]},{"title":"Germany","categories":[{"measurements":[{"groupId":"BG000","value":"62"},{"groupId":"BG001","value":"33"},{"groupId":"BG002","value":"3"},{"groupId":"BG003","value":"98"}]}]}]}]},"outcomeMeasuresModule":{"outcomeMeasures":[{"type":"PRIMARY","title":"Composite of Stroke, Systemic Embolism and Cardiovascular or Unexplained Death","description":"A Bayesian model allowed for sequential evaluation of the primary endpoints, event rates reported per 100 patient-years (calculated as 100\\*N events/Total patient-years)","populationDescription":"event rates reported per 100 patient-years (calculated as 100\\*N events/Total patient-years) total patient years 2717, 95% Credible Intervals per predefined Bayesian Statistics\n\nRoll-in subjects were not included in the primary outcome analysis per study design.","reportingStatus":"POSTED","paramType":"NUMBER","dispersionType":"95% Confidence Interval","unitOfMeasure":"events per 100 pt yrs","timeFrame":"5 years","groups":[{"id":"OG000","title":"Implantable Device","description":"Implantable WATCHMAN Left ATrial Appendage Occlusion Device\n\nWATCHMAN Left Atrial Appendage Closure Technology: Implant of WATCHMAN Left Atrial Appendage Closure Technology"},{"id":"OG001","title":"Warfarin Control","description":"Subjects are treated with current standard of care Oral Anticoagulation Therapy with Warfarin\n\nWarfarin: Subjects receive warfarin"}],"denoms":[{"units":"Participants","counts":[{"groupId":"OG000","value":"463"},{"groupId":"OG001","value":"244"}]}],"classes":[{"categories":[{"measurements":[{"groupId":"OG000","value":"2.2","lowerLimit":"1.7","upperLimit":"3.1"},{"groupId":"OG001","value":"3.7","lowerLimit":"2.4","upperLimit":"4.8"}]}]}],"analyses":[{"groupIds":["OG000","OG001"],"testedNonInferiority":true,"nonInferiorityType":"NON_INFERIORITY_OR_EQUIVALENCE","nonInferiorityComment":"The posterior probability of non-inferiority is defined as the probability that the event rate for the Device group is less than twice that for the Control group. This probability was required to be greater than 0.975 for a finding of non-inferiority. The criterion for non-inferiority was consistently met at each analysis time point demonstrating the Device group is non-inferior to the Control group.","paramType":"Risk Ratio (RR)","paramValue":"0.61","ciPctValue":"95","ciNumSides":"TWO_SIDED","ciLowerLimit":"0.42","ciUpperLimit":"1.07","estimateComment":"Relative Risk calculated as Device Rate over Control rate, with 95% Credible Intervals"}]},{"type":"PRIMARY","title":"The Occurrence of Life-threatening Events, Including Device Embolization or Serious Bleeding Events","description":"Serious bleeding events evaluated by the Clinical Events Committee included pericardial effusion requiring drainage, cranial bleeding events due to any source, gastrointestinal bleeds requiring transfusion, and any bleeding related to the device or procedure that necessitates an operation.","populationDescription":"Event rates reported per 100 patient-years (calculated as 100\\*N events/Total patient-years) total patient years 2717, 95% Credible Intervals per predefined Bayesian Statistics\n\nRoll-in subjects were not included in the primary outcome analysis per study design.","reportingStatus":"POSTED","paramType":"NUMBER","dispersionType":"95% Confidence Interval","unitOfMeasure":"Events per 100 pt-yrs","timeFrame":"5 years","groups":[{"id":"OG000","title":"Implantable Device","description":"Implantable WATCHMAN Left ATrial Appendage Occlusion Device\n\nWATCHMAN Left Atrial Appendage Closure Technology: Implant of WATCHMAN Left Atrial Appendage Closure Technology"},{"id":"OG001","title":"Warfarin Control","description":"Subjects are treated with current standard of care Oral Anticoagulation Therapy with Warfarin\n\nWarfarin: Subjects receive warfarin"}],"denoms":[{"units":"Participants","counts":[{"groupId":"OG000","value":"463"},{"groupId":"OG001","value":"244"}]}],"classes":[{"categories":[{"measurements":[{"groupId":"OG000","value":"3.5","lowerLimit":"2.7","upperLimit":"4.5"},{"groupId":"OG001","value":"3.2","lowerLimit":"2.1","upperLimit":"4.4"}]}]}]},{"type":"SECONDARY","title":"Procedure Success","description":"Implant procedure success is defined as the delivery and release of a WATCHMAN Device into the LAA.","populationDescription":"14 subjects did not have an implant procedure attempted","reportingStatus":"POSTED","paramType":"NUMBER","unitOfMeasure":"percentage of implant attempts","timeFrame":"Initial implant procedure","groups":[{"id":"OG000","title":"WATCHMAN","description":"Implantable WATCHMAN Left ATrial Appendage Occlusion Device\n\nImplant of WATCHMAN Left Atrial Appendage Closure Technology"}],"denoms":[{"units":"Participants","counts":[{"groupId":"OG000","value":"449"}]}],"classes":[{"categories":[{"measurements":[{"groupId":"OG000","value":"90.9"}]}]}]}]},"adverseEventsModule":{"frequencyThreshold":"0","timeFrame":"5 years","description":"electronic case report form (e-CRF) completion by sites, followed by independent Clinical Events Committee (CEC) adjudication","eventGroups":[{"id":"EG000","title":"Roll-in","description":"Investigational centers were allowed up to 3 roll in subjects before initiating the randomization phase","seriousNumAffected":29,"seriousNumAtRisk":93,"otherNumAffected":19,"otherNumAtRisk":93},{"id":"EG001","title":"WATCHMAN","description":"Randomized to receive implantation of the WATCHMAN LAA closure Device","seriousNumAffected":143,"seriousNumAtRisk":463,"otherNumAffected":71,"otherNumAtRisk":463},{"id":"EG002","title":"WARFARIN","description":"Randomized to receive Warfarin control","seriousNumAffected":70,"seriousNumAtRisk":244,"otherNumAffected":17,"otherNumAtRisk":244}],"seriousEvents":[{"term":"Anemia Requiring Transfusion","organSystem":"Blood and lymphatic system disorders","assessmentType":"SYSTEMATIC_ASSESSMENT","stats":[{"groupId":"EG000","numEvents":0,"numAffected":0,"numAtRisk":93},{"groupId":"EG001","numEvents":2,"numAffected":2,"numAtRisk":463},{"groupId":"EG002","numEvents":4,"numAffected":1,"numAtRisk":244}]},{"term":"Arrhythmias","organSystem":"Cardiac disorders","assessmentType":"SYSTEMATIC_ASSESSMENT","stats":[{"groupId":"EG000","numEvents":0,"numAffected":0,"numAtRisk":93},{"groupId":"EG001","numEvents":2,"numAffected":2,"numAtRisk":463},{"groupId":"EG002","numEvents":0,"numAffected":0,"numAtRisk":244}]},{"term":"AV Fistula","organSystem":"Vascular disorders","assessmentType":"SYSTEMATIC_ASSESSMENT","stats":[{"groupId":"EG000","numEvents":1,"numAffected":1,"numAtRisk":93},{"groupId":"EG001","numEvents":1,"numAffected":1,"numAtRisk":463},{"groupId":"EG002","numEvents":0,"numAffected":0,"numAtRisk":244}]},{"term":"Bleeding from Varicose Veins","organSystem":"Vascular disorders","assessmentType":"SYSTEMATIC_ASSESSMENT","stats":[{"groupId":"EG000","numEvents":0,"numAffected":0,"numAtRisk":93},{"groupId":"EG001","numEvents":1,"numAffected":1,"numAtRisk":463},{"groupId":"EG002","numEvents":0,"numAffected":0,"numAtRisk":244}]},{"term":"Bruising - Hematoma","organSystem":"Vascular disorders","assessmentType":"SYSTEMATIC_ASSESSMENT","stats":[{"groupId":"EG000","numEvents":2,"numAffected":2,"numAtRisk":93},{"groupId":"EG001","numEvents":5,"numAffected":5,"numAtRisk":463},{"groupId":"EG002","numEvents":0,"numAffected":0,"numAtRisk":244}]},{"term":"Cardiac Perforation","organSystem":"Cardiac disorders","assessmentType":"SYSTEMATIC_ASSESSMENT","stats":[{"groupId":"EG000","numEvents":1,"numAffected":1,"numAtRisk":93},{"groupId":"EG001","numEvents":7,"numAffected":7,"numAtRisk":463},{"groupId":"EG002","numEvents":0,"numAffected":0,"numAtRisk":244}]},{"term":"Cranial Bleed","organSystem":"Vascular disorders","assessmentType":"SYSTEMATIC_ASSESSMENT","stats":[{"groupId":"EG000","numEvents":1,"numAffected":1,"numAtRisk":93},{"groupId":"EG001","numEvents":4,"numAffected":4,"numAtRisk":463},{"groupId":"EG002","numEvents":1,"numAffected":1,"numAtRisk":244}]},{"term":"Death","organSystem":"General disorders","assessmentType":"SYSTEMATIC_ASSESSMENT","stats":[{"groupId":"EG000","numEvents":5,"numAffected":5,"numAtRisk":93},{"groupId":"EG001","numEvents":59,"numAffected":59,"numAtRisk":463},{"groupId":"EG002","numEvents":44,"numAffected":44,"numAtRisk":244}]},{"term":"Device Embolization","organSystem":"Investigations","assessmentType":"SYSTEMATIC_ASSESSMENT","stats":[{"groupId":"EG000","numEvents":0,"numAffected":0,"numAtRisk":93},{"groupId":"EG001","numEvents":4,"numAffected":3,"numAtRisk":463},{"groupId":"EG002","numEvents":0,"numAffected":0,"numAtRisk":244}]},{"term":"Device Thrombus","organSystem":"Blood and lymphatic system disorders","assessmentType":"SYSTEMATIC_ASSESSMENT","stats":[{"groupId":"EG000","numEvents":0,"numAffected":0,"numAtRisk":93},{"groupId":"EG001","numEvents":2,"numAffected":2,"numAtRisk":463},{"groupId":"EG002","numEvents":0,"numAffected":0,"numAtRisk":244}]},{"term":"Epistaxis","organSystem":"Vascular disorders","assessmentType":"SYSTEMATIC_ASSESSMENT","stats":[{"groupId":"EG000","numEvents":2,"numAffected":2,"numAtRisk":93},{"groupId":"EG001","numEvents":4,"numAffected":4,"numAtRisk":463},{"groupId":"EG002","numEvents":0,"numAffected":0,"numAtRisk":244}]},{"term":"Gastrointestinal Bleeding","organSystem":"Gastrointestinal disorders","assessmentType":"SYSTEMATIC_ASSESSMENT","stats":[{"groupId":"EG000","numEvents":12,"numAffected":9,"numAtRisk":93},{"groupId":"EG001","numEvents":32,"numAffected":26,"numAtRisk":463},{"groupId":"EG002","numEvents":27,"numAffected":22,"numAtRisk":244}]},{"term":"Hematuria","organSystem":"Renal and urinary disorders","assessmentType":"SYSTEMATIC_ASSESSMENT","stats":[{"groupId":"EG000","numEvents":0,"numAffected":0,"numAtRisk":93},{"groupId":"EG001","numEvents":4,"numAffected":4,"numAtRisk":463},{"groupId":"EG002","numEvents":0,"numAffected":0,"numAtRisk":244}]},{"term":"Infection","organSystem":"Infections and infestations","assessmentType":"SYSTEMATIC_ASSESSMENT","stats":[{"groupId":"EG000","numEvents":1,"numAffected":1,"numAtRisk":93},{"groupId":"EG001","numEvents":2,"numAffected":2,"numAtRisk":463},{"groupId":"EG002","numEvents":0,"numAffected":0,"numAtRisk":244}]},{"term":"Major Bleed Requiring Transfusion","organSystem":"Vascular disorders","assessmentType":"SYSTEMATIC_ASSESSMENT","stats":[{"groupId":"EG000","numEvents":1,"numAffected":1,"numAtRisk":93},{"groupId":"EG001","numEvents":2,"numAffected":2,"numAtRisk":463},{"groupId":"EG002","numEvents":1,"numAffected":1,"numAtRisk":244}]},{"term":"Oral Bleeding","organSystem":"Gastrointestinal disorders","assessmentType":"SYSTEMATIC_ASSESSMENT","stats":[{"groupId":"EG000","numEvents":0,"numAffected":0,"numAtRisk":93},{"groupId":"EG001","numEvents":0,"numAffected":0,"numAtRisk":463},{"groupId":"EG002","numEvents":1,"numAffected":1,"numAtRisk":244}]},{"term":"Other Study Related","organSystem":"Investigations","assessmentType":"SYSTEMATIC_ASSESSMENT","stats":[{"groupId":"EG000","numEvents":4,"numAffected":4,"numAtRisk":93},{"groupId":"EG001","numEvents":18,"numAffected":17,"numAtRisk":463},{"groupId":"EG002","numEvents":2,"numAffected":2,"numAtRisk":244}]},{"term":"Pericardial Effusion with Cardiac Tamponade","organSystem":"Cardiac disorders","assessmentType":"SYSTEMATIC_ASSESSMENT","stats":[{"groupId":"EG000","numEvents":4,"numAffected":4,"numAtRisk":93},{"groupId":"EG001","numEvents":13,"numAffected":13,"numAtRisk":463},{"groupId":"EG002","numEvents":0,"numAffected":0,"numAtRisk":244}]},{"term":"Pericardial Effusion-Serious","organSystem":"Cardiac disorders","assessmentType":"SYSTEMATIC_ASSESSMENT","stats":[{"groupId":"EG000","numEvents":0,"numAffected":0,"numAtRisk":93},{"groupId":"EG001","numEvents":4,"numAffected":4,"numAtRisk":463},{"groupId":"EG002","numEvents":0,"numAffected":0,"numAtRisk":244}]},{"term":"Pleural Effusion","organSystem":"Respiratory, thoracic and mediastinal disorders","assessmentType":"SYSTEMATIC_ASSESSMENT","stats":[{"groupId":"EG000","numEvents":0,"numAffected":0,"numAtRisk":93},{"groupId":"EG001","numEvents":1,"numAffected":1,"numAtRisk":463},{"groupId":"EG002","numEvents":0,"numAffected":0,"numAtRisk":244}]},{"term":"Pseudoaneurysm","organSystem":"Vascular disorders","assessmentType":"SYSTEMATIC_ASSESSMENT","stats":[{"groupId":"EG000","numEvents":0,"numAffected":0,"numAtRisk":93},{"groupId":"EG001","numEvents":3,"numAffected":3,"numAtRisk":463},{"groupId":"EG002","numEvents":0,"numAffected":0,"numAtRisk":244}]},{"term":"Pulmonary Edema","organSystem":"Respiratory, thoracic and mediastinal disorders","assessmentType":"SYSTEMATIC_ASSESSMENT","stats":[{"groupId":"EG000","numEvents":0,"numAffected":0,"numAtRisk":93},{"groupId":"EG001","numEvents":1,"numAffected":1,"numAtRisk":463},{"groupId":"EG002","numEvents":0,"numAffected":0,"numAtRisk":244}]},{"term":"Rectal Bleeding","organSystem":"Gastrointestinal disorders","assessmentType":"SYSTEMATIC_ASSESSMENT","stats":[{"groupId":"EG000","numEvents":1,"numAffected":1,"numAtRisk":93},{"groupId":"EG001","numEvents":1,"numAffected":1,"numAtRisk":463},{"groupId":"EG002","numEvents":1,"numAffected":1,"numAtRisk":244}]},{"term":"Stroke - Hemorrhagic","organSystem":"Nervous system disorders","assessmentType":"SYSTEMATIC_ASSESSMENT","stats":[{"groupId":"EG000","numEvents":0,"numAffected":0,"numAtRisk":93},{"groupId":"EG001","numEvents":3,"numAffected":3,"numAtRisk":463},{"groupId":"EG002","numEvents":10,"numAffected":10,"numAtRisk":244}]},{"term":"Stroke - Ischemic","organSystem":"Nervous system disorders","assessmentType":"SYSTEMATIC_ASSESSMENT","stats":[{"groupId":"EG000","numEvents":5,"numAffected":5,"numAtRisk":93},{"groupId":"EG001","numEvents":26,"numAffected":24,"numAtRisk":463},{"groupId":"EG002","numEvents":11,"numAffected":10,"numAtRisk":244}]},{"term":"Systemic Embolization","organSystem":"Blood and lymphatic system disorders","assessmentType":"SYSTEMATIC_ASSESSMENT","stats":[{"groupId":"EG000","numEvents":0,"numAffected":0,"numAtRisk":93},{"groupId":"EG001","numEvents":3,"numAffected":3,"numAtRisk":463},{"groupId":"EG002","numEvents":0,"numAffected":0,"numAtRisk":244}]},{"term":"Thrombosis","organSystem":"Vascular disorders","assessmentType":"SYSTEMATIC_ASSESSMENT","stats":[{"groupId":"EG000","numEvents":0,"numAffected":0,"numAtRisk":93},{"groupId":"EG001","numEvents":1,"numAffected":1,"numAtRisk":463},{"groupId":"EG002","numEvents":0,"numAffected":0,"numAtRisk":244}]},{"term":"Transient Ischemic Attack (TIA)","organSystem":"Nervous system disorders","assessmentType":"SYSTEMATIC_ASSESSMENT","stats":[{"groupId":"EG000","numEvents":1,"numAffected":1,"numAtRisk":93},{"groupId":"EG001","numEvents":5,"numAffected":5,"numAtRisk":463},{"groupId":"EG002","numEvents":0,"numAffected":0,"numAtRisk":244}]}],"otherEvents":[{"term":"Air Embolism","organSystem":"Injury, poisoning and procedural complications","assessmentType":"SYSTEMATIC_ASSESSMENT","stats":[{"groupId":"EG000","numEvents":0,"numAffected":0,"numAtRisk":93},{"groupId":"EG001","numEvents":1,"numAffected":1,"numAtRisk":463},{"groupId":"EG002","numEvents":0,"numAffected":0,"numAtRisk":244}]},{"term":"Allergic Reaction to Contrast Media","organSystem":"Immune system disorders","assessmentType":"SYSTEMATIC_ASSESSMENT","stats":[{"groupId":"EG000","numEvents":0,"numAffected":0,"numAtRisk":93},{"groupId":"EG001","numEvents":1,"numAffected":1,"numAtRisk":463},{"groupId":"EG002","numEvents":0,"numAffected":0,"numAtRisk":244}]},{"term":"Anemia Requiring Transfusion","organSystem":"Blood and lymphatic system disorders","assessmentType":"SYSTEMATIC_ASSESSMENT","stats":[{"groupId":"EG000","numEvents":0,"numAffected":0,"numAtRisk":93},{"groupId":"EG001","numEvents":2,"numAffected":2,"numAtRisk":463},{"groupId":"EG002","numEvents":1,"numAffected":1,"numAtRisk":244}]},{"term":"AV Fistula","organSystem":"Vascular disorders","assessmentType":"SYSTEMATIC_ASSESSMENT","stats":[{"groupId":"EG000","numEvents":0,"numAffected":0,"numAtRisk":93},{"groupId":"EG001","numEvents":1,"numAffected":1,"numAtRisk":463},{"groupId":"EG002","numEvents":0,"numAffected":0,"numAtRisk":244}]},{"term":"Bleeding from Varicose Veins","organSystem":"Vascular disorders","assessmentType":"SYSTEMATIC_ASSESSMENT","stats":[{"groupId":"EG000","numEvents":0,"numAffected":0,"numAtRisk":93},{"groupId":"EG001","numEvents":1,"numAffected":1,"numAtRisk":463},{"groupId":"EG002","numEvents":0,"numAffected":0,"numAtRisk":244}]},{"term":"Bruising - Hematoma","organSystem":"Vascular disorders","assessmentType":"SYSTEMATIC_ASSESSMENT","stats":[{"groupId":"EG000","numEvents":0,"numAffected":0,"numAtRisk":93},{"groupId":"EG001","numEvents":3,"numAffected":3,"numAtRisk":463},{"groupId":"EG002","numEvents":2,"numAffected":2,"numAtRisk":244}]},{"term":"Device Thrombus","organSystem":"Investigations","assessmentType":"SYSTEMATIC_ASSESSMENT","stats":[{"groupId":"EG000","numEvents":2,"numAffected":2,"numAtRisk":93},{"groupId":"EG001","numEvents":15,"numAffected":14,"numAtRisk":463},{"groupId":"EG002","numEvents":0,"numAffected":0,"numAtRisk":244}]},{"term":"Epistaxis","organSystem":"Vascular disorders","assessmentType":"SYSTEMATIC_ASSESSMENT","stats":[{"groupId":"EG000","numEvents":4,"numAffected":4,"numAtRisk":93},{"groupId":"EG001","numEvents":13,"numAffected":11,"numAtRisk":463},{"groupId":"EG002","numEvents":5,"numAffected":5,"numAtRisk":244}]},{"term":"Gastrointestinal Bleeding","organSystem":"Gastrointestinal disorders","assessmentType":"SYSTEMATIC_ASSESSMENT","stats":[{"groupId":"EG000","numEvents":1,"numAffected":1,"numAtRisk":93},{"groupId":"EG001","numEvents":3,"numAffected":3,"numAtRisk":463},{"groupId":"EG002","numEvents":2,"numAffected":2,"numAtRisk":244}]},{"term":"Hematuria","organSystem":"Renal and urinary disorders","assessmentType":"SYSTEMATIC_ASSESSMENT","stats":[{"groupId":"EG000","numEvents":0,"numAffected":0,"numAtRisk":93},{"groupId":"EG001","numEvents":2,"numAffected":2,"numAtRisk":463},{"groupId":"EG002","numEvents":2,"numAffected":2,"numAtRisk":244}]},{"term":"Inability to Move or Retrieve Device","organSystem":"Injury, poisoning and procedural complications","assessmentType":"SYSTEMATIC_ASSESSMENT","stats":[{"groupId":"EG000","numEvents":0,"numAffected":0,"numAtRisk":93},{"groupId":"EG001","numEvents":1,"numAffected":1,"numAtRisk":463},{"groupId":"EG002","numEvents":0,"numAffected":0,"numAtRisk":244}]},{"term":"Infection","organSystem":"Infections and infestations","assessmentType":"SYSTEMATIC_ASSESSMENT","stats":[{"groupId":"EG000","numEvents":0,"numAffected":0,"numAtRisk":93},{"groupId":"EG001","numEvents":1,"numAffected":1,"numAtRisk":463},{"groupId":"EG002","numEvents":0,"numAffected":0,"numAtRisk":244}]},{"term":"Oral Bleeding","organSystem":"Gastrointestinal disorders","assessmentType":"SYSTEMATIC_ASSESSMENT","stats":[{"groupId":"EG000","numEvents":0,"numAffected":0,"numAtRisk":93},{"groupId":"EG001","numEvents":2,"numAffected":2,"numAtRisk":463},{"groupId":"EG002","numEvents":1,"numAffected":1,"numAtRisk":244}]},{"term":"Other Non-Study Related","organSystem":"General disorders","assessmentType":"SYSTEMATIC_ASSESSMENT","stats":[{"groupId":"EG000","numEvents":0,"numAffected":0,"numAtRisk":93},{"groupId":"EG001","numEvents":2,"numAffected":2,"numAtRisk":463},{"groupId":"EG002","numEvents":0,"numAffected":0,"numAtRisk":244}]},{"term":"Other Study Related","organSystem":"Investigations","assessmentType":"SYSTEMATIC_ASSESSMENT","stats":[{"groupId":"EG000","numEvents":9,"numAffected":9,"numAtRisk":93},{"groupId":"EG001","numEvents":20,"numAffected":19,"numAtRisk":463},{"groupId":"EG002","numEvents":2,"numAffected":2,"numAtRisk":244}]},{"term":"Pericardial Effusion","organSystem":"Cardiac disorders","assessmentType":"SYSTEMATIC_ASSESSMENT","stats":[{"groupId":"EG000","numEvents":3,"numAffected":3,"numAtRisk":93},{"groupId":"EG001","numEvents":10,"numAffected":10,"numAtRisk":463},{"groupId":"EG002","numEvents":0,"numAffected":0,"numAtRisk":244}]},{"term":"Pleural Effusion","organSystem":"Respiratory, thoracic and mediastinal disorders","assessmentType":"SYSTEMATIC_ASSESSMENT","stats":[{"groupId":"EG000","numEvents":0,"numAffected":0,"numAtRisk":93},{"groupId":"EG001","numEvents":1,"numAffected":1,"numAtRisk":463},{"groupId":"EG002","numEvents":0,"numAffected":0,"numAtRisk":244}]},{"term":"Rectal Bleeding","organSystem":"Gastrointestinal disorders","assessmentType":"SYSTEMATIC_ASSESSMENT","stats":[{"groupId":"EG000","numEvents":1,"numAffected":1,"numAtRisk":93},{"groupId":"EG001","numEvents":5,"numAffected":3,"numAtRisk":463},{"groupId":"EG002","numEvents":5,"numAffected":5,"numAtRisk":244}]},{"term":"Stroke - Ischemic","organSystem":"Nervous system disorders","assessmentType":"SYSTEMATIC_ASSESSMENT","stats":[{"groupId":"EG000","numEvents":0,"numAffected":0,"numAtRisk":93},{"groupId":"EG001","numEvents":1,"numAffected":1,"numAtRisk":463},{"groupId":"EG002","numEvents":0,"numAffected":0,"numAtRisk":244}]},{"term":"Transient Ischemic Attack (TIA)","organSystem":"Nervous system disorders","assessmentType":"SYSTEMATIC_ASSESSMENT","stats":[{"groupId":"EG000","numEvents":1,"numAffected":1,"numAtRisk":93},{"groupId":"EG001","numEvents":2,"numAffected":2,"numAtRisk":463},{"groupId":"EG002","numEvents":0,"numAffected":0,"numAtRisk":244}]},{"term":"Vasovagal Reactions","organSystem":"Nervous system disorders","assessmentType":"SYSTEMATIC_ASSESSMENT","stats":[{"groupId":"EG000","numEvents":0,"numAffected":0,"numAtRisk":93},{"groupId":"EG001","numEvents":1,"numAffected":1,"numAtRisk":463},{"groupId":"EG002","numEvents":0,"numAffected":0,"numAtRisk":244}]}]},"moreInfoModule":{"certainAgreement":{"piSponsorEmployee":false,"restrictionType":"LTE60","restrictiveAgreement":true},"pointOfContact":{"title":"Watchman Trial Manager","organization":"Boston Scientific","phone":"1-800-227-3422"}}},"derivedSection":{"miscInfoModule":{"versionHolder":"2024-02-14"},"conditionBrowseModule":{"meshes":[{"id":"D000001281","term":"Atrial Fibrillation"}],"ancestors":[{"id":"D000002318","term":"Cardiovascular Diseases"},{"id":"D000001145","term":"Arrhythmias, Cardiac"},{"id":"D000006331","term":"Heart Diseases"},{"id":"D000010335","term":"Pathologic Processes"}],"browseLeaves":[{"id":"M21996","name":"Stroke","relevance":"LOW"},{"id":"M10233","name":"Ischemia","relevance":"LOW"},{"id":"M5485","name":"Ischemic Attack, Transient","relevance":"LOW"},{"id":"M4276","name":"Atrial Fibrillation","asFound":"Atrial Fibrillation","relevance":"HIGH"},{"id":"M4143","name":"Arrhythmias, Cardiac","relevance":"LOW"},{"id":"M9109","name":"Heart Diseases","relevance":"LOW"}],"browseBranches":[{"abbrev":"BC10","name":"Nervous System Diseases"},{"abbrev":"BC14","name":"Heart and Blood Diseases"},{"abbrev":"All","name":"All Conditions"},{"abbrev":"BC23","name":"Symptoms and General Pathology"}]},"interventionBrowseModule":{"meshes":[{"id":"D000014859","term":"Warfarin"}],"ancestors":[{"id":"D000000925","term":"Anticoagulants"}],"browseLeaves":[{"id":"M17292","name":"Warfarin","asFound":"Third","relevance":"HIGH"},{"id":"M3934","name":"Anticoagulants","relevance":"LOW"}],"browseBranches":[{"abbrev":"AnCoag","name":"Anticoagulants"},{"abbrev":"All","name":"All Drugs and Chemicals"}]}},"hasResults":true}