{"protocolSection":{"identificationModule":{"nctId":"NCT02040259","orgStudyIdInfo":{"id":"T4025"},"organization":{"fullName":"Stryker Neurovascular","class":"INDUSTRY"},"briefTitle":"Trevo® Retriever Registry Post Market Surveillance","officialTitle":"Stryker Neurovascular Trevo® Retriever Registry"},"statusModule":{"statusVerifiedDate":"2020-06","overallStatus":"COMPLETED","expandedAccessInfo":{"hasExpandedAccess":false},"startDateStruct":{"date":"2013-11-25"},"primaryCompletionDateStruct":{"date":"2017-12-28","type":"ACTUAL"},"completionDateStruct":{"date":"2017-12-28","type":"ACTUAL"},"studyFirstSubmitDate":"2014-01-15","studyFirstSubmitQcDate":"2014-01-16","studyFirstPostDateStruct":{"date":"2014-01-20","type":"ESTIMATED"},"resultsFirstSubmitDate":"2019-02-14","resultsFirstSubmitQcDate":"2020-06-11","resultsFirstPostDateStruct":{"date":"2020-06-24","type":"ACTUAL"},"lastUpdateSubmitDate":"2020-06-11","lastUpdatePostDateStruct":{"date":"2020-06-24","type":"ACTUAL"}},"sponsorCollaboratorsModule":{"responsibleParty":{"type":"SPONSOR"},"leadSponsor":{"name":"Stryker Neurovascular","class":"INDUSTRY"}},"oversightModule":{"oversightHasDmc":false},"descriptionModule":{"briefSummary":"The purpose of the Trevo® Retriever Registry is to collect real world performance data of the Trevo Retriever which is intended to restore blood flow in the neurovasculature by removing thrombus in patients experiencing ischemic stroke.","detailedDescription":"Trevo Retriever Registry is a prospective, open-label, consecutive enrollment, multi-center, international registry that may enroll a maximum of 2000 patients at up to 100 sites worldwide. Revascularization status will be assessed at the end of the procedure using the modified TICI (Thrombolysis in Cerebral Infarction)score. Additional data collection will include:\n\n1. Day 90 mRS assessment\n2. Day 90 all cause mortality\n3. Neurological deterioration at 24 hours post procedure, defined as a four or more point increase in the NIHSS score from the baseline score\n4. Rates of device and procedure related serious adverse events (AEs)"},"conditionsModule":{"conditions":["Ischemic Stroke"],"keywords":["ischemic stroke","mechanical thrombectomy device","Retriever"]},"designModule":{"studyType":"OBSERVATIONAL","patientRegistry":true,"targetDuration":"90 Days","designInfo":{"observationalModel":"COHORT","timePerspective":"PROSPECTIVE"},"enrollmentInfo":{"count":2008,"type":"ACTUAL"}},"armsInterventionsModule":{"armGroups":[{"label":"Mechanical thrombectomy, Trevo Retriever","description":"Mechanical thrombectomy, Trevo Retriever"}]},"outcomesModule":{"primaryOutcomes":[{"measure":"Revascularization Status Assessment at the End of the Trevo Retriever Procedure Using the Modified TICI Score","description":"The primary end point is revascularization based on modified Thrombolysis in Cerebral Infarction score (mTICI). Per protocol, successful revascularization is defined as having a modified TICI score ≥2b at the end of the procedure.\n\nModified TICI Scale (mTICI Scale) Grade 0 - No Perfusion Grade 1 - Penetration with Minimal Perfusion Grade 2 - Partial Perfusion Grade 2a - Only partial filling (\\< 50%) of the entire vascular territory is visualized.\n\nGrade 2b - Filling of \\> 50% all of the expected vascular territory is visualized, but the filling is slower than normal.\n\nGrade 3 - Complete Perfusion","timeFrame":"Post Procedure"}],"secondaryOutcomes":[{"measure":"Modified Rankin Scale (mRS) Assessment at 90 Days","description":"The Modified Rankin Scale mRS is a scale for measuring the degree of disability or dependence in the daily activities of people who have suffered a stroke or other causes of neurological disability.\n\nA good clinical outcome = mRS scale 0-2. 0 - No symptoms at all.\n\n1. - No significant disability despite symptoms; able to carry out all usual duties and activities.\n2. - Slight disability; unable to carry out all previous activities, but able to look after own affairs without assistance.\n3. - Moderate disability; requiring some help, but able to walk without assistance.\n4. - Moderately severe disability; unable to walk without assistance and unable to attend to own bodily needs without assistance.\n5. - Severe disability; bedridden, incontinent and requiring constant nursing care and attention.\n6. - Dead.","timeFrame":"90 days"},{"measure":"All Cause Mortality","description":"Overall mortality rate","timeFrame":"90 days"},{"measure":"Device and Procedure Related Serious Adverse Events (SAEs)","description":"Rate of Device and Procedure related serious adverse events (SAE)","timeFrame":"90 days"},{"measure":"Neurological Deterioration at 24 Hours","description":"Neurological Deterioration at 24 hours post procedure, defined as a 4 point or more increase in the NIHSS score over the baseline score.","timeFrame":"24 hours"}]},"eligibilityModule":{"eligibilityCriteria":"Inclusion Criteria:\n\n* Subjects experiencing acute ischemic stroke who are eligible for restoration of blood flow using any approved Trevo Retriever in the neurovasculature to remove thrombus\n* Trevo Retriever is the initial mechanical neuro-thrombectomy device used to remove the thrombus\n* Signed Informed Consent obtained\n* Subject willing to comply with the protocol follow-up requirements\n* Anticipated life expectancy of at least 3 months\n\nExclusion Criteria:\n\n* The subject is participating in another mechanical neuro-thrombectomy device trial or any other clinical trial where the study procedure or treatment might confound the study end point.","healthyVolunteers":false,"sex":"ALL","stdAges":["CHILD","ADULT","OLDER_ADULT"],"studyPopulation":"Acute ischemic stroke patients who may be referred for mechanical thrombectomy is used to removed thrombus in the neurovasculature","samplingMethod":"PROBABILITY_SAMPLE"},"contactsLocationsModule":{"overallOfficials":[{"name":"Erol Veznedaroglu, MD","affiliation":"Drexel Neurosciences Institute,Philadelphia","role":"PRINCIPAL_INVESTIGATOR"},{"name":"Ronald Budzik, MD","affiliation":"Riverside Methodist Hospital/ Ohio Health Research Institute, Columbus, OH","role":"PRINCIPAL_INVESTIGATOR"}],"locations":[{"facility":"Banner Desert Medical Center","city":"Mesa","state":"Arizona","zip":"85202","country":"United States","geoPoint":{"lat":33.42227,"lon":-111.82264}},{"facility":"St. Joseph's Hospital and Medical Center - Dignity Health (BNI Phoenix)","city":"Phoenix","state":"Arizona","zip":"85013","country":"United States","geoPoint":{"lat":33.44838,"lon":-112.07404}},{"facility":"Eden Medical Center","city":"Castro Valley","state":"California","zip":"94546","country":"United States","geoPoint":{"lat":37.6941,"lon":-122.08635}},{"facility":"St. Jude Medical Center","city":"Fullerton","state":"California","zip":"92835","country":"United States","geoPoint":{"lat":33.87029,"lon":-117.92534}},{"facility":"Scripps Memorial Hospital","city":"La Jolla","state":"California","zip":"92037","country":"United States","geoPoint":{"lat":32.84727,"lon":-117.2742}},{"facility":"UCLA Medical Center","city":"Los Angeles","state":"California","zip":"90095","country":"United States","geoPoint":{"lat":34.05223,"lon":-118.24368}},{"facility":"UCI Medical Center","city":"Orange","state":"California","zip":"92868","country":"United States","geoPoint":{"lat":33.78779,"lon":-117.85311}},{"facility":"California Pacific Medical Center (CPMC)","city":"San Francisco","state":"California","zip":"94114","country":"United States","geoPoint":{"lat":37.77493,"lon":-122.41942}},{"facility":"Good Samaritan Hospital Regional Medical Center","city":"San Jose","state":"California","zip":"95124","country":"United States","geoPoint":{"lat":37.33939,"lon":-121.89496}},{"facility":"Los Robles Hospital and Medical Center","city":"Thousand Oaks","state":"California","zip":"91360","country":"United States","geoPoint":{"lat":34.17056,"lon":-118.83759}},{"facility":"Yale University / Yale-New Haven Hospital","city":"New Haven","state":"Connecticut","zip":"06520","country":"United States","geoPoint":{"lat":41.30815,"lon":-72.92816}},{"facility":"Christiana Hospital","city":"Newark","state":"Delaware","zip":"19718","country":"United States","geoPoint":{"lat":39.68372,"lon":-75.74966}},{"facility":"Memorial Regional Hospital","city":"Hollywood","state":"Florida","zip":"33021","country":"United States","geoPoint":{"lat":26.0112,"lon":-80.14949}},{"facility":"Baptist Medical Center - Jacksonville","city":"Jacksonville","state":"Florida","zip":"32207","country":"United States","geoPoint":{"lat":30.33218,"lon":-81.65565}},{"facility":"University of Miami (Jackson Memorial)","city":"Miami","state":"Florida","zip":"33126","country":"United States","geoPoint":{"lat":25.77427,"lon":-80.19366}},{"facility":"Florida Hospital","city":"Orlando","state":"Florida","zip":"32803","country":"United States","geoPoint":{"lat":28.53834,"lon":-81.37924}},{"facility":"Center for Advanced Research Excellence (St. Mary's Medical Center)","city":"West Palm Beach","state":"Florida","zip":"33409","country":"United States","geoPoint":{"lat":26.71534,"lon":-80.05337}},{"facility":"Emory University at Grady Memorial Hospital","city":"Atlanta","state":"Georgia","zip":"30303","country":"United States","geoPoint":{"lat":33.749,"lon":-84.38798}},{"facility":"WellStar Kennestone Hospital","city":"Marietta","state":"Georgia","zip":"30060","country":"United States","geoPoint":{"lat":33.9526,"lon":-84.54993}},{"facility":"Advocate Christ Lutheran Hospital","city":"Park Ridge","state":"Illinois","zip":"60068","country":"United States","geoPoint":{"lat":42.01114,"lon":-87.84062}},{"facility":"Peoria Radiology Research & Education Foundation","city":"Peoria","state":"Illinois","zip":"61637","country":"United States","geoPoint":{"lat":40.69365,"lon":-89.58899}},{"facility":"University of Iowa","city":"Iowa City","state":"Iowa","zip":"52242","country":"United States","geoPoint":{"lat":41.66113,"lon":-91.53017}},{"facility":"Baptist Health Lexington","city":"Lexington","state":"Kentucky","zip":"40503","country":"United States","geoPoint":{"lat":37.98869,"lon":-84.47772}},{"facility":"University of Kentucky","city":"Lexington","state":"Kentucky","zip":"40536","country":"United States","geoPoint":{"lat":37.98869,"lon":-84.47772}},{"facility":"Maine Medical Center","city":"Portland","state":"Maine","zip":"04102","country":"United States","geoPoint":{"lat":43.66147,"lon":-70.25533}},{"facility":"University of Maryland Medical Center","city":"Baltimore","state":"Maryland","zip":"21201","country":"United States","geoPoint":{"lat":39.29038,"lon":-76.61219}},{"facility":"Johns Hopkins University","city":"Baltimore","state":"Maryland","zip":"21287","country":"United States","geoPoint":{"lat":39.29038,"lon":-76.61219}},{"facility":"UMass Memorial","city":"Worcester","state":"Massachusetts","zip":"01655","country":"United States","geoPoint":{"lat":42.26259,"lon":-71.80229}},{"facility":"McLaren Flint Regional Medical Center","city":"Flint","state":"Michigan","zip":"48532","country":"United States","geoPoint":{"lat":43.01253,"lon":-83.68746}},{"facility":"St. Joseph Mercy","city":"Pontiac","state":"Michigan","zip":"48341","country":"United States","geoPoint":{"lat":42.63892,"lon":-83.29105}},{"facility":"Capital Health System","city":"Trenton","state":"New Jersey","zip":"08638","country":"United States","geoPoint":{"lat":40.21705,"lon":-74.74294}},{"facility":"Buffalo General Medical Center","city":"Buffalo","state":"New York","zip":"14203","country":"United States","geoPoint":{"lat":42.88645,"lon":-78.87837}},{"facility":"Mount Sinai Health System","city":"New York","state":"New York","zip":"10029","country":"United States","geoPoint":{"lat":40.71427,"lon":-74.00597}},{"facility":"Vassar Brothers Medical Center","city":"Poughkeepsie","state":"New York","zip":"12601","country":"United States","geoPoint":{"lat":41.70037,"lon":-73.92097}},{"facility":"Mission Hospital","city":"Asheville","state":"North Carolina","zip":"28801","country":"United States","geoPoint":{"lat":35.60095,"lon":-82.55402}},{"facility":"Ohio State University Medical Center","city":"Columbus","state":"Ohio","zip":"43210","country":"United States","geoPoint":{"lat":39.96118,"lon":-82.99879}},{"facility":"Riverside Methodist Hospital/ Ohio Health Research Institute","city":"Columbus","state":"Ohio","zip":"43214","country":"United States","geoPoint":{"lat":39.96118,"lon":-82.99879}},{"facility":"Oregon Stroke Center, Oregon Health & Science University (OHSU)","city":"Portland","state":"Oregon","zip":"97239","country":"United States","geoPoint":{"lat":45.52345,"lon":-122.67621}},{"facility":"Abington Memorial Hospital","city":"Abington","state":"Pennsylvania","zip":"19001","country":"United States","geoPoint":{"lat":40.12067,"lon":-75.11795}},{"facility":"Drexel University","city":"Philadelphia","state":"Pennsylvania","zip":"19107","country":"United States","geoPoint":{"lat":39.95233,"lon":-75.16379}},{"facility":"UPMC Presbyterian","city":"Pittsburgh","state":"Pennsylvania","zip":"15213","country":"United States","geoPoint":{"lat":40.44062,"lon":-79.99589}},{"facility":"Erlanger Hospital","city":"Chattanooga","state":"Tennessee","zip":"37377","country":"United States","geoPoint":{"lat":35.04563,"lon":-85.30968}},{"facility":"University of Tennessee Medical Center Knoxville","city":"Knoxville","state":"Tennessee","zip":"37920","country":"United States","geoPoint":{"lat":35.96064,"lon":-83.92074}},{"facility":"Methodist Healthcare - Memphis Hospitals","city":"Memphis","state":"Tennessee","zip":"38120","country":"United States","geoPoint":{"lat":35.14953,"lon":-90.04898}},{"facility":"Valley Baptist Harlingen","city":"Harlingen","state":"Texas","zip":"78550","country":"United States","geoPoint":{"lat":26.19063,"lon":-97.6961}},{"facility":"Houston Methodist Hospital","city":"Houston","state":"Texas","zip":"77030","country":"United States","geoPoint":{"lat":29.76328,"lon":-95.36327}},{"facility":"Memorial Hermann Hospital","city":"Houston","state":"Texas","zip":"77030","country":"United States","geoPoint":{"lat":29.76328,"lon":-95.36327}},{"facility":"Toronto Western Hospital","city":"Toronto","zip":"M5T 2S8","country":"Canada","geoPoint":{"lat":43.70011,"lon":-79.4163}},{"facility":"University Hospital Hradec Králové","city":"Hradec Králové","zip":"50005","country":"Czechia","geoPoint":{"lat":50.20923,"lon":15.83277}},{"facility":"CHU Bordeaux","city":"Bordeaux","zip":"33000","country":"France","geoPoint":{"lat":44.84044,"lon":-0.5805}},{"facility":"Hôpital Henri Mondor","city":"Creteil","zip":"94000","country":"France","geoPoint":{"lat":48.78333,"lon":2.46667}},{"facility":"GRENOBLE","city":"Grenoble","zip":"38700","country":"France","geoPoint":{"lat":45.16667,"lon":5.71667}},{"facility":"CHU Lille","city":"Lille","zip":"59037","country":"France","geoPoint":{"lat":50.63297,"lon":3.05858}},{"facility":"Hopital Dupuytren","city":"Limoges","zip":"59037","country":"France","geoPoint":{"lat":45.83153,"lon":1.25781}},{"facility":"CHU Nancy","city":"Nancy","zip":"54035","country":"France","geoPoint":{"lat":48.68439,"lon":6.18496}},{"facility":"La Pitié Salpêtrière","city":"Paris","zip":"75013","country":"France","geoPoint":{"lat":48.85341,"lon":2.3488}},{"facility":"La Fondation Ophtalmologique Adolphe de Rothschild","city":"Paris","zip":"75019","country":"France","geoPoint":{"lat":48.85341,"lon":2.3488}},{"facility":"CHU de Tours","city":"Tours","zip":"37044","country":"France","geoPoint":{"lat":47.38333,"lon":0.68333}},{"facility":"Klinikum Augsburg","city":"Augsburg","zip":"86156","country":"Germany","geoPoint":{"lat":48.37154,"lon":10.89851}},{"facility":"Vivantes Klinikum Neukölln","city":"Berlin","zip":"12351","country":"Germany","geoPoint":{"lat":52.52437,"lon":13.41053}},{"facility":"Klinikum Dortmund","city":"Dortmund","zip":"44137","country":"Germany","geoPoint":{"lat":51.51494,"lon":7.466}},{"facility":"Uniklinik Erlangen","city":"Erlangen","zip":"91504","country":"Germany","geoPoint":{"lat":49.59099,"lon":11.00783}},{"facility":"Universitätsklinikum Freiburg","city":"Freiburg","zip":"79106","country":"Germany","geoPoint":{"lat":47.9959,"lon":7.85222}},{"facility":"Uniklinik Heidelberg","city":"Heidelberg","zip":"69120","country":"Germany","geoPoint":{"lat":49.40768,"lon":8.69079}},{"facility":"Uniklinik Homburg","city":"Homburg/ Saar","zip":"66421","country":"Germany","geoPoint":{"lat":49.32637,"lon":7.33867}},{"facility":"UKSH; Lübeck","city":"Lubeck","zip":"23538","country":"Germany","geoPoint":{"lat":53.86893,"lon":10.68729}},{"facility":"Uniklinik Mainz- Mainz","city":"Mainz-GE","zip":"55101","country":"Germany","geoPoint":{"lat":49.9903,"lon":8.25142}},{"facility":"National Institute of Clinical Neurosciences","city":"Budapest","zip":"1145","country":"Hungary","geoPoint":{"lat":47.49801,"lon":19.03991}},{"facility":"Spedali Civili di Brescia","city":"Brescia","zip":"25123","country":"Italy","geoPoint":{"lat":45.53558,"lon":10.21472}},{"facility":"Ospedale San Martino","city":"Genova","zip":"16132","country":"Italy","geoPoint":{"lat":44.40478,"lon":8.94438}},{"facility":"Kyungpook National University Hospital","city":"Jungni I Gu","zip":"700-721","country":"Korea, Republic of","geoPoint":{"lat":35.22022,"lon":128.94639}},{"facility":"Seoul National University Bundang Hospital","city":"Seongnam-si","zip":"463-707","country":"Korea, Republic of","geoPoint":{"lat":37.43861,"lon":127.13778}},{"facility":"National Neuroscience Institute,","city":"Singapore","zip":"308433","country":"Singapore","geoPoint":{"lat":1.28967,"lon":103.85007}},{"facility":"Hospital Universitari de Bellvitge","city":"L'Hospitalet de Llobregat","state":"Barcelona","zip":"08907","country":"Spain","geoPoint":{"lat":41.35967,"lon":2.10028}},{"facility":"Hospital Universitario De La Princesa","city":"Madrid","zip":"28006","country":"Spain","geoPoint":{"lat":40.4165,"lon":-3.70256}},{"facility":"Hospital Universitario Central De Asturias","city":"Oviedo","zip":"33006","country":"Spain","geoPoint":{"lat":43.36029,"lon":-5.84476}},{"facility":"Son Espases de Mallorca","city":"Palma de Mallorca","zip":"7120","country":"Spain","geoPoint":{"lat":39.56939,"lon":2.65024}},{"facility":"Hospital Universitario Donostia","city":"San Sebastian","zip":"20014","country":"Spain","geoPoint":{"lat":43.31283,"lon":-1.97499}},{"facility":"Kantonsspital Aarau","city":"Aarau","zip":"5000","country":"Switzerland","geoPoint":{"lat":47.39254,"lon":8.04422}},{"facility":"Siriraj Hospital","city":"Bangkok","zip":"10700","country":"Thailand","geoPoint":{"lat":13.75398,"lon":100.50144}}]},"referencesModule":{"references":[{"pmid":"33430634","type":"DERIVED","citation":"Nogueira RG, Haussen DC, Liebeskind D, Jovin TG, Gupta R, Jadhav A, Budzik RF, Baxter B, Krajina A, Bonafe A, Malek A, Narata AP, Shields R, Zhang Y, Morgan P, Bartolini B, English J, Frankel MR, Veznedaroglu E; Trevo Registry and DAWN Trial Investigators. Stroke Imaging Selection Modality and Endovascular Therapy Outcomes in the Early and Extended Time Windows. Stroke. 2021 Jan;52(2):491-497. doi: 10.1161/STROKEAHA.120.031685. Epub 2021 Jan 12."}]}},"resultsSection":{"participantFlowModule":{"recruitmentDetails":"The Trevo Retriever Registry was a prospective, open-label, consecutive enrollment, multi-center international registry designed to enroll up to 2,000 subjects at up to 100 clinical sites worldwide.","groups":[{"id":"FG000","title":"Mechanical Thrombectomy, Trevo Retriever","description":"The Trevo Retriever registry was a prospective, open-label, consecutive enrollment, multi-center global registry to assess real world performance of the Trevo Retriever which is intended to restore blood flow in the neurovasculature be removing thrombus in subjects experiencing ischemic stroke"}],"periods":[{"title":"Overall Study","milestones":[{"type":"STARTED","achievements":[{"groupId":"FG000","numSubjects":"2008"}]},{"type":"COMPLETED","achievements":[{"groupId":"FG000","numSubjects":"1645"}]},{"type":"NOT COMPLETED","achievements":[{"groupId":"FG000","numSubjects":"363"}]}],"dropWithdraws":[{"type":"Death","reasons":[{"groupId":"FG000","numSubjects":"280"}]},{"type":"Lost to Follow-up","reasons":[{"groupId":"FG000","numSubjects":"76"}]},{"type":"Assessment not completed","reasons":[{"groupId":"FG000","numSubjects":"3"}]},{"type":"Withdrawal by Subject","reasons":[{"groupId":"FG000","numSubjects":"4"}]}]}]},"baselineCharacteristicsModule":{"groups":[{"id":"BG000","title":"Trevo Retriever","description":"Mechanical thrombectomy, Trevo Retriever"}],"denoms":[{"units":"Participants","counts":[{"groupId":"BG000","value":"2008"}]}],"measures":[{"title":"Age, Categorical","description":"Baseline demographics included in the intent to treat population.","paramType":"COUNT_OF_PARTICIPANTS","unitOfMeasure":"Participants","classes":[{"denoms":[{"units":"Participants","counts":[{"groupId":"BG000","value":"2008"}]}],"categories":[{"title":"<=18 years","measurements":[{"groupId":"BG000","value":"0"}]},{"title":"Between 18 and 65 years","measurements":[{"groupId":"BG000","value":"735"}]},{"title":">=65 years","measurements":[{"groupId":"BG000","value":"1273"}]}]}]},{"title":"Age, Continuous","paramType":"MEAN","dispersionType":"STANDARD_DEVIATION","unitOfMeasure":"Years","classes":[{"denoms":[{"units":"Participants","counts":[{"groupId":"BG000","value":"2008"}]}],"categories":[{"measurements":[{"groupId":"BG000","value":"68.3","spread":"14.4"}]}]}]},{"title":"Sex: Female, Male","paramType":"COUNT_OF_PARTICIPANTS","unitOfMeasure":"Participants","classes":[{"denoms":[{"units":"Participants","counts":[{"groupId":"BG000","value":"2008"}]}],"categories":[{"title":"Female","measurements":[{"groupId":"BG000","value":"1041"}]},{"title":"Male","measurements":[{"groupId":"BG000","value":"967"}]}]}]},{"title":"Race and Ethnicity Not Collected","populationDescription":"Race and Ethnicity were not collected from any participant.","paramType":"COUNT_OF_PARTICIPANTS","unitOfMeasure":"Participants","classes":[{"denoms":[{"units":"Participants","counts":[{"groupId":"BG000","value":"0"}]}]}]},{"title":"Region of Enrollment","paramType":"NUMBER","unitOfMeasure":"participants","classes":[{"title":"Canada","denoms":[{"units":"Participants","counts":[{"groupId":"BG000","value":"2008"}]}],"categories":[{"measurements":[{"groupId":"BG000","value":"8"}]}]},{"title":"South Korea","denoms":[{"units":"Participants","counts":[{"groupId":"BG000","value":"2008"}]}],"categories":[{"measurements":[{"groupId":"BG000","value":"27"}]}]},{"title":"Singapore","denoms":[{"units":"Participants","counts":[{"groupId":"BG000","value":"2008"}]}],"categories":[{"measurements":[{"groupId":"BG000","value":"8"}]}]},{"title":"Hungary","denoms":[{"units":"Participants","counts":[{"groupId":"BG000","value":"2008"}]}],"categories":[{"measurements":[{"groupId":"BG000","value":"28"}]}]},{"title":"United States","denoms":[{"units":"Participants","counts":[{"groupId":"BG000","value":"2008"}]}],"categories":[{"measurements":[{"groupId":"BG000","value":"1365"}]}]},{"title":"Czechia","denoms":[{"units":"Participants","counts":[{"groupId":"BG000","value":"2008"}]}],"categories":[{"measurements":[{"groupId":"BG000","value":"131"}]}]},{"title":"Italy","denoms":[{"units":"Participants","counts":[{"groupId":"BG000","value":"2008"}]}],"categories":[{"measurements":[{"groupId":"BG000","value":"12"}]}]},{"title":"France","denoms":[{"units":"Participants","counts":[{"groupId":"BG000","value":"2008"}]}],"categories":[{"measurements":[{"groupId":"BG000","value":"183"}]}]},{"title":"Thailand","denoms":[{"units":"Participants","counts":[{"groupId":"BG000","value":"2008"}]}],"categories":[{"measurements":[{"groupId":"BG000","value":"20"}]}]},{"title":"Switzerland","denoms":[{"units":"Participants","counts":[{"groupId":"BG000","value":"2008"}]}],"categories":[{"measurements":[{"groupId":"BG000","value":"9"}]}]},{"title":"Germany","denoms":[{"units":"Participants","counts":[{"groupId":"BG000","value":"2008"}]}],"categories":[{"measurements":[{"groupId":"BG000","value":"83"}]}]},{"title":"Spain","denoms":[{"units":"Participants","counts":[{"groupId":"BG000","value":"2008"}]}],"categories":[{"measurements":[{"groupId":"BG000","value":"134"}]}]}]}]},"outcomeMeasuresModule":{"outcomeMeasures":[{"type":"PRIMARY","title":"Revascularization Status Assessment at the End of the Trevo Retriever Procedure Using the Modified TICI Score","description":"The primary end point is revascularization based on modified Thrombolysis in Cerebral Infarction score (mTICI). Per protocol, successful revascularization is defined as having a modified TICI score ≥2b at the end of the procedure.\n\nModified TICI Scale (mTICI Scale) Grade 0 - No Perfusion Grade 1 - Penetration with Minimal Perfusion Grade 2 - Partial Perfusion Grade 2a - Only partial filling (\\< 50%) of the entire vascular territory is visualized.\n\nGrade 2b - Filling of \\> 50% all of the expected vascular territory is visualized, but the filling is slower than normal.\n\nGrade 3 - Complete Perfusion","populationDescription":"Intention to Treat (ITT)","reportingStatus":"POSTED","paramType":"COUNT_OF_PARTICIPANTS","unitOfMeasure":"Participants","timeFrame":"Post Procedure","groups":[{"id":"OG000","title":"Mechanical Thrombectomy, Trevo Retriever","description":"Study participants undergoing mechanical thrombectomy, with the Trevo Retriever"}],"denoms":[{"units":"Participants","counts":[{"groupId":"OG000","value":"2008"}]}],"classes":[{"categories":[{"measurements":[{"groupId":"OG000","value":"1863"}]}]}]},{"type":"SECONDARY","title":"Modified Rankin Scale (mRS) Assessment at 90 Days","description":"The Modified Rankin Scale mRS is a scale for measuring the degree of disability or dependence in the daily activities of people who have suffered a stroke or other causes of neurological disability.\n\nA good clinical outcome = mRS scale 0-2. 0 - No symptoms at all.\n\n1. - No significant disability despite symptoms; able to carry out all usual duties and activities.\n2. - Slight disability; unable to carry out all previous activities, but able to look after own affairs without assistance.\n3. - Moderate disability; requiring some help, but able to walk without assistance.\n4. - Moderately severe disability; unable to walk without assistance and unable to attend to own bodily needs without assistance.\n5. - Severe disability; bedridden, incontinent and requiring constant nursing care and attention.\n6. - Dead.","populationDescription":"Per Protocol. This endpoint includes patient with a baseline and 90 day assessment. 1997 participants that underwent mechanical thrombectomy with the Trevo retriever completed both assessments.","reportingStatus":"POSTED","paramType":"COUNT_OF_PARTICIPANTS","unitOfMeasure":"Participants","timeFrame":"90 days","groups":[{"id":"OG000","title":"Mechanical Thrombectomy, Trevo Retriever","description":"Study participants that have undergone mechanical thrombectomy with Trevo retriever with a completed modified Rankin Scale assessment at baseline and 90 days."}],"denoms":[{"units":"Participants","counts":[{"groupId":"OG000","value":"1997"}]}],"classes":[{"categories":[{"measurements":[{"groupId":"OG000","value":"1104"}]}]}]},{"type":"SECONDARY","title":"All Cause Mortality","description":"Overall mortality rate","populationDescription":"Intention to Treat (ITT)","reportingStatus":"POSTED","paramType":"COUNT_OF_PARTICIPANTS","unitOfMeasure":"Participants","timeFrame":"90 days","groups":[{"id":"OG000","title":"Mechanical Thrombectomy, Trevo Retriever","description":"Study participants that have undergone mechanical thrombectomy with Trevo retriever."}],"denoms":[{"units":"Participants","counts":[{"groupId":"OG000","value":"2008"}]}],"classes":[{"categories":[{"measurements":[{"groupId":"OG000","value":"280"}]}]}]},{"type":"SECONDARY","title":"Device and Procedure Related Serious Adverse Events (SAEs)","description":"Rate of Device and Procedure related serious adverse events (SAE)","populationDescription":"Intention to Treat (ITT)","reportingStatus":"POSTED","paramType":"COUNT_OF_PARTICIPANTS","unitOfMeasure":"Participants","timeFrame":"90 days","groups":[{"id":"OG000","title":"Mechanical Thrombectomy, Trevo Retriever","description":"Study participants that have undergone mechanical thrombectomy with Trevo retriever."}],"denoms":[{"units":"Participants","counts":[{"groupId":"OG000","value":"2008"}]}],"classes":[{"categories":[{"measurements":[{"groupId":"OG000","value":"49"}]}]}]},{"type":"SECONDARY","title":"Neurological Deterioration at 24 Hours","description":"Neurological Deterioration at 24 hours post procedure, defined as a 4 point or more increase in the NIHSS score over the baseline score.","populationDescription":"Intention to Treat","reportingStatus":"POSTED","paramType":"COUNT_OF_PARTICIPANTS","unitOfMeasure":"Participants","timeFrame":"24 hours","groups":[{"id":"OG000","title":"Mechanical Thrombectomy, Trevo Retriever","description":"Study participants that have undergone mechanical thrombectomy with Trevo retriever."}],"denoms":[{"units":"Participants","counts":[{"groupId":"OG000","value":"2008"}]}],"classes":[{"categories":[{"measurements":[{"groupId":"OG000","value":"97"}]}]}]}]},"adverseEventsModule":{"frequencyThreshold":"0","timeFrame":"90 days","eventGroups":[{"id":"EG000","title":"Mechanical Thrombectomy, Trevo Retriever","description":"The Trevo Retriever registry was a prospective, open-label, consecutive enrollment, multi-center global registry to assess real world performance of the Trevo Retriever which is intended to restore blood flow in the neurovasculature be removing thrombus in subjects experiencing ischemic stroke","deathsNumAffected":280,"deathsNumAtRisk":2008,"seriousNumAffected":427,"seriousNumAtRisk":2008,"otherNumAffected":174,"otherNumAtRisk":2008}],"seriousEvents":[{"term":"Thrombocytopenia","organSystem":"Blood and lymphatic system disorders","assessmentType":"SYSTEMATIC_ASSESSMENT","stats":[{"groupId":"EG000","numAffected":1,"numAtRisk":2008}]},{"term":"Acute myocardial infarction","organSystem":"Cardiac disorders","assessmentType":"SYSTEMATIC_ASSESSMENT","stats":[{"groupId":"EG000","numAffected":4,"numAtRisk":2008}]},{"term":"Angina pectoris","organSystem":"Cardiac disorders","assessmentType":"SYSTEMATIC_ASSESSMENT","stats":[{"groupId":"EG000","numAffected":1,"numAtRisk":2008}]},{"term":"Atrial fibrillation","organSystem":"Cardiac disorders","assessmentType":"SYSTEMATIC_ASSESSMENT","stats":[{"groupId":"EG000","numAffected":5,"numAtRisk":2008}]},{"term":"Atrial septal defect","organSystem":"Cardiac disorders","assessmentType":"SYSTEMATIC_ASSESSMENT","stats":[{"groupId":"EG000","numAffected":1,"numAtRisk":2008}]},{"term":"Bradycardia","organSystem":"Cardiac disorders","assessmentType":"SYSTEMATIC_ASSESSMENT","stats":[{"groupId":"EG000","numAffected":2,"numAtRisk":2008}]},{"term":"Cardiac arrest","organSystem":"Cardiac disorders","assessmentType":"SYSTEMATIC_ASSESSMENT","stats":[{"groupId":"EG000","numAffected":20,"numAtRisk":2008}]},{"term":"Cardiac disorder","organSystem":"Cardiac disorders","assessmentType":"SYSTEMATIC_ASSESSMENT","stats":[{"groupId":"EG000","numAffected":1,"numAtRisk":2008}]},{"term":"Cardiac failure","organSystem":"Cardiac disorders","assessmentType":"SYSTEMATIC_ASSESSMENT","stats":[{"groupId":"EG000","numAffected":8,"numAtRisk":2008}]},{"term":"Cardiac failure acute","organSystem":"Cardiac disorders","assessmentType":"SYSTEMATIC_ASSESSMENT","stats":[{"groupId":"EG000","numAffected":1,"numAtRisk":2008}]},{"term":"Cardiac failure congestive","organSystem":"Cardiac disorders","assessmentType":"SYSTEMATIC_ASSESSMENT","stats":[{"groupId":"EG000","numAffected":7,"numAtRisk":2008}]},{"term":"Cardiac valve disease","organSystem":"Cardiac disorders","assessmentType":"SYSTEMATIC_ASSESSMENT","stats":[{"groupId":"EG000","numAffected":1,"numAtRisk":2008}]},{"term":"Cardiac ventricular thrombosis","organSystem":"Cardiac disorders","assessmentType":"SYSTEMATIC_ASSESSMENT","stats":[{"groupId":"EG000","numAffected":1,"numAtRisk":2008}]},{"term":"Cardio respiratory arrest","organSystem":"Cardiac disorders","assessmentType":"SYSTEMATIC_ASSESSMENT","stats":[{"groupId":"EG000","numAffected":6,"numAtRisk":2008}]},{"term":"Cardiopulmonary failure","organSystem":"Cardiac disorders","assessmentType":"SYSTEMATIC_ASSESSMENT","stats":[{"groupId":"EG000","numAffected":3,"numAtRisk":2008}]},{"term":"Intracardiac thrombus","organSystem":"Cardiac disorders","assessmentType":"SYSTEMATIC_ASSESSMENT","stats":[{"groupId":"EG000","numAffected":1,"numAtRisk":2008}]},{"term":"Mitral valve incompetence","organSystem":"Cardiac disorders","assessmentType":"SYSTEMATIC_ASSESSMENT","stats":[{"groupId":"EG000","numAffected":2,"numAtRisk":2008}]},{"term":"Mitral valve stenosis","organSystem":"Cardiac disorders","assessmentType":"SYSTEMATIC_ASSESSMENT","stats":[{"groupId":"EG000","numAffected":1,"numAtRisk":2008}]},{"term":"Myocardial infarction","organSystem":"Cardiac disorders","assessmentType":"SYSTEMATIC_ASSESSMENT","stats":[{"groupId":"EG000","numAffected":4,"numAtRisk":2008}]},{"term":"Palpitations","organSystem":"Cardiac disorders","assessmentType":"SYSTEMATIC_ASSESSMENT","stats":[{"groupId":"EG000","numAffected":1,"numAtRisk":2008}]},{"term":"Pulseless electrical activity","organSystem":"Cardiac disorders","assessmentType":"SYSTEMATIC_ASSESSMENT","stats":[{"groupId":"EG000","numAffected":4,"numAtRisk":2008}]},{"term":"Sick sinus syndrome","organSystem":"Cardiac disorders","assessmentType":"SYSTEMATIC_ASSESSMENT","stats":[{"groupId":"EG000","numAffected":1,"numAtRisk":2008}]},{"term":"Supraventricular tachycardia","organSystem":"Cardiac disorders","assessmentType":"SYSTEMATIC_ASSESSMENT","stats":[{"groupId":"EG000","numAffected":1,"numAtRisk":2008}]},{"term":"Ventricular fibrillation","organSystem":"Cardiac disorders","assessmentType":"SYSTEMATIC_ASSESSMENT","stats":[{"groupId":"EG000","numAffected":1,"numAtRisk":2008}]},{"term":"Factor V Leiden mutation","organSystem":"Congenital, familial and genetic disorders","assessmentType":"SYSTEMATIC_ASSESSMENT","stats":[{"groupId":"EG000","numAffected":1,"numAtRisk":2008}]},{"term":"Abdominal pain","organSystem":"Gastrointestinal disorders","assessmentType":"SYSTEMATIC_ASSESSMENT","stats":[{"groupId":"EG000","numAffected":1,"numAtRisk":2008}]},{"term":"Gastrointestinal haemorrhage","organSystem":"Gastrointestinal disorders","assessmentType":"SYSTEMATIC_ASSESSMENT","stats":[{"groupId":"EG000","numAffected":3,"numAtRisk":2008}]},{"term":"Intestinal ichaemia","organSystem":"Gastrointestinal disorders","assessmentType":"SYSTEMATIC_ASSESSMENT","stats":[{"groupId":"EG000","numAffected":1,"numAtRisk":2008}]},{"term":"Intestinal perforation","organSystem":"Gastrointestinal disorders","assessmentType":"SYSTEMATIC_ASSESSMENT","stats":[{"groupId":"EG000","numAffected":1,"numAtRisk":2008}]},{"term":"Nausea","organSystem":"Gastrointestinal disorders","assessmentType":"SYSTEMATIC_ASSESSMENT","stats":[{"groupId":"EG000","numAffected":1,"numAtRisk":2008}]},{"term":"Pancreatitis","organSystem":"Gastrointestinal disorders","assessmentType":"SYSTEMATIC_ASSESSMENT","stats":[{"groupId":"EG000","numAffected":2,"numAtRisk":2008}]},{"term":"Perirectal abscess","organSystem":"Gastrointestinal disorders","assessmentType":"SYSTEMATIC_ASSESSMENT","stats":[{"groupId":"EG000","numAffected":1,"numAtRisk":2008}]},{"term":"Small intestinal obstruction","organSystem":"Gastrointestinal disorders","assessmentType":"SYSTEMATIC_ASSESSMENT","stats":[{"groupId":"EG000","numAffected":1,"numAtRisk":2008}]},{"term":"Small intestinal perforation","organSystem":"Gastrointestinal disorders","assessmentType":"SYSTEMATIC_ASSESSMENT","stats":[{"groupId":"EG000","numAffected":1,"numAtRisk":2008}]},{"term":"Asthenia","organSystem":"General disorders","assessmentType":"SYSTEMATIC_ASSESSMENT","stats":[{"groupId":"EG000","numAffected":1,"numAtRisk":2008}]},{"term":"Autonomic nervous system imbalance","organSystem":"General disorders","assessmentType":"SYSTEMATIC_ASSESSMENT","stats":[{"groupId":"EG000","numAffected":1,"numAtRisk":2008}]},{"term":"Chest pain","organSystem":"General disorders","assessmentType":"SYSTEMATIC_ASSESSMENT","stats":[{"groupId":"EG000","numAffected":1,"numAtRisk":2008}]},{"term":"Death","organSystem":"General disorders","assessmentType":"SYSTEMATIC_ASSESSMENT","stats":[{"groupId":"EG000","numAffected":11,"numAtRisk":2008}]},{"term":"Delirium tremens","organSystem":"General disorders","assessmentType":"SYSTEMATIC_ASSESSMENT","stats":[{"groupId":"EG000","numAffected":1,"numAtRisk":2008}]},{"term":"General physical health deterioration","organSystem":"General disorders","assessmentType":"SYSTEMATIC_ASSESSMENT","stats":[{"groupId":"EG000","numAffected":1,"numAtRisk":2008}]},{"term":"Multi-organ failure","organSystem":"General disorders","assessmentType":"SYSTEMATIC_ASSESSMENT","stats":[{"groupId":"EG000","numAffected":1,"numAtRisk":2008}]},{"term":"Organ failure","organSystem":"General disorders","assessmentType":"SYSTEMATIC_ASSESSMENT","stats":[{"groupId":"EG000","numAffected":1,"numAtRisk":2008}]},{"term":"Liver abscess","organSystem":"Hepatobiliary disorders","assessmentType":"SYSTEMATIC_ASSESSMENT","stats":[{"groupId":"EG000","numAffected":1,"numAtRisk":2008}]},{"term":"Cellulitis","organSystem":"Infections and infestations","assessmentType":"SYSTEMATIC_ASSESSMENT","stats":[{"groupId":"EG000","numAffected":1,"numAtRisk":2008}]},{"term":"Cholecystitis infective","organSystem":"Infections and infestations","assessmentType":"SYSTEMATIC_ASSESSMENT","stats":[{"groupId":"EG000","numAffected":1,"numAtRisk":2008}]},{"term":"Cholstridium difficule infection","organSystem":"Infections and infestations","assessmentType":"SYSTEMATIC_ASSESSMENT","stats":[{"groupId":"EG000","numAffected":1,"numAtRisk":2008}]},{"term":"Endocarditis","organSystem":"Infections and infestations","assessmentType":"SYSTEMATIC_ASSESSMENT","stats":[{"groupId":"EG000","numAffected":1,"numAtRisk":2008}]},{"term":"Incision site infection","organSystem":"Infections and infestations","assessmentType":"SYSTEMATIC_ASSESSMENT","stats":[{"groupId":"EG000","numAffected":1,"numAtRisk":2008}]},{"term":"Lung infection","organSystem":"Infections and infestations","assessmentType":"SYSTEMATIC_ASSESSMENT","stats":[{"groupId":"EG000","numAffected":1,"numAtRisk":2008}]},{"term":"Pneumonia","organSystem":"Infections and infestations","assessmentType":"SYSTEMATIC_ASSESSMENT","stats":[{"groupId":"EG000","numAffected":17,"numAtRisk":2008}]},{"term":"Pseudomonal bacteraemia","organSystem":"Infections and infestations","assessmentType":"SYSTEMATIC_ASSESSMENT","stats":[{"groupId":"EG000","numAffected":1,"numAtRisk":2008}]},{"term":"Pyelonephritis acute","organSystem":"Infections and infestations","assessmentType":"SYSTEMATIC_ASSESSMENT","stats":[{"groupId":"EG000","numAffected":1,"numAtRisk":2008}]},{"term":"Respiratory tract infection","organSystem":"Infections and infestations","assessmentType":"SYSTEMATIC_ASSESSMENT","stats":[{"groupId":"EG000","numAffected":1,"numAtRisk":2008}]},{"term":"Sepsis","organSystem":"Infections and infestations","assessmentType":"SYSTEMATIC_ASSESSMENT","stats":[{"groupId":"EG000","numAffected":14,"numAtRisk":2008}]},{"term":"Septic shock","organSystem":"Infections and infestations","assessmentType":"SYSTEMATIC_ASSESSMENT","stats":[{"groupId":"EG000","numAffected":7,"numAtRisk":2008}]},{"term":"Staphylococcal infections","organSystem":"Infections and infestations","assessmentType":"SYSTEMATIC_ASSESSMENT","stats":[{"groupId":"EG000","numAffected":1,"numAtRisk":2008}]},{"term":"Urinary tract infection","organSystem":"Infections and infestations","assessmentType":"SYSTEMATIC_ASSESSMENT","stats":[{"groupId":"EG000","numAffected":4,"numAtRisk":2008}]},{"term":"Arteriovenous fistula site haemorrhage","organSystem":"Injury, poisoning and procedural complications","assessmentType":"SYSTEMATIC_ASSESSMENT","stats":[{"groupId":"EG000","numAffected":1,"numAtRisk":2008}]},{"term":"Complications of transplanted heart","organSystem":"Injury, poisoning and procedural complications","assessmentType":"SYSTEMATIC_ASSESSMENT","stats":[{"groupId":"EG000","numAffected":1,"numAtRisk":2008}]},{"term":"Overdose","organSystem":"Injury, poisoning and procedural complications","assessmentType":"SYSTEMATIC_ASSESSMENT","stats":[{"groupId":"EG000","numAffected":1,"numAtRisk":2008}]},{"term":"Subdural haematoma","organSystem":"Injury, poisoning and procedural complications","assessmentType":"SYSTEMATIC_ASSESSMENT","stats":[{"groupId":"EG000","numAffected":1,"numAtRisk":2008}]},{"term":"Traumatic intracranial hemmorrhage","organSystem":"Injury, poisoning and procedural complications","assessmentType":"SYSTEMATIC_ASSESSMENT","stats":[{"groupId":"EG000","numAffected":1,"numAtRisk":2008}]},{"term":"Vascular procedure complication","organSystem":"Injury, poisoning and procedural complications","assessmentType":"SYSTEMATIC_ASSESSMENT","stats":[{"groupId":"EG000","numAffected":7,"numAtRisk":2008}]},{"term":"Vascular pseudoneurysm","organSystem":"Injury, poisoning and procedural complications","assessmentType":"SYSTEMATIC_ASSESSMENT","stats":[{"groupId":"EG000","numAffected":1,"numAtRisk":2008}]},{"term":"Vessel perforation","organSystem":"Injury, poisoning and procedural complications","assessmentType":"SYSTEMATIC_ASSESSMENT","stats":[{"groupId":"EG000","numAffected":8,"numAtRisk":2008}]},{"term":"Haemoglobin decreased","organSystem":"Investigations","assessmentType":"SYSTEMATIC_ASSESSMENT","stats":[{"groupId":"EG000","numAffected":1,"numAtRisk":2008}]},{"term":"International normalised ratio abnormal","organSystem":"Investigations","assessmentType":"SYSTEMATIC_ASSESSMENT","stats":[{"groupId":"EG000","numAffected":1,"numAtRisk":2008}]},{"term":"Dehydration","organSystem":"Metabolism and nutrition disorders","assessmentType":"SYSTEMATIC_ASSESSMENT","stats":[{"groupId":"EG000","numAffected":1,"numAtRisk":2008}]},{"term":"Failure to thrive","organSystem":"Metabolism and nutrition disorders","assessmentType":"SYSTEMATIC_ASSESSMENT","stats":[{"groupId":"EG000","numAffected":2,"numAtRisk":2008}]},{"term":"Hyponatraemia","organSystem":"Metabolism and nutrition disorders","assessmentType":"SYSTEMATIC_ASSESSMENT","stats":[{"groupId":"EG000","numAffected":1,"numAtRisk":2008}]},{"term":"Hypovolaemia","organSystem":"Metabolism and nutrition disorders","assessmentType":"SYSTEMATIC_ASSESSMENT","stats":[{"groupId":"EG000","numAffected":1,"numAtRisk":2008}]},{"term":"Metabolic acidosis","organSystem":"Metabolism and nutrition disorders","assessmentType":"SYSTEMATIC_ASSESSMENT","stats":[{"groupId":"EG000","numAffected":1,"numAtRisk":2008}]},{"term":"Adenocarcinoma","organSystem":"Neoplasms benign, malignant and unspecified (incl cysts and polyps)","assessmentType":"SYSTEMATIC_ASSESSMENT","stats":[{"groupId":"EG000","numAffected":1,"numAtRisk":2008}]},{"term":"Gliblastoma","organSystem":"Neoplasms benign, malignant and unspecified (incl cysts and polyps)","assessmentType":"SYSTEMATIC_ASSESSMENT","stats":[{"groupId":"EG000","numAffected":1,"numAtRisk":2008}]},{"term":"Lung neoplasm malignant","organSystem":"Neoplasms benign, malignant and unspecified (incl cysts and polyps)","assessmentType":"SYSTEMATIC_ASSESSMENT","stats":[{"groupId":"EG000","numAffected":1,"numAtRisk":2008}]},{"term":"Mestastases to liver","organSystem":"Neoplasms benign, malignant and unspecified (incl cysts and polyps)","assessmentType":"SYSTEMATIC_ASSESSMENT","stats":[{"groupId":"EG000","numAffected":1,"numAtRisk":2008}]},{"term":"Metastatic neoplasm","organSystem":"Neoplasms benign, malignant and unspecified (incl cysts and polyps)","assessmentType":"SYSTEMATIC_ASSESSMENT","stats":[{"groupId":"EG000","numAffected":1,"numAtRisk":2008}]},{"term":"Neoplasm prostate","organSystem":"Neoplasms benign, malignant and unspecified (incl cysts and polyps)","assessmentType":"SYSTEMATIC_ASSESSMENT","stats":[{"groupId":"EG000","numAffected":1,"numAtRisk":2008}]},{"term":"Pancreatic carcinoma","organSystem":"Neoplasms benign, malignant and unspecified (incl cysts and polyps)","assessmentType":"SYSTEMATIC_ASSESSMENT","stats":[{"groupId":"EG000","numAffected":1,"numAtRisk":2008}]},{"term":"Pancreatic carcinoma metastatic","organSystem":"Neoplasms benign, malignant and unspecified (incl cysts and polyps)","assessmentType":"SYSTEMATIC_ASSESSMENT","stats":[{"groupId":"EG000","numAffected":1,"numAtRisk":2008}]},{"term":"Pancreatic neoplasm","organSystem":"Neoplasms benign, malignant and unspecified (incl cysts and polyps)","assessmentType":"SYSTEMATIC_ASSESSMENT","stats":[{"groupId":"EG000","numAffected":1,"numAtRisk":2008}]},{"term":"Basilar artery occlusion","organSystem":"Nervous system disorders","assessmentType":"SYSTEMATIC_ASSESSMENT","stats":[{"groupId":"EG000","numAffected":1,"numAtRisk":2008}]},{"term":"Brain death","organSystem":"Nervous system disorders","assessmentType":"SYSTEMATIC_ASSESSMENT","stats":[{"groupId":"EG000","numAffected":1,"numAtRisk":2008}]},{"term":"Brain herniation","organSystem":"Nervous system disorders","assessmentType":"SYSTEMATIC_ASSESSMENT","stats":[{"groupId":"EG000","numAffected":2,"numAtRisk":2008}]},{"term":"Brain oedema","organSystem":"Nervous system disorders","assessmentType":"SYSTEMATIC_ASSESSMENT","stats":[{"groupId":"EG000","numAffected":18,"numAtRisk":2008}]},{"term":"Carotid artery occlusion","organSystem":"Nervous system disorders","assessmentType":"SYSTEMATIC_ASSESSMENT","stats":[{"groupId":"EG000","numAffected":1,"numAtRisk":2008}]},{"term":"Carotid artery stenosis","organSystem":"Nervous system disorders","assessmentType":"SYSTEMATIC_ASSESSMENT","stats":[{"groupId":"EG000","numAffected":1,"numAtRisk":2008}]},{"term":"Cerebral artery embolism","organSystem":"Nervous system disorders","assessmentType":"SYSTEMATIC_ASSESSMENT","stats":[{"groupId":"EG000","numAffected":3,"numAtRisk":2008}]},{"term":"Cerebral artery occlusion","organSystem":"Nervous system disorders","assessmentType":"SYSTEMATIC_ASSESSMENT","stats":[{"groupId":"EG000","numAffected":1,"numAtRisk":2008}]},{"term":"Cerebral artery thrombosis","organSystem":"Nervous system disorders","assessmentType":"SYSTEMATIC_ASSESSMENT","stats":[{"groupId":"EG000","numAffected":2,"numAtRisk":2008}]},{"term":"Cerebral haematoma","organSystem":"Nervous system disorders","assessmentType":"SYSTEMATIC_ASSESSMENT","stats":[{"groupId":"EG000","numAffected":1,"numAtRisk":2008}]},{"term":"Cerebral haemorrhage","organSystem":"Nervous system disorders","assessmentType":"SYSTEMATIC_ASSESSMENT","stats":[{"groupId":"EG000","numAffected":1,"numAtRisk":2008}]},{"term":"Cerebral hyperperfusion syndrome","organSystem":"Nervous system disorders","assessmentType":"SYSTEMATIC_ASSESSMENT","stats":[{"groupId":"EG000","numAffected":1,"numAtRisk":2008}]},{"term":"Cerebrovascular accident","organSystem":"Nervous system disorders","assessmentType":"SYSTEMATIC_ASSESSMENT","stats":[{"groupId":"EG000","numAffected":10,"numAtRisk":2008}]},{"term":"Coma","organSystem":"Nervous system disorders","assessmentType":"SYSTEMATIC_ASSESSMENT","stats":[{"groupId":"EG000","numAffected":1,"numAtRisk":2008}]},{"term":"Complex partial seizures","organSystem":"Nervous system disorders","assessmentType":"SYSTEMATIC_ASSESSMENT","stats":[{"groupId":"EG000","numAffected":1,"numAtRisk":2008}]},{"term":"Convulsion","organSystem":"Nervous system disorders","assessmentType":"SYSTEMATIC_ASSESSMENT","stats":[{"groupId":"EG000","numAffected":4,"numAtRisk":2008}]},{"term":"Dementia","organSystem":"Nervous system disorders","assessmentType":"SYSTEMATIC_ASSESSMENT","stats":[{"groupId":"EG000","numAffected":1,"numAtRisk":2008}]},{"term":"Dizziness","organSystem":"Nervous system disorders","assessmentType":"SYSTEMATIC_ASSESSMENT","stats":[{"groupId":"EG000","numAffected":1,"numAtRisk":2008}]},{"term":"Encephalopathy","organSystem":"Nervous system disorders","assessmentType":"SYSTEMATIC_ASSESSMENT","stats":[{"groupId":"EG000","numAffected":1,"numAtRisk":2008}]},{"term":"Facial paralysis","organSystem":"Nervous system disorders","assessmentType":"SYSTEMATIC_ASSESSMENT","stats":[{"groupId":"EG000","numAffected":1,"numAtRisk":2008}]},{"term":"Gasping syndrome","organSystem":"Nervous system disorders","assessmentType":"SYSTEMATIC_ASSESSMENT","stats":[{"groupId":"EG000","numAffected":1,"numAtRisk":2008}]},{"term":"Haemorrhage intracranial","organSystem":"Nervous system disorders","assessmentType":"SYSTEMATIC_ASSESSMENT","stats":[{"groupId":"EG000","numAffected":51,"numAtRisk":2008}]},{"term":"Haemorrhagic stroke","organSystem":"Nervous system disorders","assessmentType":"SYSTEMATIC_ASSESSMENT","stats":[{"groupId":"EG000","numAffected":1,"numAtRisk":2008}]},{"term":"Haemorrhagic transformation stroke","organSystem":"Nervous system disorders","assessmentType":"SYSTEMATIC_ASSESSMENT","stats":[{"groupId":"EG000","numAffected":1,"numAtRisk":2008}]},{"term":"Headache","organSystem":"Nervous system disorders","assessmentType":"SYSTEMATIC_ASSESSMENT","stats":[{"groupId":"EG000","numAffected":1,"numAtRisk":2008}]},{"term":"Hypoaesthesia","organSystem":"Nervous system disorders","assessmentType":"SYSTEMATIC_ASSESSMENT","stats":[{"groupId":"EG000","numAffected":1,"numAtRisk":2008}]},{"term":"Intraventricular haemorrhage","organSystem":"Nervous system disorders","assessmentType":"SYSTEMATIC_ASSESSMENT","stats":[{"groupId":"EG000","numAffected":1,"numAtRisk":2008}]},{"term":"Ischaemic stroke","organSystem":"Nervous system disorders","assessmentType":"SYSTEMATIC_ASSESSMENT","stats":[{"groupId":"EG000","numAffected":5,"numAtRisk":2008}]},{"term":"Neurological decompensation","organSystem":"Nervous system disorders","assessmentType":"SYSTEMATIC_ASSESSMENT","stats":[{"groupId":"EG000","numAffected":96,"numAtRisk":2008}]},{"term":"Partial seizures","organSystem":"Nervous system disorders","assessmentType":"SYSTEMATIC_ASSESSMENT","stats":[{"groupId":"EG000","numAffected":1,"numAtRisk":2008}]},{"term":"Presyncope","organSystem":"Nervous system disorders","assessmentType":"SYSTEMATIC_ASSESSMENT","stats":[{"groupId":"EG000","numAffected":1,"numAtRisk":2008}]},{"term":"Sedation","organSystem":"Nervous system disorders","assessmentType":"SYSTEMATIC_ASSESSMENT","stats":[{"groupId":"EG000","numAffected":1,"numAtRisk":2008}]},{"term":"Seizure","organSystem":"Nervous system disorders","assessmentType":"SYSTEMATIC_ASSESSMENT","stats":[{"groupId":"EG000","numAffected":2,"numAtRisk":2008}]},{"term":"Stroke in evolution","organSystem":"Nervous system disorders","assessmentType":"SYSTEMATIC_ASSESSMENT","stats":[{"groupId":"EG000","numAffected":5,"numAtRisk":2008}]},{"term":"Transient Ischaemic attach","organSystem":"Nervous system disorders","assessmentType":"SYSTEMATIC_ASSESSMENT","stats":[{"groupId":"EG000","numAffected":2,"numAtRisk":2008}]},{"term":"Vasogenic cerebral oedema","organSystem":"Nervous system disorders","assessmentType":"SYSTEMATIC_ASSESSMENT","stats":[{"groupId":"EG000","numAffected":1,"numAtRisk":2008}]},{"term":"Mental status changes","organSystem":"Psychiatric disorders","assessmentType":"SYSTEMATIC_ASSESSMENT","stats":[{"groupId":"EG000","numAffected":3,"numAtRisk":2008}]},{"term":"Haematuria","organSystem":"Renal and urinary disorders","assessmentType":"SYSTEMATIC_ASSESSMENT","stats":[{"groupId":"EG000","numAffected":1,"numAtRisk":2008}]},{"term":"Renal failure","organSystem":"Renal and urinary disorders","assessmentType":"SYSTEMATIC_ASSESSMENT","stats":[{"groupId":"EG000","numAffected":4,"numAtRisk":2008}]},{"term":"Renal failure acute","organSystem":"Renal and urinary disorders","assessmentType":"SYSTEMATIC_ASSESSMENT","stats":[{"groupId":"EG000","numAffected":1,"numAtRisk":2008}]},{"term":"Renal impairment","organSystem":"Renal and urinary disorders","assessmentType":"SYSTEMATIC_ASSESSMENT","stats":[{"groupId":"EG000","numAffected":1,"numAtRisk":2008}]},{"term":"Acute respiratory failure","organSystem":"Respiratory, thoracic and mediastinal disorders","assessmentType":"SYSTEMATIC_ASSESSMENT","stats":[{"groupId":"EG000","numAffected":17,"numAtRisk":2008}]},{"term":"Asphyxia","organSystem":"Respiratory, thoracic and mediastinal disorders","assessmentType":"SYSTEMATIC_ASSESSMENT","stats":[{"groupId":"EG000","numAffected":1,"numAtRisk":2008}]},{"term":"Aspiration","organSystem":"Respiratory, thoracic and mediastinal disorders","assessmentType":"SYSTEMATIC_ASSESSMENT","stats":[{"groupId":"EG000","numAffected":2,"numAtRisk":2008}]},{"term":"Chronic obstructive pulmonary disease","organSystem":"Respiratory, thoracic and mediastinal disorders","assessmentType":"SYSTEMATIC_ASSESSMENT","stats":[{"groupId":"EG000","numAffected":1,"numAtRisk":2008}]},{"term":"Dyspnoea","organSystem":"Respiratory, thoracic and mediastinal disorders","assessmentType":"SYSTEMATIC_ASSESSMENT","stats":[{"groupId":"EG000","numAffected":3,"numAtRisk":2008}]},{"term":"Emphysema","organSystem":"Respiratory, thoracic and mediastinal disorders","assessmentType":"SYSTEMATIC_ASSESSMENT","stats":[{"groupId":"EG000","numAffected":1,"numAtRisk":2008}]},{"term":"Hypoxia","organSystem":"Respiratory, thoracic and mediastinal disorders","assessmentType":"SYSTEMATIC_ASSESSMENT","stats":[{"groupId":"EG000","numAffected":3,"numAtRisk":2008}]},{"term":"Obstructive airways disorder","organSystem":"Respiratory, thoracic and mediastinal disorders","assessmentType":"SYSTEMATIC_ASSESSMENT","stats":[{"groupId":"EG000","numAffected":1,"numAtRisk":2008}]},{"term":"Pneumonia aspiration","organSystem":"Respiratory, thoracic and mediastinal disorders","assessmentType":"SYSTEMATIC_ASSESSMENT","stats":[{"groupId":"EG000","numAffected":11,"numAtRisk":2008}]},{"term":"Pulmonary embolism","organSystem":"Respiratory, thoracic and mediastinal disorders","assessmentType":"SYSTEMATIC_ASSESSMENT","stats":[{"groupId":"EG000","numAffected":5,"numAtRisk":2008}]},{"term":"Respiratory acidosis","organSystem":"Respiratory, thoracic and mediastinal disorders","assessmentType":"SYSTEMATIC_ASSESSMENT","stats":[{"groupId":"EG000","numAffected":1,"numAtRisk":2008}]},{"term":"Respiratory distress","organSystem":"Respiratory, thoracic and mediastinal disorders","assessmentType":"SYSTEMATIC_ASSESSMENT","stats":[{"groupId":"EG000","numAffected":13,"numAtRisk":2008}]},{"term":"Respiratory failure","organSystem":"Respiratory, thoracic and mediastinal disorders","assessmentType":"SYSTEMATIC_ASSESSMENT","stats":[{"groupId":"EG000","numAffected":27,"numAtRisk":2008}]},{"term":"Homicide","organSystem":"Social circumstances","assessmentType":"SYSTEMATIC_ASSESSMENT","stats":[{"groupId":"EG000","numAffected":1,"numAtRisk":2008}]},{"term":"Mitral valve replacement","organSystem":"Surgical and medical procedures","assessmentType":"SYSTEMATIC_ASSESSMENT","stats":[{"groupId":"EG000","numAffected":1,"numAtRisk":2008}]},{"term":"Artery dissection","organSystem":"Vascular disorders","assessmentType":"SYSTEMATIC_ASSESSMENT","stats":[{"groupId":"EG000","numAffected":3,"numAtRisk":2008}]},{"term":"Cardiogenic shock","organSystem":"Vascular disorders","assessmentType":"SYSTEMATIC_ASSESSMENT","stats":[{"groupId":"EG000","numAffected":2,"numAtRisk":2008}]},{"term":"Cerebral artery embolism","organSystem":"Vascular disorders","assessmentType":"SYSTEMATIC_ASSESSMENT","stats":[{"groupId":"EG000","numAffected":1,"numAtRisk":2008}]},{"term":"Cerebral artery thrombosis","organSystem":"Vascular disorders","assessmentType":"SYSTEMATIC_ASSESSMENT","stats":[{"groupId":"EG000","numAffected":1,"numAtRisk":2008}]},{"term":"Cerebral haematoma","organSystem":"Vascular disorders","assessmentType":"SYSTEMATIC_ASSESSMENT","stats":[{"groupId":"EG000","numAffected":1,"numAtRisk":2008}]},{"term":"Cerebral infarction","organSystem":"Vascular disorders","assessmentType":"SYSTEMATIC_ASSESSMENT","stats":[{"groupId":"EG000","numAffected":1,"numAtRisk":2008}]},{"term":"Coeliac artery stenosis","organSystem":"Vascular disorders","assessmentType":"SYSTEMATIC_ASSESSMENT","stats":[{"groupId":"EG000","numAffected":1,"numAtRisk":2008}]},{"term":"Deep vein thrombosis","organSystem":"Vascular disorders","assessmentType":"SYSTEMATIC_ASSESSMENT","stats":[{"groupId":"EG000","numAffected":2,"numAtRisk":2008}]},{"term":"Extravasation blood","organSystem":"Vascular disorders","assessmentType":"SYSTEMATIC_ASSESSMENT","stats":[{"groupId":"EG000","numAffected":1,"numAtRisk":2008}]},{"term":"Haematoma","organSystem":"Vascular disorders","assessmentType":"SYSTEMATIC_ASSESSMENT","stats":[{"groupId":"EG000","numAffected":1,"numAtRisk":2008}]},{"term":"Haemorrhage","organSystem":"Vascular disorders","assessmentType":"SYSTEMATIC_ASSESSMENT","stats":[{"groupId":"EG000","numAffected":1,"numAtRisk":2008}]},{"term":"Hypotension","organSystem":"Vascular disorders","assessmentType":"SYSTEMATIC_ASSESSMENT","stats":[{"groupId":"EG000","numAffected":3,"numAtRisk":2008}]},{"term":"Peripheral ischaemia","organSystem":"Vascular disorders","assessmentType":"SYSTEMATIC_ASSESSMENT","stats":[{"groupId":"EG000","numAffected":1,"numAtRisk":2008}]},{"term":"Shock","organSystem":"Vascular disorders","assessmentType":"SYSTEMATIC_ASSESSMENT","stats":[{"groupId":"EG000","numAffected":4,"numAtRisk":2008}]},{"term":"Subarachnoid haemorrhage","organSystem":"Vascular disorders","assessmentType":"SYSTEMATIC_ASSESSMENT","stats":[{"groupId":"EG000","numAffected":2,"numAtRisk":2008}]},{"term":"Syncope","organSystem":"Vascular disorders","assessmentType":"SYSTEMATIC_ASSESSMENT","stats":[{"groupId":"EG000","numAffected":1,"numAtRisk":2008}]},{"term":"Vascular dissection","organSystem":"Vascular disorders","assessmentType":"SYSTEMATIC_ASSESSMENT","stats":[{"groupId":"EG000","numAffected":5,"numAtRisk":2008}]}],"otherEvents":[{"term":"Anaemia","organSystem":"Blood and lymphatic system disorders","assessmentType":"SYSTEMATIC_ASSESSMENT","stats":[{"groupId":"EG000","numAffected":1,"numAtRisk":2008}]},{"term":"Leukocytosis","organSystem":"Blood and lymphatic system disorders","assessmentType":"SYSTEMATIC_ASSESSMENT","stats":[{"groupId":"EG000","numAffected":1,"numAtRisk":2008}]},{"term":"Normachromic normocytic anaemia","organSystem":"Blood and lymphatic system disorders","assessmentType":"SYSTEMATIC_ASSESSMENT","stats":[{"groupId":"EG000","numAffected":1,"numAtRisk":2008}]},{"term":"Atrial fibrillation","organSystem":"Cardiac disorders","assessmentType":"SYSTEMATIC_ASSESSMENT","stats":[{"groupId":"EG000","numAffected":6,"numAtRisk":2008}]},{"term":"Atrioventricular block","organSystem":"Cardiac disorders","assessmentType":"SYSTEMATIC_ASSESSMENT","stats":[{"groupId":"EG000","numAffected":1,"numAtRisk":2008}]},{"term":"Bradycardia","organSystem":"Cardiac disorders","assessmentType":"SYSTEMATIC_ASSESSMENT","stats":[{"groupId":"EG000","numAffected":1,"numAtRisk":2008}]},{"term":"Cardiac failure congestive","organSystem":"Cardiac disorders","assessmentType":"SYSTEMATIC_ASSESSMENT","stats":[{"groupId":"EG000","numAffected":1,"numAtRisk":2008}]},{"term":"Pulmonary oedema","organSystem":"Cardiac disorders","assessmentType":"SYSTEMATIC_ASSESSMENT","stats":[{"groupId":"EG000","numAffected":1,"numAtRisk":2008}]},{"term":"Tachycardia","organSystem":"Cardiac disorders","assessmentType":"SYSTEMATIC_ASSESSMENT","stats":[{"groupId":"EG000","numAffected":1,"numAtRisk":2008}]},{"term":"Eye inflammation","organSystem":"Eye disorders","assessmentType":"SYSTEMATIC_ASSESSMENT","stats":[{"groupId":"EG000","numAffected":1,"numAtRisk":2008}]},{"term":"Colitis","organSystem":"Gastrointestinal disorders","assessmentType":"SYSTEMATIC_ASSESSMENT","stats":[{"groupId":"EG000","numAffected":1,"numAtRisk":2008}]},{"term":"Colitis ulcerative","organSystem":"Gastrointestinal disorders","assessmentType":"SYSTEMATIC_ASSESSMENT","stats":[{"groupId":"EG000","numAffected":1,"numAtRisk":2008}]},{"term":"Gastrointestinal haemorrhage","organSystem":"Gastrointestinal disorders","assessmentType":"SYSTEMATIC_ASSESSMENT","stats":[{"groupId":"EG000","numAffected":1,"numAtRisk":2008}]},{"term":"Rectal haemorrhage","organSystem":"Gastrointestinal disorders","assessmentType":"SYSTEMATIC_ASSESSMENT","stats":[{"groupId":"EG000","numAffected":1,"numAtRisk":2008}]},{"term":"Swollen tongue","organSystem":"Gastrointestinal disorders","assessmentType":"SYSTEMATIC_ASSESSMENT","stats":[{"groupId":"EG000","numAffected":1,"numAtRisk":2008}]},{"term":"Extravasation","organSystem":"General disorders","assessmentType":"SYSTEMATIC_ASSESSMENT","stats":[{"groupId":"EG000","numAffected":1,"numAtRisk":2008}]},{"term":"Tobacco withdrawal symptoms","organSystem":"General disorders","assessmentType":"SYSTEMATIC_ASSESSMENT","stats":[{"groupId":"EG000","numAffected":1,"numAtRisk":2008}]},{"term":"Vessel puncture site haematoma","organSystem":"General disorders","assessmentType":"SYSTEMATIC_ASSESSMENT","stats":[{"groupId":"EG000","numAffected":1,"numAtRisk":2008}]},{"term":"Drug hypersenitivity","organSystem":"Immune system disorders","assessmentType":"SYSTEMATIC_ASSESSMENT","stats":[{"groupId":"EG000","numAffected":1,"numAtRisk":2008}]},{"term":"Hypersensitivity","organSystem":"Immune system disorders","assessmentType":"SYSTEMATIC_ASSESSMENT","stats":[{"groupId":"EG000","numAffected":1,"numAtRisk":2008}]},{"term":"Abscess","organSystem":"Infections and infestations","assessmentType":"SYSTEMATIC_ASSESSMENT","stats":[{"groupId":"EG000","numAffected":1,"numAtRisk":2008}]},{"term":"Bacteraemia","organSystem":"Infections and infestations","assessmentType":"SYSTEMATIC_ASSESSMENT","stats":[{"groupId":"EG000","numAffected":1,"numAtRisk":2008}]},{"term":"Herpes virus infection","organSystem":"Infections and infestations","assessmentType":"SYSTEMATIC_ASSESSMENT","stats":[{"groupId":"EG000","numAffected":1,"numAtRisk":2008}]},{"term":"Hypersensitivity","organSystem":"Infections and infestations","assessmentType":"SYSTEMATIC_ASSESSMENT","stats":[{"groupId":"EG000","numAffected":1,"numAtRisk":2008}]},{"term":"Pneumonia","organSystem":"Infections and infestations","assessmentType":"SYSTEMATIC_ASSESSMENT","stats":[{"groupId":"EG000","numAffected":5,"numAtRisk":2008}]},{"term":"Pneumonia pseudomonal","organSystem":"Infections and infestations","assessmentType":"SYSTEMATIC_ASSESSMENT","stats":[{"groupId":"EG000","numAffected":1,"numAtRisk":2008}]},{"term":"Sepsis","organSystem":"Infections and infestations","assessmentType":"SYSTEMATIC_ASSESSMENT","stats":[{"groupId":"EG000","numAffected":1,"numAtRisk":2008}]},{"term":"Urinary tract infection","organSystem":"Infections and infestations","assessmentType":"SYSTEMATIC_ASSESSMENT","stats":[{"groupId":"EG000","numAffected":14,"numAtRisk":2008}]},{"term":"Post procedural haematoma","organSystem":"Injury, poisoning and procedural complications","assessmentType":"SYSTEMATIC_ASSESSMENT","stats":[{"groupId":"EG000","numAffected":1,"numAtRisk":2008}]},{"term":"Vascular procedure complication","organSystem":"Injury, poisoning and procedural complications","assessmentType":"SYSTEMATIC_ASSESSMENT","stats":[{"groupId":"EG000","numAffected":1,"numAtRisk":2008}]},{"term":"Vascular pseudoaneurysm","organSystem":"Injury, poisoning and procedural complications","assessmentType":"SYSTEMATIC_ASSESSMENT","stats":[{"groupId":"EG000","numAffected":1,"numAtRisk":2008}]},{"term":"Vessel perforation","organSystem":"Injury, poisoning and procedural complications","assessmentType":"SYSTEMATIC_ASSESSMENT","stats":[{"groupId":"EG000","numAffected":5,"numAtRisk":2008}]},{"term":"Blood pressure increased","organSystem":"Investigations","assessmentType":"SYSTEMATIC_ASSESSMENT","stats":[{"groupId":"EG000","numAffected":1,"numAtRisk":2008}]},{"term":"Gout","organSystem":"Metabolism and nutrition disorders","assessmentType":"SYSTEMATIC_ASSESSMENT","stats":[{"groupId":"EG000","numAffected":1,"numAtRisk":2008}]},{"term":"Hyperkalaemia","organSystem":"Metabolism and nutrition disorders","assessmentType":"SYSTEMATIC_ASSESSMENT","stats":[{"groupId":"EG000","numAffected":3,"numAtRisk":2008}]},{"term":"Hyperlipidaemia","organSystem":"Metabolism and nutrition disorders","assessmentType":"SYSTEMATIC_ASSESSMENT","stats":[{"groupId":"EG000","numAffected":1,"numAtRisk":2008}]},{"term":"Hypoglycaemia","organSystem":"Metabolism and nutrition disorders","assessmentType":"SYSTEMATIC_ASSESSMENT","stats":[{"groupId":"EG000","numAffected":1,"numAtRisk":2008}]},{"term":"Hypokalaemia","organSystem":"Metabolism and nutrition disorders","assessmentType":"SYSTEMATIC_ASSESSMENT","stats":[{"groupId":"EG000","numAffected":2,"numAtRisk":2008}]},{"term":"Hyponatraemia","organSystem":"Metabolism and nutrition disorders","assessmentType":"SYSTEMATIC_ASSESSMENT","stats":[{"groupId":"EG000","numAffected":1,"numAtRisk":2008}]},{"term":"Magnesium metabolism disorder","organSystem":"Metabolism and nutrition disorders","assessmentType":"SYSTEMATIC_ASSESSMENT","stats":[{"groupId":"EG000","numAffected":1,"numAtRisk":2008}]},{"term":"Metabolic acidosis","organSystem":"Metabolism and nutrition disorders","assessmentType":"SYSTEMATIC_ASSESSMENT","stats":[{"groupId":"EG000","numAffected":1,"numAtRisk":2008}]},{"term":"Type 2 diabetes mellitus","organSystem":"Metabolism and nutrition disorders","assessmentType":"SYSTEMATIC_ASSESSMENT","stats":[{"groupId":"EG000","numAffected":1,"numAtRisk":2008}]},{"term":"Gouty arthritis","organSystem":"Musculoskeletal and connective tissue disorders","assessmentType":"SYSTEMATIC_ASSESSMENT","stats":[{"groupId":"EG000","numAffected":1,"numAtRisk":2008}]},{"term":"Intracranial germ cell tumour","organSystem":"Neoplasms benign, malignant and unspecified (incl cysts and polyps)","assessmentType":"SYSTEMATIC_ASSESSMENT","stats":[{"groupId":"EG000","numAffected":1,"numAtRisk":2008}]},{"term":"Basal ganglia infarction","organSystem":"Nervous system disorders","assessmentType":"SYSTEMATIC_ASSESSMENT","stats":[{"groupId":"EG000","numAffected":1,"numAtRisk":2008}]},{"term":"Carotid artery occlusion","organSystem":"Nervous system disorders","assessmentType":"SYSTEMATIC_ASSESSMENT","stats":[{"groupId":"EG000","numAffected":1,"numAtRisk":2008}]},{"term":"Cerebral artery embolism","organSystem":"Nervous system disorders","assessmentType":"SYSTEMATIC_ASSESSMENT","stats":[{"groupId":"EG000","numAffected":1,"numAtRisk":2008}]},{"term":"Cerebral haematoma","organSystem":"Nervous system disorders","assessmentType":"SYSTEMATIC_ASSESSMENT","stats":[{"groupId":"EG000","numAffected":1,"numAtRisk":2008}]},{"term":"Cerebral infarction","organSystem":"Nervous system disorders","assessmentType":"SYSTEMATIC_ASSESSMENT","stats":[{"groupId":"EG000","numAffected":1,"numAtRisk":2008}]},{"term":"Cerebral vasoconstriction","organSystem":"Nervous system disorders","assessmentType":"SYSTEMATIC_ASSESSMENT","stats":[{"groupId":"EG000","numAffected":10,"numAtRisk":2008}]},{"term":"Cerebrovascular accident","organSystem":"Nervous system disorders","assessmentType":"SYSTEMATIC_ASSESSMENT","stats":[{"groupId":"EG000","numAffected":2,"numAtRisk":2008}]},{"term":"Confusional state","organSystem":"Nervous system disorders","assessmentType":"SYSTEMATIC_ASSESSMENT","stats":[{"groupId":"EG000","numAffected":1,"numAtRisk":2008}]},{"term":"Convulsion","organSystem":"Nervous system disorders","assessmentType":"SYSTEMATIC_ASSESSMENT","stats":[{"groupId":"EG000","numAffected":2,"numAtRisk":2008}]},{"term":"Dizziness","organSystem":"Nervous system disorders","assessmentType":"SYSTEMATIC_ASSESSMENT","stats":[{"groupId":"EG000","numAffected":1,"numAtRisk":2008}]},{"term":"Epilepsy","organSystem":"Nervous system disorders","assessmentType":"SYSTEMATIC_ASSESSMENT","stats":[{"groupId":"EG000","numAffected":1,"numAtRisk":2008}]},{"term":"Haemorrhage intracranial","organSystem":"Nervous system disorders","assessmentType":"SYSTEMATIC_ASSESSMENT","stats":[{"groupId":"EG000","numAffected":13,"numAtRisk":2008}]},{"term":"Headache","organSystem":"Nervous system disorders","assessmentType":"SYSTEMATIC_ASSESSMENT","stats":[{"groupId":"EG000","numAffected":1,"numAtRisk":2008}]},{"term":"Hydrocephalus","organSystem":"Nervous system disorders","assessmentType":"SYSTEMATIC_ASSESSMENT","stats":[{"groupId":"EG000","numAffected":1,"numAtRisk":2008}]},{"term":"Intracranial pressure increased","organSystem":"Nervous system disorders","assessmentType":"SYSTEMATIC_ASSESSMENT","stats":[{"groupId":"EG000","numAffected":1,"numAtRisk":2008}]},{"term":"Intraventricular haemorrhage","organSystem":"Nervous system disorders","assessmentType":"SYSTEMATIC_ASSESSMENT","stats":[{"groupId":"EG000","numAffected":1,"numAtRisk":2008}]},{"term":"Ischaemic stroke","organSystem":"Nervous system disorders","assessmentType":"SYSTEMATIC_ASSESSMENT","stats":[{"groupId":"EG000","numAffected":1,"numAtRisk":2008}]},{"term":"Neurological decompensation","organSystem":"Nervous system disorders","assessmentType":"SYSTEMATIC_ASSESSMENT","stats":[{"groupId":"EG000","numAffected":54,"numAtRisk":2008}]},{"term":"Subarachnoid haemorrhage","organSystem":"Nervous system disorders","assessmentType":"SYSTEMATIC_ASSESSMENT","stats":[{"groupId":"EG000","numAffected":2,"numAtRisk":2008}]},{"term":"Anuria","organSystem":"Renal and urinary disorders","assessmentType":"SYSTEMATIC_ASSESSMENT","stats":[{"groupId":"EG000","numAffected":1,"numAtRisk":2008}]},{"term":"Dysuria","organSystem":"Renal and urinary disorders","assessmentType":"SYSTEMATIC_ASSESSMENT","stats":[{"groupId":"EG000","numAffected":1,"numAtRisk":2008}]},{"term":"Haematuria","organSystem":"Renal and urinary disorders","assessmentType":"SYSTEMATIC_ASSESSMENT","stats":[{"groupId":"EG000","numAffected":1,"numAtRisk":2008}]},{"term":"Renal failure","organSystem":"Renal and urinary disorders","assessmentType":"SYSTEMATIC_ASSESSMENT","stats":[{"groupId":"EG000","numAffected":1,"numAtRisk":2008}]},{"term":"Urinary retention","organSystem":"Renal and urinary disorders","assessmentType":"SYSTEMATIC_ASSESSMENT","stats":[{"groupId":"EG000","numAffected":3,"numAtRisk":2008}]},{"term":"Epistaxis","organSystem":"Respiratory, thoracic and mediastinal disorders","assessmentType":"SYSTEMATIC_ASSESSMENT","stats":[{"groupId":"EG000","numAffected":1,"numAtRisk":2008}]},{"term":"Hypercapnia","organSystem":"Respiratory, thoracic and mediastinal disorders","assessmentType":"SYSTEMATIC_ASSESSMENT","stats":[{"groupId":"EG000","numAffected":1,"numAtRisk":2008}]},{"term":"Lung consolidation","organSystem":"Respiratory, thoracic and mediastinal disorders","assessmentType":"SYSTEMATIC_ASSESSMENT","stats":[{"groupId":"EG000","numAffected":1,"numAtRisk":2008}]},{"term":"Lung disorder","organSystem":"Respiratory, thoracic and mediastinal disorders","assessmentType":"SYSTEMATIC_ASSESSMENT","stats":[{"groupId":"EG000","numAffected":2,"numAtRisk":2008}]},{"term":"Pneumonia aspiration","organSystem":"Respiratory, thoracic and mediastinal disorders","assessmentType":"SYSTEMATIC_ASSESSMENT","stats":[{"groupId":"EG000","numAffected":3,"numAtRisk":2008}]},{"term":"Respiratory failure","organSystem":"Respiratory, thoracic and mediastinal disorders","assessmentType":"SYSTEMATIC_ASSESSMENT","stats":[{"groupId":"EG000","numAffected":3,"numAtRisk":2008}]},{"term":"Rash","organSystem":"Skin and subcutaneous tissue disorders","assessmentType":"SYSTEMATIC_ASSESSMENT","stats":[{"groupId":"EG000","numAffected":1,"numAtRisk":2008}]},{"term":"Skin ulcer","organSystem":"Skin and subcutaneous tissue disorders","assessmentType":"SYSTEMATIC_ASSESSMENT","stats":[{"groupId":"EG000","numAffected":1,"numAtRisk":2008}]},{"term":"Artery dissection","organSystem":"Vascular disorders","assessmentType":"SYSTEMATIC_ASSESSMENT","stats":[{"groupId":"EG000","numAffected":2,"numAtRisk":2008}]},{"term":"Cerebral artery embolism","organSystem":"Vascular disorders","assessmentType":"SYSTEMATIC_ASSESSMENT","stats":[{"groupId":"EG000","numAffected":2,"numAtRisk":2008}]},{"term":"Cerebral artery thrombosis","organSystem":"Vascular disorders","assessmentType":"SYSTEMATIC_ASSESSMENT","stats":[{"groupId":"EG000","numAffected":1,"numAtRisk":2008}]},{"term":"Cerebral haemorrhage","organSystem":"Vascular disorders","assessmentType":"SYSTEMATIC_ASSESSMENT","stats":[{"groupId":"EG000","numAffected":2,"numAtRisk":2008}]},{"term":"Haemorrhage intracranial","organSystem":"Vascular disorders","assessmentType":"SYSTEMATIC_ASSESSMENT","stats":[{"groupId":"EG000","numAffected":13,"numAtRisk":2008}]},{"term":"Haemorrhagic transformation stroke","organSystem":"Vascular disorders","assessmentType":"SYSTEMATIC_ASSESSMENT","stats":[{"groupId":"EG000","numAffected":3,"numAtRisk":2008}]},{"term":"Mouth haemorrhages","organSystem":"Vascular disorders","assessmentType":"SYSTEMATIC_ASSESSMENT","stats":[{"groupId":"EG000","numAffected":1,"numAtRisk":2008}]},{"term":"Subarachnoid haemorrhage","organSystem":"Vascular disorders","assessmentType":"SYSTEMATIC_ASSESSMENT","stats":[{"groupId":"EG000","numAffected":5,"numAtRisk":2008}]},{"term":"Uterine haemorrhage","organSystem":"Vascular disorders","assessmentType":"SYSTEMATIC_ASSESSMENT","stats":[{"groupId":"EG000","numAffected":1,"numAtRisk":2008}]},{"term":"Vascular dissection","organSystem":"Vascular disorders","assessmentType":"SYSTEMATIC_ASSESSMENT","stats":[{"groupId":"EG000","numAffected":3,"numAtRisk":2008}]},{"term":"Pyrexia","organSystem":"General disorders","assessmentType":"SYSTEMATIC_ASSESSMENT","stats":[{"groupId":"EG000","numAffected":1,"numAtRisk":2008}]}]},"moreInfoModule":{"certainAgreement":{"piSponsorEmployee":false,"restrictionType":"OTHER","restrictiveAgreement":true,"otherDetails":"Physician shall not make any publication without providing Sponsor 60 days notice. If Sponsor determines that the proposed publication contains confidential information, Sponsor may require the delay of publication for a period of time not to exceed 90 days and may require that any confidential information be removed from the publication. Sponsor may also require Physician to delay publication until any factual errors or inaccuracies in the publication are corrected."},"pointOfContact":{"title":"Minyi Ji, Biostatistician, Clinical Evidence","organization":"Stryker Neurovascular","email":"minyi.ji@stryker.com","phone":"+1 (510) 980-5689"}}},"documentSection":{"largeDocumentModule":{"noSap":true,"largeDocs":[{"typeAbbrev":"Prot","hasProtocol":true,"hasSap":false,"hasIcf":false,"label":"Study Protocol","date":"2016-03-24","uploadDate":"2018-12-06T16:52","filename":"Prot_000.pdf","size":1102788}]}},"derivedSection":{"miscInfoModule":{"versionHolder":"2024-02-14","removedCountries":["Czech Republic"]},"conditionBrowseModule":{"meshes":[{"id":"D000083242","term":"Ischemic Stroke"}],"ancestors":[{"id":"D000020521","term":"Stroke"},{"id":"D000002561","term":"Cerebrovascular Disorders"},{"id":"D000001927","term":"Brain Diseases"},{"id":"D000002493","term":"Central Nervous System Diseases"},{"id":"D000009422","term":"Nervous System Diseases"},{"id":"D000014652","term":"Vascular Diseases"},{"id":"D000002318","term":"Cardiovascular Diseases"}],"browseLeaves":[{"id":"M21996","name":"Stroke","relevance":"LOW"},{"id":"M10233","name":"Ischemia","relevance":"LOW"},{"id":"M2401","name":"Ischemic Stroke","asFound":"Ischemic Stroke","relevance":"HIGH"},{"id":"M5500","name":"Cerebrovascular Disorders","relevance":"LOW"},{"id":"M4894","name":"Brain Diseases","relevance":"LOW"},{"id":"M5432","name":"Central Nervous System Diseases","relevance":"LOW"},{"id":"M17090","name":"Vascular Diseases","relevance":"LOW"}],"browseBranches":[{"abbrev":"BC10","name":"Nervous System Diseases"},{"abbrev":"BC14","name":"Heart and Blood Diseases"},{"abbrev":"All","name":"All Conditions"},{"abbrev":"BC23","name":"Symptoms and General Pathology"}]}},"hasResults":true}