{"protocolSection":{"identificationModule":{"nctId":"NCT00327418","orgStudyIdInfo":{"id":"0981-430-102"},"secondaryIdInfos":[{"id":"A2581143"}],"organization":{"fullName":"Pfizer","class":"INDUSTRY"},"briefTitle":"CARDS Is Designed To Show If Lowering Cholesterol With Atorvastatin In Type 2 Diabetics Without CV Disease Reduces The Risk Of CV Events","officialTitle":"A Double Blind Placebo Controlled Study of Atorvastatin as Prevention of CHD in High Risk Patients With Non-Insulin Dependent Diabetes Mellitus (Collaborative Atorvastatin Study - CARDS)","acronym":"CARDS"},"statusModule":{"statusVerifiedDate":"2007-05","overallStatus":"COMPLETED","startDateStruct":{"date":"1997-01"},"completionDateStruct":{"date":"2004-02"},"studyFirstSubmitDate":"2006-05-16","studyFirstSubmitQcDate":"2006-05-16","studyFirstPostDateStruct":{"date":"2006-05-18","type":"ESTIMATED"},"lastUpdateSubmitDate":"2007-05-08","lastUpdatePostDateStruct":{"date":"2007-05-10","type":"ESTIMATED"}},"sponsorCollaboratorsModule":{"leadSponsor":{"name":"Pfizer","class":"INDUSTRY"},"collaborators":[{"name":"Diabetes UK","class":"OTHER"},{"name":"Department of Health, United Kingdom","class":"OTHER_GOV"}]},"descriptionModule":{"briefSummary":"A study to assess the efficacy of once daily atorvastatin 10 mg versus placebo on cardiovascular endpoints in patients with non-insulin-dependent diabetes mellitus (NIDDM) who have a history of either hypertension, retinopathy, microalbuminuria, macroalbuminuria, or who currently smoke, but who do not have established corornary heart disease or other macrovascular disease."},"conditionsModule":{"conditions":["Major Coronary Event","Cerebrovascular Accident","Coronary Artery Bypass Graft","Angina, Unstable","Revascularization"]},"designModule":{"studyType":"INTERVENTIONAL","phases":["PHASE4"],"designInfo":{"allocation":"RANDOMIZED","interventionModel":"PARALLEL","primaryPurpose":"PREVENTION","maskingInfo":{"masking":"DOUBLE"}},"enrollmentInfo":{"count":2800}},"armsInterventionsModule":{"interventions":[{"type":"DRUG","name":"Atorvastatin"}]},"outcomesModule":{"primaryOutcomes":[{"measure":"Time from randomization to the occurrence of a primary clinical endpoint"},{"measure":"i.e. major coronary event or CABG or other coronary revascularization procedure"},{"measure":"or unstable angina or resuscitated cardiac arrest or stroke."}],"secondaryOutcomes":[{"measure":"The incidence rate of a primary clinical and endpoint; the time from randomization"},{"measure":"to the occurrence of and the incidence rate of other parameters e.g. total"},{"measure":"mortality, any cardiovascular event, new PVD etc. and the percent change from"},{"measure":"baseline in various lipid and lipoprotein parameters."}]},"eligibilityModule":{"eligibilityCriteria":"Inclusion Criteria:\n\nPatients must have a documented history of at least one of the following:\n\n* Hypertension (defined as systolic blood pressure 140 mmHg or a diastolic blood pressure 90 mmHg (defined as the disapperance of all sound \\[Korotkoff Phase V\\] or receiving anti-hypertensive treatment. Blood pressure should be measured after sitting the patient quietly for 3 minutes).\n* Retinopathy (defined as any of the following; non-proliferative retinopathy, pre-pre-proliferative retinopathy, proliferative retinopathy, maculopathy, advanced diabetic eye disease or history of photocoagulation).\n* Microalbuminuria (defined as either, Albumin creatinine ratio \\> than = to 2.5 mg/mmol, or Albumin excretion rate on a timed collection \\> than = to 20 mcg/min (\\> than = to 30 mg/24hrs) on two successive occasions, or a positive micral or other strip test).\n* Macroalbuminuria (defined as either; Albustix or other dipstick evidence of gross proteinuria, Albumin creatinine ratio \\> than = to 25 mg/mmol; or Albumin excretion rate on a timed collection \\> than = 200 mcg/min (\\> than = 300 mg/24hrs) on two sucessive occasions).\n* Current smoker\n\nExclusion Criteria:\n\n* Type I Diabetes Mellitus\n* Any major Coronary event prior to entry into the study","healthyVolunteers":false,"sex":"ALL","minimumAge":"40 Years","maximumAge":"75 Years","stdAges":["ADULT","OLDER_ADULT"]},"contactsLocationsModule":{"overallOfficials":[{"name":"Pfizer CT.gov Call Center","affiliation":"Pfizer","role":"STUDY_DIRECTOR"}],"locations":[{"facility":"Pfizer Investigational Site","city":"Fosterhill","state":"Aberdeen","zip":"AB25 2XG","country":"United Kingdom"},{"facility":"Pfizer Investigational Site","city":"Irvine","state":"Ayrshire","zip":"KA12 0AY","country":"United Kingdom","geoPoint":{"lat":55.6194,"lon":-4.65508}},{"facility":"Pfizer Investigational Site","city":"Midsomer Norton","state":"Bath","zip":"BA3 2UH","country":"United Kingdom","geoPoint":{"lat":51.28567,"lon":-2.48591}},{"facility":"Pfizer Investigational Site","city":"Reading","state":"Berkshire","zip":"RG2 7AG","country":"United Kingdom","geoPoint":{"lat":51.45625,"lon":-0.97113}},{"facility":"Pfizer Investigational Site","city":"Slough","state":"Berkshire","zip":"SL1 2AD","country":"United Kingdom","geoPoint":{"lat":51.50949,"lon":-0.59541}},{"facility":"Pfizer Investigational Site","city":"Maidenhead","state":"Berskhire","zip":"SL6 6EL","country":"United Kingdom","geoPoint":{"lat":51.52279,"lon":-0.71986}},{"facility":"Pfizer Investigational Site","city":"Edgbaston","state":"Birmingham","zip":"B15 2TH","country":"United Kingdom","geoPoint":{"lat":52.4623,"lon":-1.92115}},{"facility":"Pfizer Investigational Site","city":"Frenchay","state":"Bristol","zip":"BS16 1LE","country":"United Kingdom","geoPoint":{"lat":51.50083,"lon":-2.52111}},{"facility":"Pfizer Investigational Site","city":"Llanishen","state":"Cardiff","zip":"CF14 5GJ","country":"United Kingdom","geoPoint":{"lat":51.72333,"lon":-2.75722}},{"facility":"Pfizer Investigational Site","city":"Wrexham","state":"Clwydd","zip":"LL13 7TD","country":"United Kingdom","geoPoint":{"lat":53.04664,"lon":-2.99132}},{"facility":"Pfizer Investigational Site","city":"Bocastle","state":"Cornwall","zip":"PL35 0BG","country":"United Kingdom"},{"facility":"Pfizer Investigational Site","city":"Falmouth","state":"Cornwall","zip":"TR11 2LH","country":"United Kingdom","geoPoint":{"lat":50.15441,"lon":-5.07113}},{"facility":"Pfizer Investigational Site","city":"Fowey","state":"Cornwall","zip":"PL23 1DT","country":"United Kingdom","geoPoint":{"lat":50.33634,"lon":-4.6386}},{"facility":"Pfizer Investigational Site","city":"Penzance","state":"Cornwall","zip":"TR18 4JH","country":"United Kingdom","geoPoint":{"lat":50.11861,"lon":-5.53715}},{"facility":"Pfizer Investigational Site","city":"Penzance","state":"Cornwall","zip":"TR19 7HX","country":"United Kingdom","geoPoint":{"lat":50.11861,"lon":-5.53715}},{"facility":"Pfizer Investigational Site","city":"Redruth","state":"Cornwall","zip":"TR15 2LL","country":"United Kingdom","geoPoint":{"lat":50.23315,"lon":-5.22434}},{"facility":"Pfizer Investigational Site","city":"Saltash","state":"Cornwall","zip":"PL12 6DL","country":"United Kingdom","geoPoint":{"lat":50.40959,"lon":-4.22514}},{"facility":"Pfizer Investigational Site","city":"St. Austell","state":"Cornwall","zip":"PL26 7RL","country":"United Kingdom","geoPoint":{"lat":50.3425,"lon":-4.77442}},{"facility":"Pfizer Investigational Site","city":"Truro","state":"Cornwall","zip":"TR1 3LJ","country":"United Kingdom","geoPoint":{"lat":50.26526,"lon":-5.05436}},{"facility":"Pfizer Investigational Site","city":"Chesterfield","state":"Derbyshire","zip":"S40 4TF","country":"United Kingdom","geoPoint":{"lat":53.25,"lon":-1.41667}},{"facility":"Pfizer Investigational Site","city":"Crownhill, Plymouth","state":"Devon","zip":"PL5 3JB","country":"United Kingdom"},{"facility":"Pfizer Investigational Site","city":"Plymouth","state":"Devon","zip":"PL6 7TH","country":"United Kingdom","geoPoint":{"lat":50.37153,"lon":-4.14305}},{"facility":"Pfizer Investigational Site","city":"Plympton","state":"Devon","zip":"PL7 1AD","country":"United Kingdom","geoPoint":{"lat":50.39074,"lon":-4.06022}},{"facility":"Pfizer Investigational Site","city":"Bournemouth","state":"Dorset","zip":"BH7 7DW","country":"United Kingdom","geoPoint":{"lat":50.72048,"lon":-1.8795}},{"facility":"Pfizer Investigational Site","city":"Bournemouth","state":"Dorset","zip":"BH8 9EW","country":"United Kingdom","geoPoint":{"lat":50.72048,"lon":-1.8795}},{"facility":"Pfizer Investigational Site","city":"Epping","state":"Essex","zip":"CM16 6TN","country":"United Kingdom","geoPoint":{"lat":51.69815,"lon":0.11055}},{"facility":"Pfizer Investigational Site","city":"Southend on Sea","state":"Essex","zip":"SS1 2AB","country":"United Kingdom","geoPoint":{"lat":51.53782,"lon":0.71433}},{"facility":"Pfizer Investigational Site","city":"Langside","state":"Glasgow","zip":"G42 9TY","country":"United Kingdom"},{"facility":"Pfizer Investigational Site","city":"Portsmouth","state":"Hampshire","zip":"PO6 3LY","country":"United Kingdom","geoPoint":{"lat":50.79899,"lon":-1.09125}},{"facility":"Pfizer Investigational Site","city":"Southampton","state":"Hampshire","zip":"SO31 7DQ","country":"United Kingdom","geoPoint":{"lat":50.90395,"lon":-1.40428}},{"facility":"Pfizer Investigational Site","city":"Titchfield","state":"Hampshire","zip":"PO14 4EH","country":"United Kingdom","geoPoint":{"lat":50.85115,"lon":-1.23716}},{"facility":"Pfizer Investigational Site","city":"Hemel Hempstead","state":"Hertfordshire","zip":"HP2 4AD","country":"United Kingdom","geoPoint":{"lat":51.75368,"lon":-0.44975}},{"facility":"Pfizer Investigational Site","city":"Watford","state":"Hertfordshire","zip":"WD18 0HB","country":"United Kingdom","geoPoint":{"lat":51.65531,"lon":-0.39602}},{"facility":"Pfizer Investigational Site","city":"Ryde","state":"Isle of Wight","zip":"PO33 2EH","country":"United Kingdom","geoPoint":{"lat":50.72999,"lon":-1.1621}},{"facility":"Pfizer Investigational Site","city":"Gillingham","state":"Kent","zip":"ME7 5NY","country":"United Kingdom","geoPoint":{"lat":51.38914,"lon":0.54863}},{"facility":"Pfizer Investigational Site","city":"Hildenborough","state":"Kent","zip":"TN11 9HL","country":"United Kingdom","geoPoint":{"lat":51.21317,"lon":0.24994}},{"facility":"Pfizer Investigational Site","city":"Tunbridge Wells","state":"Kent","zip":"TN1 2DX","country":"United Kingdom","geoPoint":{"lat":51.13321,"lon":0.26256}},{"facility":"Pfizer Investigational Site","city":"Bolton","state":"Lancashire","zip":"BL4 0JR","country":"United Kingdom","geoPoint":{"lat":53.58333,"lon":-2.43333}},{"facility":"Pfizer Investigational Site","city":"Ormskirk","state":"Lancashire","zip":"L39 2AZ","country":"United Kingdom","geoPoint":{"lat":53.56685,"lon":-2.88178}},{"facility":"Pfizer Investigational Site","city":"Waterloo","state":"Liverpool","zip":"L22 0LG","country":"United Kingdom","geoPoint":{"lat":51.49635,"lon":-0.11152}},{"facility":"Pfizer Investigational Site","city":"Manchester","state":"M15 6sx","country":"United Kingdom","geoPoint":{"lat":53.48095,"lon":-2.23743}},{"facility":"Pfizer Investigational Site","city":"Ashford","state":"Middlesex","zip":"TW15 2TU","country":"United Kingdom","geoPoint":{"lat":51.14648,"lon":0.87376}},{"facility":"Pfizer Investigational Site","city":"Southall","state":"Middlesex","zip":"UB1 3HW","country":"United Kingdom","geoPoint":{"lat":51.50896,"lon":-0.3713}},{"facility":"Pfizer Investigational Site","city":"Scunthorpe","state":"North Lincolnshire","zip":"DN15 7BH","country":"United Kingdom","geoPoint":{"lat":53.57905,"lon":-0.65437}},{"facility":"Pfizer Investigational Site","city":"Harrogate","state":"North Yorkshire","zip":"HG2 7SX","country":"United Kingdom","geoPoint":{"lat":53.99078,"lon":-1.5373}},{"facility":"Pfizer Investigational Site","city":"Northallerton","state":"North Yorkshire","zip":"DL6 1JG","country":"United Kingdom","geoPoint":{"lat":54.33901,"lon":-1.43243}},{"facility":"Pfizer Investigational Site","city":"Sutton-in-Ashfield","state":"Nottinghamshire","zip":"NG17 4JL","country":"United Kingdom","geoPoint":{"lat":53.12542,"lon":-1.26135}},{"facility":"Pfizer Investigational Site","city":"Worksop","state":"Nottinghamshire","zip":"S80 1HP","country":"United Kingdom","geoPoint":{"lat":53.30182,"lon":-1.12404}},{"facility":"Pfizer Investigational Site","city":"Huthwaite","state":"Nottingham","zip":"NG17 2LR","country":"United Kingdom"},{"facility":"Pfizer Investigational Site","city":"Headington","state":"Oxford","zip":"OX3 7LJ","country":"United Kingdom","geoPoint":{"lat":51.75737,"lon":-1.21974}},{"facility":"Pfizer Investigational Site","city":"Haverfordwest","state":"Pembrokeshire","zip":"SA61 1QX","country":"United Kingdom","geoPoint":{"lat":51.80169,"lon":-4.96914}},{"facility":"Pfizer Investigational Site","city":"Haverfordwest","state":"Pembrokeshire","zip":"SA61 2PZ","country":"United Kingdom","geoPoint":{"lat":51.80169,"lon":-4.96914}},{"facility":"Pfizer Investigational Site","city":"Shrewsbury","state":"Shropshire","zip":"SY3 8XG","country":"United Kingdom","geoPoint":{"lat":52.71009,"lon":-2.75208}},{"facility":"Pfizer Investigational Site","city":"Frome","state":"Somerset","zip":"BA11 1EZ","country":"United Kingdom","geoPoint":{"lat":51.22834,"lon":-2.32211}},{"facility":"Pfizer Investigational Site","city":"Weston-Super-Mare","state":"Somerset","zip":"BS23 4TQ","country":"United Kingdom","geoPoint":{"lat":51.34603,"lon":-2.97665}},{"facility":"Pfizer Investigational Site","city":"Sheffield","state":"South Yorkshire","zip":"S5 7HD","country":"United Kingdom","geoPoint":{"lat":53.38297,"lon":-1.4659}},{"facility":"Pfizer Investigational Site","city":"Sheffield","state":"South Yorkshire","zip":"S5 7QB","country":"United Kingdom","geoPoint":{"lat":53.38297,"lon":-1.4659}},{"facility":"Pfizer Investigational Site","city":"Sheffield","state":"South Yorkshire","zip":"S7 2DW","country":"United Kingdom","geoPoint":{"lat":53.38297,"lon":-1.4659}},{"facility":"Pfizer Investigational Site","city":"Stirling","state":"Stirlingshire","zip":"FK8 2AU","country":"United Kingdom","geoPoint":{"lat":56.11903,"lon":-3.93682}},{"facility":"Pfizer Investigational Site","city":"Carshalton","state":"Surrey","zip":"SM5 1AA","country":"United Kingdom","geoPoint":{"lat":51.36829,"lon":-0.16755}},{"facility":"Pfizer Investigational Site","city":"Epsom","state":"Surrey","zip":"KT18 7EG","country":"United Kingdom","geoPoint":{"lat":51.3305,"lon":-0.27011}},{"facility":"Pfizer Investigational Site","city":"Pontarddulais","state":"Swansea","zip":"SA4 1TL","country":"United Kingdom","geoPoint":{"lat":51.71423,"lon":-4.03859}},{"facility":"Pfizer Investigational Site","city":"Dundee","state":"Tayside","zip":"DD1 9SY","country":"United Kingdom","geoPoint":{"lat":56.46913,"lon":-2.97489}},{"facility":"Pfizer Investigational Site","city":"Dundee","state":"Tayside","zip":"DD2 5NH","country":"United Kingdom","geoPoint":{"lat":56.46913,"lon":-2.97489}},{"facility":"Pfizer Investigational Site","city":"Hetton le Hole","state":"Tyne & Wear","zip":"DH5 9EZ","country":"United Kingdom","geoPoint":{"lat":54.81667,"lon":-1.45}},{"facility":"Pfizer Investigational Site","city":"Gateshead","state":"Tyne and Wear","zip":"NE9 6SX","country":"United Kingdom","geoPoint":{"lat":54.96209,"lon":-1.60168}},{"facility":"Pfizer Investigational Site","city":"Nuneaton","state":"Warwickshire","zip":"CV10 7DJ","country":"United Kingdom","geoPoint":{"lat":52.52323,"lon":-1.46523}},{"facility":"Pfizer Investigational Site","city":"Rugby","state":"Warwickshire","zip":"CV22 5PX","country":"United Kingdom","geoPoint":{"lat":52.37092,"lon":-1.26417}},{"facility":"Pfizer Investigational Site","city":"Lyndon","state":"West Bromwich, West Midlands","zip":"B71 4HJ","country":"United Kingdom"},{"facility":"Pfizer Investigational Site","city":"Livingston","state":"West Lothian","zip":"EH54 6PP","country":"United Kingdom","geoPoint":{"lat":55.90288,"lon":-3.52261}},{"facility":"Pfizer Investigational Site","city":"Wolverhampton","state":"West Midlands","zip":"WV10 0QP","country":"United Kingdom","geoPoint":{"lat":52.58547,"lon":-2.12296}},{"facility":"Pfizer Investigational Site","city":"Crawley","state":"West Sussex","zip":"RH10 1LL","country":"United Kingdom","geoPoint":{"lat":51.11303,"lon":-0.18312}},{"facility":"Pfizer Investigational Site","city":"Crawley","state":"West Sussex","zip":"RH10 7DX","country":"United Kingdom","geoPoint":{"lat":51.11303,"lon":-0.18312}},{"facility":"Pfizer Investigational Site","city":"Haywards Heath","state":"West Sussex","zip":"RH16 4EX","country":"United Kingdom","geoPoint":{"lat":50.99769,"lon":-0.10313}},{"facility":"Pfizer Investigational Site","city":"Corsham","state":"Wiltshire","zip":"SN13 9DL","country":"United Kingdom","geoPoint":{"lat":51.43433,"lon":-2.18437}},{"facility":"Pfizer Investigational Site","city":"Trowbridge","state":"Wiltshire","zip":"BA14 7EG","country":"United Kingdom","geoPoint":{"lat":51.31889,"lon":-2.20861}},{"facility":"Pfizer Investigational Site","city":"Trowbridge","state":"Wiltshire","zip":"BA14 9AR","country":"United Kingdom","geoPoint":{"lat":51.31889,"lon":-2.20861}},{"facility":"Pfizer Investigational Site","city":"Warminster","state":"Wiltshire","zip":"BA14 9AA","country":"United Kingdom","geoPoint":{"lat":51.20434,"lon":-2.17873}},{"facility":"Pfizer Investigational Site","city":"Westbury","state":"Wiltshire","zip":"BA13 3JD","country":"United Kingdom","geoPoint":{"lat":51.26,"lon":-2.1875}},{"facility":"Pfizer Investigational Site","city":"York","state":"Yorkshire","zip":"YO31 8HE","country":"United Kingdom","geoPoint":{"lat":53.95763,"lon":-1.08271}},{"facility":"Pfizer Investigational Site","city":"Ayr","zip":"KA6 6DX","country":"United Kingdom","geoPoint":{"lat":55.46273,"lon":-4.63393}},{"facility":"Pfizer Investigational Site","city":"Ayr","zip":"KA7 2AA","country":"United Kingdom","geoPoint":{"lat":55.46273,"lon":-4.63393}},{"facility":"Pfizer Investigational Site","city":"Bath","zip":"BA1 2SR","country":"United Kingdom","geoPoint":{"lat":51.3751,"lon":-2.36172}},{"facility":"Pfizer Investigational Site","city":"Bath","zip":"BA1 3NG","country":"United Kingdom","geoPoint":{"lat":51.3751,"lon":-2.36172}},{"facility":"Pfizer Investigational Site","city":"Bath","zip":"BA2 1NH","country":"United Kingdom","geoPoint":{"lat":51.3751,"lon":-2.36172}},{"facility":"Pfizer Investigational Site","city":"Bath","zip":"BA2 3HT","country":"United Kingdom","geoPoint":{"lat":51.3751,"lon":-2.36172}},{"facility":"Pfizer Investigational Site","city":"Bath","zip":"BA2 4BY","country":"United Kingdom","geoPoint":{"lat":51.3751,"lon":-2.36172}},{"facility":"Pfizer Investigational Site","city":"Belfast","zip":"BT12 6BA","country":"United Kingdom","geoPoint":{"lat":54.59682,"lon":-5.92541}},{"facility":"Pfizer Investigational Site","city":"Belfast","zip":"BT14 6AB","country":"United Kingdom","geoPoint":{"lat":54.59682,"lon":-5.92541}},{"facility":"Pfizer Investigational Site","city":"Belfast","zip":"BT9 7AB","country":"United Kingdom","geoPoint":{"lat":54.59682,"lon":-5.92541}},{"facility":"Pfizer Investigational Site","city":"Birmingham","zip":"B15 2SQ","country":"United Kingdom","geoPoint":{"lat":52.48142,"lon":-1.89983}},{"facility":"Pfizer Investigational Site","city":"Birmingham","zip":"B37 7TR","country":"United Kingdom","geoPoint":{"lat":52.48142,"lon":-1.89983}},{"facility":"Pfizer Investigational Site","city":"Birmingham","zip":"B9 5SS","country":"United Kingdom","geoPoint":{"lat":52.48142,"lon":-1.89983}},{"facility":"Pfizer Investigational Site","city":"Cambridge","zip":"CB2 2QQ","country":"United Kingdom","geoPoint":{"lat":52.2,"lon":0.11667}},{"facility":"Pfizer Investigational Site","city":"Chippenham, Wiltshire","zip":"SN15 2SB","country":"United Kingdom"},{"facility":"Pfizer Investigational Site","city":"Co. Dublin","country":"United Kingdom"},{"facility":"Pfizer Investigational Site","city":"Coventry","zip":"CV1 4FH","country":"United Kingdom","geoPoint":{"lat":52.40656,"lon":-1.51217}},{"facility":"Pfizer Investigational Site","city":"Derby","zip":"DE22 3DT","country":"United Kingdom","geoPoint":{"lat":52.92277,"lon":-1.47663}},{"facility":"Pfizer Investigational Site","city":"Dewsbury","zip":"WF13 4HS","country":"United Kingdom","geoPoint":{"lat":53.69076,"lon":-1.62907}},{"facility":"Pfizer Investigational Site","city":"Dublin 8","country":"United Kingdom"},{"facility":"Pfizer Investigational Site","city":"Dumfries","zip":"DG1 4AP","country":"United Kingdom","geoPoint":{"lat":55.06959,"lon":-3.61139}},{"facility":"Pfizer Investigational Site","city":"East Kilbride","zip":"G75 8RG","country":"United Kingdom","geoPoint":{"lat":55.76412,"lon":-4.17669}},{"facility":"Pfizer Investigational Site","city":"Edinburgh","zip":"EH16 4SA","country":"United Kingdom","geoPoint":{"lat":55.95206,"lon":-3.19648}},{"facility":"Pfizer Investigational Site","city":"Edinburgh","zip":"EH4 2XU","country":"United Kingdom","geoPoint":{"lat":55.95206,"lon":-3.19648}},{"facility":"Pfizer Investigational Site","city":"Glasgow","zip":"G12 0YN","country":"United Kingdom","geoPoint":{"lat":55.86515,"lon":-4.25763}},{"facility":"Pfizer Investigational Site","city":"Glasgow","zip":"G4 0SF","country":"United Kingdom","geoPoint":{"lat":55.86515,"lon":-4.25763}},{"facility":"Pfizer Investigational Site","city":"Glasgow","zip":"G51 4TF","country":"United Kingdom","geoPoint":{"lat":55.86515,"lon":-4.25763}},{"facility":"Pfizer Investigational Site","city":"Hartlepool","zip":"TS24 9AH","country":"United Kingdom","geoPoint":{"lat":54.68611,"lon":-1.2125}},{"facility":"Pfizer Investigational Site","city":"Hertfordshire","zip":"AL7 4HQ","country":"United Kingdom"},{"facility":"Pfizer Investigational Site","city":"Hertfordshire","zip":"SG1 4AB","country":"United Kingdom"},{"facility":"Pfizer Investigational Site","city":"Inverness","zip":"IV2 3UJ","country":"United Kingdom","geoPoint":{"lat":57.47908,"lon":-4.22398}},{"facility":"Pfizer Investigational Site","city":"Leicester","zip":"LE5 4PW","country":"United Kingdom","geoPoint":{"lat":52.6386,"lon":-1.13169}},{"facility":"Pfizer Investigational Site","city":"Liverpool","zip":"L7 8XP","country":"United Kingdom","geoPoint":{"lat":53.41058,"lon":-2.97794}},{"facility":"Pfizer Investigational Site","city":"Llantrisant","zip":"CF72 8XR","country":"United Kingdom","geoPoint":{"lat":51.54028,"lon":-3.37389}},{"facility":"Pfizer Investigational Site","city":"London","zip":"N18 1QX","country":"United Kingdom","geoPoint":{"lat":51.50853,"lon":-0.12574}},{"facility":"Pfizer Investigational Site","city":"London","zip":"NW3 2QG","country":"United Kingdom","geoPoint":{"lat":51.50853,"lon":-0.12574}},{"facility":"Pfizer Investigational Site","city":"London","zip":"W12 0NN","country":"United Kingdom","geoPoint":{"lat":51.50853,"lon":-0.12574}},{"facility":"Pfizer Investigational Site","city":"London","zip":"W6 8RF","country":"United Kingdom","geoPoint":{"lat":51.50853,"lon":-0.12574}},{"facility":"Pfizer Investigational Site","city":"Manchester","zip":"M41 5SL","country":"United Kingdom","geoPoint":{"lat":53.48095,"lon":-2.23743}},{"facility":"Pfizer Investigational Site","city":"Manchester","zip":"M6 8HD","country":"United Kingdom","geoPoint":{"lat":53.48095,"lon":-2.23743}},{"facility":"Pfizer Investigational Site","city":"Manchester","zip":"M8 5RB","country":"United Kingdom","geoPoint":{"lat":53.48095,"lon":-2.23743}},{"facility":"Pfizer Investigational Site","city":"Newcastle upon Tyne","zip":"NE4 6BE","country":"United Kingdom","geoPoint":{"lat":54.97328,"lon":-1.61396}},{"facility":"Pfizer Investigational Site","city":"Nottingham","zip":"NG7 2UH","country":"United Kingdom","geoPoint":{"lat":52.9536,"lon":-1.15047}},{"facility":"Pfizer Investigational Site","city":"Oldham","zip":"OL1 2JH","country":"United Kingdom","geoPoint":{"lat":53.54051,"lon":-2.1183}},{"facility":"Pfizer Investigational Site","city":"Paisley","zip":"PA2 9PN","country":"United Kingdom","geoPoint":{"lat":55.83173,"lon":-4.43254}},{"facility":"Pfizer Investigational Site","city":"Pontefract","zip":"WF8 1PL","country":"United Kingdom","geoPoint":{"lat":53.69107,"lon":-1.31269}},{"facility":"Pfizer Investigational Site","city":"Southampton","zip":"SO14 0YG","country":"United Kingdom","geoPoint":{"lat":50.90395,"lon":-1.40428}},{"facility":"Pfizer Investigational Site","city":"Swansea","zip":"SA1 1HW","country":"United Kingdom","geoPoint":{"lat":51.62079,"lon":-3.94323}},{"facility":"Pfizer Investigational Site","city":"Swansea","zip":"SA1 4DF","country":"United Kingdom","geoPoint":{"lat":51.62079,"lon":-3.94323}},{"facility":"Pfizer Investigational Site","city":"Wakefield","zip":"WF1 4DG","country":"United Kingdom","geoPoint":{"lat":53.68331,"lon":-1.49768}},{"facility":"Pfizer Investigational Site","city":"Wigan","zip":"WN1 1XX","country":"United Kingdom","geoPoint":{"lat":53.54295,"lon":-2.63705}},{"facility":"Pfizer Investigational Site","city":"Wiltshire","zip":"BA15 1DQ","country":"United Kingdom"},{"facility":"Pfizer Investigational Site","city":"Wiltshire","zip":"SN12 7EA","country":"United Kingdom"},{"facility":"Pfizer Investigational Site","city":"Wiltshire","zip":"SP2 8BJ","country":"United Kingdom"},{"facility":"Pfizer Investigational Site","city":"Wishaw","zip":"ML2 0DP","country":"United Kingdom","geoPoint":{"lat":55.76667,"lon":-3.91667}}]},"referencesModule":{"references":[{"pmid":"17065671","type":"RESULT","citation":"Neil HA, DeMicco DA, Luo D, Betteridge DJ, Colhoun HM, Durrington PN, Livingstone SJ, Fuller JH, Hitman GA; CARDS Study Investigators. Analysis of efficacy and safety in patients aged 65-75 years at randomization: Collaborative Atorvastatin Diabetes Study (CARDS). Diabetes Care. 2006 Nov;29(11):2378-84. doi: 10.2337/dc06-0872."},{"pmid":"31020900","type":"DERIVED","citation":"Vogt L, Bangalore S, Fayyad R, Melamed S, Hovingh GK, DeMicco DA, Waters DD. Atorvastatin Has a Dose-Dependent Beneficial Effect on Kidney Function and Associated Cardiovascular Outcomes: Post Hoc Analysis of 6 Double-Blind Randomized Controlled Trials. J Am Heart Assoc. 2019 May 7;8(9):e010827. doi: 10.1161/JAHA.118.010827."},{"pmid":"30571333","type":"DERIVED","citation":"Bangalore S, Fayyad R, DeMicco DA, Colhoun HM, Waters DD. Body Weight Variability and Cardiovascular Outcomes in Patients With Type 2 Diabetes Mellitus. Circ Cardiovasc Qual Outcomes. 2018 Nov;11(11):e004724. doi: 10.1161/CIRCOUTCOMES.118.004724."},{"pmid":"28573499","type":"DERIVED","citation":"Ports WC, Fayyad R, DeMicco DA, Laskey R, Wolk R. Effectiveness of Lipid-Lowering Statin Therapy in Patients With and Without Psoriasis. Clin Drug Investig. 2017 Aug;37(8):775-785. doi: 10.1007/s40261-017-0533-0."},{"pmid":"27513651","type":"DERIVED","citation":"Deedwania PC, Pedersen TR, DeMicco DA, Breazna A, Betteridge DJ, Hitman GA, Durrington P, Neil A; TNT, CARDS and IDEAL Steering Committees and Investigators. Differing predictive relationships between baseline LDL-C, systolic blood pressure, and cardiovascular outcomes. Int J Cardiol. 2016 Nov 1;222:548-556. doi: 10.1016/j.ijcard.2016.07.201. Epub 2016 Jul 30."},{"pmid":"27174798","type":"DERIVED","citation":"Kaasenbrood L, Poulter NR, Sever PS, Colhoun HM, Livingstone SJ, Boekholdt SM, Pressel SL, Davis BR, van der Graaf Y, Visseren FL; CARDS, ALLHAT, and ASCOT Investigators. Development and Validation of a Model to Predict Absolute Vascular Risk Reduction by Moderate-Intensity Statin Therapy in Individual Patients With Type 2 Diabetes Mellitus: The Anglo Scandinavian Cardiac Outcomes Trial, Antihypertensive and Lipid-Lowering Treatment to Prevent Heart Attack Trial, and Collaborative Atorvastatin Diabetes Study. Circ Cardiovasc Qual Outcomes. 2016 May;9(3):213-21. doi: 10.1161/CIRCOUTCOMES.115.001980. Epub 2016 May 11."},{"pmid":"25899452","type":"DERIVED","citation":"Soedamah-Muthu SS, Livingstone SJ, Charlton-Menys V, Betteridge DJ, Hitman GA, Neil HA, Bao W, DeMicco DA, Preston GM, Fuller JH, Stehouwer CD, Schalkwijk CG, Durrington PN, Colhoun HM; CARDS Investigators. Effect of atorvastatin on C-reactive protein and benefits for cardiovascular disease in patients with type 2 diabetes: analyses from the Collaborative Atorvastatin Diabetes Trial. Diabetologia. 2015 Jul;58(7):1494-502. doi: 10.1007/s00125-015-3586-8. Epub 2015 Apr 22."},{"pmid":"22368281","type":"DERIVED","citation":"Deshmukh HA, Colhoun HM, Johnson T, McKeigue PM, Betteridge DJ, Durrington PN, Fuller JH, Livingstone S, Charlton-Menys V, Neil A, Poulter N, Sever P, Shields DC, Stanton AV, Chatterjee A, Hyde C, Calle RA, DeMicco DA, Trompet S, Postmus I, Ford I, Jukema JW, Caulfield M, Hitman GA. Genome-wide association study of genetic determinants of LDL-c response to atorvastatin therapy: importance of Lp(a). J Lipid Res. 2012 May;53(5):1000-1011. doi: 10.1194/jlr.P021113. Epub 2012 Feb 24."},{"pmid":"19540640","type":"DERIVED","citation":"Colhoun HM, Betteridge DJ, Durrington PN, Hitman GA, Neil HA, Livingstone SJ, Charlton-Menys V, DeMicco DA, Fuller JH; CARDS Investigators. Effects of atorvastatin on kidney outcomes and cardiovascular disease in patients with diabetes: an analysis from the Collaborative Atorvastatin Diabetes Study (CARDS). Am J Kidney Dis. 2009 Nov;54(5):810-9. doi: 10.1053/j.ajkd.2009.03.022. Epub 2009 Jun 21."},{"pmid":"18972097","type":"DERIVED","citation":"Charlton-Menys V, Betteridge DJ, Colhoun H, Fuller J, France M, Hitman GA, Livingstone SJ, Neil HA, Newman CB, Szarek M, DeMicco DA, Durrington PN. Apolipoproteins, cardiovascular risk and statin response in type 2 diabetes: the Collaborative Atorvastatin Diabetes Study (CARDS). Diabetologia. 2009 Feb;52(2):218-25. doi: 10.1007/s00125-008-1176-8. Epub 2008 Oct 30. Erratum In: Diabetologia. 2009 Mar;52(3):556."},{"pmid":"18777490","type":"DERIVED","citation":"Newman CB, Szarek M, Colhoun HM, Betteridge DJ, Durrington PN, Hitman GA, Neil HA, Demicco DA, Auster S, Fuller JH; Cards Investigators. The safety and tolerability of atorvastatin 10 mg in the Collaborative Atorvastatin Diabetes Study (CARDS). Diab Vasc Dis Res. 2008 Sep;5(3):177-83. doi: 10.3132/dvdr.2008.029."}],"seeAlsoLinks":[{"label":"To obtain contact information for a study center near you, click here.","url":"https://trialinfoemail.pfizer.com/pages/landing.aspx?StudyID=0981-430-102&StudyName=CARDS+is+designed+to+show+if+lowering+cholesterol+with+atorvastatin+in+Type+2+diabetics+without+CV+disease+reduces+"}]}},"derivedSection":{"miscInfoModule":{"versionHolder":"2024-02-14"},"conditionBrowseModule":{"meshes":[{"id":"D000020521","term":"Stroke"},{"id":"D000000789","term":"Angina, Unstable"}],"ancestors":[{"id":"D000002561","term":"Cerebrovascular Disorders"},{"id":"D000001927","term":"Brain Diseases"},{"id":"D000002493","term":"Central Nervous System Diseases"},{"id":"D000009422","term":"Nervous System Diseases"},{"id":"D000014652","term":"Vascular Diseases"},{"id":"D000002318","term":"Cardiovascular Diseases"},{"id":"D000000787","term":"Angina Pectoris"},{"id":"D000017202","term":"Myocardial Ischemia"},{"id":"D000006331","term":"Heart Diseases"},{"id":"D000002637","term":"Chest Pain"},{"id":"D000010146","term":"Pain"},{"id":"D000009461","term":"Neurologic Manifestations"}],"browseLeaves":[{"id":"M21996","name":"Stroke","asFound":"Cerebrovascular Accident","relevance":"HIGH"},{"id":"M6805","name":"Diabetes Mellitus","relevance":"LOW"},{"id":"M6809","name":"Diabetes Mellitus, Type 2","relevance":"LOW"},{"id":"M3807","name":"Angina Pectoris","relevance":"LOW"},{"id":"M3809","name":"Angina, Unstable","asFound":"Angina, Unstable","relevance":"HIGH"},{"id":"M5500","name":"Cerebrovascular Disorders","relevance":"LOW"},{"id":"M4894","name":"Brain Diseases","relevance":"LOW"},{"id":"M5432","name":"Central Nervous System Diseases","relevance":"LOW"},{"id":"M17090","name":"Vascular Diseases","relevance":"LOW"},{"id":"M6236","name":"Coronary Artery Disease","relevance":"LOW"},{"id":"M10233","name":"Ischemia","relevance":"LOW"},{"id":"M19196","name":"Myocardial Ischemia","relevance":"LOW"},{"id":"M9109","name":"Heart Diseases","relevance":"LOW"},{"id":"M5572","name":"Chest Pain","relevance":"LOW"},{"id":"M12756","name":"Pain","relevance":"LOW"},{"id":"M12094","name":"Neurologic Manifestations","relevance":"LOW"}],"browseBranches":[{"abbrev":"BC10","name":"Nervous System Diseases"},{"abbrev":"BC14","name":"Heart and Blood Diseases"},{"abbrev":"All","name":"All Conditions"},{"abbrev":"BC18","name":"Nutritional and Metabolic Diseases"},{"abbrev":"BC19","name":"Gland and Hormone Related Diseases"},{"abbrev":"BC23","name":"Symptoms and General Pathology"}]},"interventionBrowseModule":{"meshes":[{"id":"D000069059","term":"Atorvastatin"}],"ancestors":[{"id":"D000000924","term":"Anticholesteremic Agents"},{"id":"D000000960","term":"Hypolipidemic Agents"},{"id":"D000000963","term":"Antimetabolites"},{"id":"D000045504","term":"Molecular Mechanisms of Pharmacological Action"},{"id":"D000057847","term":"Lipid Regulating Agents"},{"id":"D000019161","term":"Hydroxymethylglutaryl-CoA Reductase Inhibitors"},{"id":"D000004791","term":"Enzyme Inhibitors"}],"browseLeaves":[{"id":"M351","name":"Atorvastatin","asFound":"Functional","relevance":"HIGH"},{"id":"M3933","name":"Anticholesteremic Agents","relevance":"LOW"},{"id":"M3968","name":"Hypolipidemic Agents","relevance":"LOW"},{"id":"M3971","name":"Antimetabolites","relevance":"LOW"},{"id":"M28573","name":"Lipid Regulating Agents","relevance":"LOW"},{"id":"M20845","name":"Hydroxymethylglutaryl-CoA Reductase Inhibitors","relevance":"LOW"},{"id":"M7641","name":"Enzyme Inhibitors","relevance":"LOW"}],"browseBranches":[{"abbrev":"Lipd","name":"Lipid Regulating Agents"},{"abbrev":"All","name":"All Drugs and Chemicals"}]}},"hasResults":false}