{"protocolSection":{"identificationModule":{"nctId":"NCT00504842","orgStudyIdInfo":{"id":"MRX-06-101-CP-01-01"},"organization":{"fullName":"ImaRx Therapeutics","class":"INDUSTRY"},"briefTitle":"Transcranial Ultrasound in Clinical SONothrombolysis","officialTitle":"A Phase 1-2, Randomized, Placebo-Controlled, Single-Blind, Dose Escalation Study to Evaluate the Safety, Tolerability, and Activity of Ascending Single Doses of MRX-801 With Continuous Ultrasound Administration in Subjects With Acute Ischemic Stroke Receiving Treatment With Intravenous Tissue Plasminogen Activator","acronym":"TUCSON"},"statusModule":{"statusVerifiedDate":"2008-04","overallStatus":"TERMINATED","whyStopped":"Sponsor decision","expandedAccessInfo":{"hasExpandedAccess":false},"startDateStruct":{"date":"2006-12"},"completionDateStruct":{"date":"2008-03","type":"ACTUAL"},"studyFirstSubmitDate":"2007-07-18","studyFirstSubmitQcDate":"2007-07-19","studyFirstPostDateStruct":{"date":"2007-07-20","type":"ESTIMATED"},"lastUpdateSubmitDate":"2008-04-11","lastUpdatePostDateStruct":{"date":"2008-04-15","type":"ESTIMATED"}},"sponsorCollaboratorsModule":{"leadSponsor":{"name":"ImaRx Therapeutics","class":"INDUSTRY"}},"oversightModule":{"oversightHasDmc":true},"descriptionModule":{"briefSummary":"This is a randomized, placebo controlled, parallel group dose escalation trial to evaluate the safety, tolerability, and activity of four sequential dose tiers of MRX-801 and ultrasound as an adjunctive therapy to tissue plasminogen activator (tPA) treatment in subjects with acute ischemic stroke."},"conditionsModule":{"conditions":["Acute Ischemic Stroke"],"keywords":["Acute Ischemic Stroke","Microbubbles","Transcranial Doppler ultrasound","TIBI","Symptomatic Intracranial Hemorrhage","modified Rankin Scale","Recanalization","Perflutren"]},"designModule":{"studyType":"INTERVENTIONAL","phases":["PHASE1","PHASE2"],"designInfo":{"allocation":"RANDOMIZED","interventionModel":"PARALLEL","primaryPurpose":"TREATMENT","maskingInfo":{"masking":"SINGLE"}},"enrollmentInfo":{"count":72,"type":"ESTIMATED"}},"armsInterventionsModule":{"interventions":[{"type":"DRUG","name":"MRX-801"},{"type":"DRUG","name":"Placebo"}]},"outcomesModule":{"primaryOutcomes":[{"measure":"Incidence of symptomatic intracranial hemorrhage","timeFrame":"36 hours"}],"secondaryOutcomes":[{"measure":"Rate of recanalization of occluded artery","timeFrame":"120 minutes"},{"measure":"Independent outcome (modified Rankin Scale 0-2)","timeFrame":"90 days"}]},"eligibilityModule":{"eligibilityCriteria":"Inclusion Criteria:\n\n* Acute ischemic stroke\n* Occlusion demonstrated by transcranial Doppler ultrasound\n* Eligible for tPA\n\nExclusion Criteria:\n\n* Right to left cardiac shunt\n* Moderate to severe COPD\n* Uncontrolled hypertension","healthyVolunteers":false,"sex":"ALL","minimumAge":"18 Years","stdAges":["ADULT","OLDER_ADULT"]},"contactsLocationsModule":{"overallOfficials":[{"name":"Carlos Molina Cateriano, MD","affiliation":"University Hospital Vall d'Hebron, Barcelona, Spain","role":"STUDY_DIRECTOR"}],"locations":[{"facility":"University of Alabama","city":"Birmingham","state":"Alabama","zip":"35249","country":"United States","geoPoint":{"lat":33.52066,"lon":-86.80249}},{"facility":"Barrow Neurology Clinics at St. Joseph's Hospital","city":"Phoenix","state":"Arizona","zip":"85013","country":"United States","geoPoint":{"lat":33.44838,"lon":-112.07404}},{"facility":"Hoag Memorial Hospital","city":"Newport Beach","state":"California","zip":"92658","country":"United States","geoPoint":{"lat":33.61891,"lon":-117.92895}},{"facility":"California Pacific Medical Center","city":"San Francisco","state":"California","zip":"94115","country":"United States","geoPoint":{"lat":37.77493,"lon":-122.41942}},{"facility":"Colorado Neurological Institute","city":"Englewood","state":"Colorado","zip":"80113","country":"United States","geoPoint":{"lat":39.64777,"lon":-104.98776}},{"facility":"Christiana Care Health System","city":"Newark","state":"Delaware","zip":"19718","country":"United States","geoPoint":{"lat":39.68372,"lon":-75.74966}},{"facility":"University of Miami","city":"Miami","state":"Florida","zip":"33136","country":"United States","geoPoint":{"lat":25.77427,"lon":-80.19366}},{"facility":"St. Louis University School of Medicine","city":"St. Louis","state":"Missouri","zip":"63104","country":"United States","geoPoint":{"lat":38.62727,"lon":-90.19789}},{"facility":"University of Rochester","city":"Rochester","state":"New York","zip":"14642","country":"United States","geoPoint":{"lat":43.15478,"lon":-77.61556}},{"facility":"Lehigh Valley Hospital","city":"Allentown","state":"Pennsylvania","zip":"18103","country":"United States","geoPoint":{"lat":40.60843,"lon":-75.49018}},{"facility":"Methodist Hospital Neurological Institute","city":"Houston","state":"Texas","zip":"77030","country":"United States","geoPoint":{"lat":29.76328,"lon":-95.36327}},{"facility":"University of Texas","city":"Houston","state":"Texas","zip":"77030","country":"United States","geoPoint":{"lat":29.76328,"lon":-95.36327}},{"facility":"Swedish Medical Center","city":"Seattle","state":"Washington","zip":"98122","country":"United States","geoPoint":{"lat":47.60621,"lon":-122.33207}},{"facility":"Bichat - Claude Bernard University Hospital and Medical School","city":"Paris","country":"France","geoPoint":{"lat":48.85341,"lon":2.3488}}]}},"derivedSection":{"miscInfoModule":{"versionHolder":"2024-02-14"},"conditionBrowseModule":{"meshes":[{"id":"D000020521","term":"Stroke"},{"id":"D000083242","term":"Ischemic Stroke"},{"id":"D000007511","term":"Ischemia"}],"ancestors":[{"id":"D000002561","term":"Cerebrovascular Disorders"},{"id":"D000001927","term":"Brain Diseases"},{"id":"D000002493","term":"Central Nervous System Diseases"},{"id":"D000009422","term":"Nervous System Diseases"},{"id":"D000014652","term":"Vascular Diseases"},{"id":"D000002318","term":"Cardiovascular Diseases"},{"id":"D000010335","term":"Pathologic Processes"}],"browseLeaves":[{"id":"M21996","name":"Stroke","asFound":"Stroke","relevance":"HIGH"},{"id":"M9246","name":"Hemorrhage","relevance":"LOW"},{"id":"M10233","name":"Ischemia","asFound":"Ischemic","relevance":"HIGH"},{"id":"M2401","name":"Ischemic Stroke","asFound":"Ischemic Stroke","relevance":"HIGH"},{"id":"M21803","name":"Intracranial Hemorrhages","relevance":"LOW"},{"id":"M5500","name":"Cerebrovascular Disorders","relevance":"LOW"},{"id":"M4894","name":"Brain Diseases","relevance":"LOW"},{"id":"M5432","name":"Central Nervous System Diseases","relevance":"LOW"},{"id":"M17090","name":"Vascular Diseases","relevance":"LOW"},{"id":"T170","name":"Acute Graft Versus Host Disease","relevance":"LOW"}],"browseBranches":[{"abbrev":"BC10","name":"Nervous System Diseases"},{"abbrev":"BC14","name":"Heart and Blood Diseases"},{"abbrev":"All","name":"All Conditions"},{"abbrev":"BC23","name":"Symptoms and General Pathology"},{"abbrev":"Rare","name":"Rare Diseases"}]},"interventionBrowseModule":{"browseLeaves":[{"id":"M13539","name":"Tissue Plasminogen Activator","relevance":"LOW"},{"id":"M13538","name":"Plasminogen","relevance":"LOW"}],"browseBranches":[{"abbrev":"FiAg","name":"Fibrinolytic Agents"},{"abbrev":"All","name":"All Drugs and Chemicals"}]}},"hasResults":false}