{"protocolSection":{"identificationModule":{"nctId":"NCT00272909","orgStudyIdInfo":{"id":"SPI-103"},"organization":{"fullName":"Daiichi Sankyo, Inc.","class":"INDUSTRY"},"briefTitle":"Efficacy of SUN N4057 in Subjects With Acute Ischemic Stroke and Measurable Penumbra on Magnetic Resonance Imaging (MRI)","officialTitle":"A Phase IIb Randomized, Double-blind, Placebo-Controlled, Group-Sequential, Multicenter, Dose Finding Study of the Safety and Efficacy of SUN N4057 (Piclozotan) Administered for 72 Hours by Continuous Intravenous Infusion in Subjects With Acute Ischemic Stroke and Measurable Penumbra on MRI"},"statusModule":{"statusVerifiedDate":"2015-10","overallStatus":"TERMINATED","expandedAccessInfo":{"hasExpandedAccess":false},"startDateStruct":{"date":"2004-09"},"primaryCompletionDateStruct":{"date":"2006-10","type":"ACTUAL"},"completionDateStruct":{"date":"2007-01","type":"ACTUAL"},"studyFirstSubmitDate":"2006-01-05","studyFirstSubmitQcDate":"2006-01-05","studyFirstPostDateStruct":{"date":"2006-01-09","type":"ESTIMATED"},"lastUpdateSubmitDate":"2015-10-19","lastUpdatePostDateStruct":{"date":"2015-10-20","type":"ESTIMATED"}},"sponsorCollaboratorsModule":{"responsibleParty":{"oldNameTitle":"Ron Corey, PhD, MBA Executive Director, Clinical and Project Management","oldOrganization":"Asubio Pharmaceuticals, Inc."},"leadSponsor":{"name":"Daiichi Sankyo, Inc.","class":"INDUSTRY"}},"oversightModule":{"oversightHasDmc":true},"descriptionModule":{"briefSummary":"This research study is designed to evaluate the safety, tolerability, and efficacy of SUN N4057 (piclozotan) in subjects with acute ischemic stroke within 9 hours of the onset of symptoms.","detailedDescription":"The primary objective of the study is to determine the efficacy of a 72 hour infusion of SUN N4057 (piclozotan) in subjects with clinical findings of an acute ischemic stroke and a magnetic resonance imaging (MRI) demonstrating a measurable penumbra (perfusion-weighted imaging \\[PWI\\] minus diffusion-weighted imaging \\[DWI\\] volume). Efficacy will be determined by comparing the proportion of subjects with no growth in stroke lesion volume as assessed by DWI at Screening to stroke lesion volume assessed by FLAIR (fluid-attenuated inversion recovery) on Day 28 in the piclozotan group versus the placebo group."},"conditionsModule":{"conditions":["Stroke"],"keywords":["Acute Ischemic Stroke","9-Hour window MRI","Serotonin receptor agonist"]},"designModule":{"studyType":"INTERVENTIONAL","phases":["PHASE2"],"designInfo":{"allocation":"RANDOMIZED","interventionModel":"PARALLEL","primaryPurpose":"TREATMENT","maskingInfo":{"masking":"QUADRUPLE","whoMasked":["PARTICIPANT","CARE_PROVIDER","INVESTIGATOR","OUTCOMES_ASSESSOR"]}},"enrollmentInfo":{"count":43,"type":"ACTUAL"}},"armsInterventionsModule":{"armGroups":[{"label":"1","type":"EXPERIMENTAL","description":"piclozotan IV infusion, low dose, for 72 hours.","interventionNames":["Drug: piclozotan low dose"]},{"label":"2","type":"EXPERIMENTAL","description":"piclozotan IV infusion, high dose, for 72 hours.","interventionNames":["Drug: piclozotan high dose"]},{"label":"3","type":"PLACEBO_COMPARATOR","description":"placebo (normal saline) IV infusion, for 72 hours.","interventionNames":["Drug: placebo"]}],"interventions":[{"type":"DRUG","name":"piclozotan low dose","description":"Continuous IV infusion over a period of up to 72 hours of piclozotan","armGroupLabels":["1"]},{"type":"DRUG","name":"placebo","description":"Continuous IV infusion over a period of up to 72 hours of placebo.","armGroupLabels":["3"]},{"type":"DRUG","name":"piclozotan high dose","description":"Continuous IV infusion over a period of up to 72 hours of piclozotan","armGroupLabels":["2"]}]},"outcomesModule":{"primaryOutcomes":[{"measure":"Improvement in MRI","timeFrame":"28 days"}],"secondaryOutcomes":[{"measure":"The change in stroke lesion volume from Screening to day 28","timeFrame":"28 days"},{"measure":"Clinical outcomes at Days 28 and 90 using the individual clinical scales (Modified Rankin Scale, Barthel Index, and National Institutes of Health Stroke Scale [NIHSS]).","timeFrame":"Days 28 and 90"},{"measure":"To assess the safety and tolerability of SUN N4057 (piclozotan) in subjects with acute stroke.","timeFrame":"Days 28, 60 and 90"}]},"eligibilityModule":{"eligibilityCriteria":"Inclusion Criteria:\n\nGeneral inclusion criteria:\n\n* Males or females \\>= 18 and \\<= 85 years of age at randomization. Female subjects must be either:\n\n  * Surgically sterile;\n  * Postmenopausal for at least 1 year; or\n  * Non-pregnant, confirmed by a serum pregnancy test, and using a method of birth control that is acceptable to the investigator.\n* Neurological examination demonstrating localizing cortical signs\n* Receipt of study drug less than 6 hours (50% of subjects) or between 6 and 9 hours, inclusive, (50% of subjects) after the onset of symptoms (for un-witnessed stroke, last time seen in normal state or at bedtime for un-witnessed stroke during sleep)\n* Signed informed consent from subject or legally acceptable representative\n* NIHSS score of 6 - 22, inclusive, or at least 2 on the aphasia item of the NIHSS with a location of MRI findings consistent with aphasia\n\nMRI-determined inclusion criteria:\n\n* Acute ischemic stroke with substantial cortical involvement in the middle cerebral artery (MCA) distribution, as verified by the Screening DWI abnormality and/or Screening PWI abnormality. (Note: white matter involvement, in addition to cortex, is not an exclusion.)\n\nExclusion Criteria:\n\nGeneral exclusion criteria:\n\n* Two or more of the following:\n\n  * Reduced level of consciousness (score \\>= 2 on NIHSS Q1a)\n  * Forced eye deviation or total gaze paresis (score of 2 on NIHSS Q2)\n  * Dense hemiplegia (no movement) of upper and lower extremities (score of 4 on NIHSS Q5 regarding motor arm and a score of 4 on NIHSS Q6 regarding motor leg)\n* Pre-stroke modified Rankin score \\>= 2 at Screening\n* Rapid neurological improvement from Screening up to the start of drug infusion\n* Persistent systolic blood pressure (SBP) \\> 220 mmHg and/or diastolic blood pressure (DBP) \\> 120 mmHg (confirmed by at least three readings taken at least 3 minutes apart) prior to randomization. If subsequent readings are consistently below these levels, either spontaneously or following mild antihypertensive therapy, subject may be enrolled.\n\nMRI-determined exclusion criteria:\n\n* Intracranial hemorrhage as verified by Screening MRI. (Note: intracranial hemorrhage on pre-screen computerized tomography \\[CT\\] scan also excludes subject.)","healthyVolunteers":false,"sex":"ALL","minimumAge":"18 Years","maximumAge":"85 Years","stdAges":["ADULT","OLDER_ADULT"]},"contactsLocationsModule":{"locations":[{"facility":"UCLA Stroke Network","city":"Los Angeles","state":"California","zip":"90024","country":"United States","geoPoint":{"lat":34.05223,"lon":-118.24368}},{"facility":"San Francisco Clinical Research Center","city":"San Francisco","state":"California","zip":"94109","country":"United States","geoPoint":{"lat":37.77493,"lon":-122.41942}},{"facility":"The Stroke Center at Hartford Hospital","city":"Hartford","state":"Connecticut","zip":"06102","country":"United States","geoPoint":{"lat":41.76371,"lon":-72.68509}},{"facility":"Lakeland Regional Medical Center","city":"Lakeland","state":"Florida","zip":"33805","country":"United States","geoPoint":{"lat":28.03947,"lon":-81.9498}},{"facility":"OCALA Neurodiagnostic Center","city":"Ocala","state":"Florida","zip":"34471","country":"United States","geoPoint":{"lat":29.1872,"lon":-82.14009}},{"facility":"Southern Illinois University School of Medicine","city":"Springfield","state":"Illinois","zip":"62702","country":"United States","geoPoint":{"lat":39.80172,"lon":-89.64371}},{"facility":"Ruan Neurology Clinic and Clinical Research Center","city":"Des Moines","state":"Iowa","zip":"50314","country":"United States","geoPoint":{"lat":41.60054,"lon":-93.60911}},{"facility":"Via Christi Regional Medical Center","city":"Wichita","state":"Kansas","zip":"67214","country":"United States","geoPoint":{"lat":37.69224,"lon":-97.33754}},{"facility":"University of Kentucky, Sanders Brown Center on Aging/Stroke Program","city":"Lexington","state":"Kentucky","zip":"40536","country":"United States","geoPoint":{"lat":37.98869,"lon":-84.47772}},{"facility":"University of Massachusetts, Memorial Health Center, Department of Neurology","city":"Worcester","state":"Massachusetts","zip":"01655","country":"United States","geoPoint":{"lat":42.26259,"lon":-71.80229}},{"facility":"Wayne State University","city":"Detroit","state":"Michigan","zip":"48201","country":"United States","geoPoint":{"lat":42.33143,"lon":-83.04575}},{"facility":"Michigan State University, Sparrow Health System","city":"East Lansing","state":"Michigan","zip":"48824","country":"United States","geoPoint":{"lat":42.73698,"lon":-84.48387}},{"facility":"St. Luke's Hospital","city":"Kansas City","state":"Missouri","zip":"64111","country":"United States","geoPoint":{"lat":39.09973,"lon":-94.57857}},{"facility":"Advance Neurology Specialists","city":"Great Falls","state":"Montana","zip":"59405","country":"United States","geoPoint":{"lat":47.50024,"lon":-111.30081}},{"facility":"St. Francis Medical Center","city":"Trenton","state":"New Jersey","zip":"08629","country":"United States","geoPoint":{"lat":40.21705,"lon":-74.74294}},{"facility":"SUNY at Stony Brook, University Hospital at Stony Brook","city":"Stony Brook","state":"New York","zip":"11794","country":"United States","geoPoint":{"lat":40.92565,"lon":-73.14094}},{"facility":"Moses Cone Hospital","city":"Greensboro","state":"North Carolina","zip":"27401","country":"United States","geoPoint":{"lat":36.07264,"lon":-79.79198}},{"facility":"Clinical Research Center of Winston-Salem","city":"Winston-Salem","state":"North Carolina","zip":"27103","country":"United States","geoPoint":{"lat":36.09986,"lon":-80.24422}},{"facility":"Summa Health System Neurology and Neuroscience Associates","city":"Akron","state":"Ohio","zip":"44309","country":"United States","geoPoint":{"lat":41.08144,"lon":-81.51901}},{"facility":"Chattanooga Neurology Associates","city":"Chattanooga","state":"Tennessee","zip":"37404","country":"United States","geoPoint":{"lat":35.04563,"lon":-85.30968}},{"facility":"Methodist University Hospital","city":"Memphis","state":"Tennessee","zip":"38104","country":"United States","geoPoint":{"lat":35.14953,"lon":-90.04898}},{"facility":"The Methodist Hospital Neurological Institute","city":"Houston","state":"Texas","zip":"77030","country":"United States","geoPoint":{"lat":29.76328,"lon":-95.36327}},{"facility":"INOVA Research Center","city":"Falls Church","state":"Virginia","zip":"22042","country":"United States","geoPoint":{"lat":38.88233,"lon":-77.17109}},{"facility":"Charleston Area Medical Center Health Education and Research Institute","city":"Charleston","state":"West Virginia","zip":"25304","country":"United States","geoPoint":{"lat":38.34982,"lon":-81.63262}},{"facility":"Medical College of Wisconsin","city":"Milwaukee","state":"Wisconsin","zip":"53226","country":"United States","geoPoint":{"lat":43.0389,"lon":-87.90647}},{"facility":"General Hospital Middelheim, Dept. of Neurology","city":"Antwerp","zip":"2020","country":"Belgium","geoPoint":{"lat":51.21989,"lon":4.40346}},{"facility":"Hopital Erasme - Dept. of Neurology, Universite Libre de Bruxelles","city":"Brussels","zip":"B-1070","country":"Belgium","geoPoint":{"lat":50.85045,"lon":4.34878}},{"facility":"Uz Gasthuisberg, Neurology","city":"Leuven","zip":"3000","country":"Belgium","geoPoint":{"lat":50.87959,"lon":4.70093}},{"facility":"Universitatsklinikum Essen, Department of Neurology","city":"Essen","zip":"D-45147","country":"Germany","geoPoint":{"lat":51.45657,"lon":7.01228}},{"facility":"Neurologische Universitatsklinik und Poliklinik - Neurzentrum","city":"Freiburg","zip":"79106","country":"Germany","geoPoint":{"lat":47.9959,"lon":7.85222}},{"facility":"Universitatsklinikum Leipzig Aor, Klinik And Poliklinok Fur Neurologie","city":"Leipzig","zip":"04103","country":"Germany","geoPoint":{"lat":51.33962,"lon":12.37129}},{"facility":"Neurologische Klinik, Klinikum Rechts Der Isar Der Tu Munchen","city":"Munchen","zip":"81675","country":"Germany","geoPoint":{"lat":48.13743,"lon":11.57549}},{"facility":"Soroka University Medical Center","city":"Beer-Sheva","zip":"84101","country":"Israel","geoPoint":{"lat":31.25181,"lon":34.7913}},{"facility":"Rambam Medical Center","city":"Haifa","zip":"31096","country":"Israel","geoPoint":{"lat":32.81841,"lon":34.9885}},{"facility":"Hadassah University Hospital","city":"Jerusalem","zip":"91120","country":"Israel","geoPoint":{"lat":31.76904,"lon":35.21633}},{"facility":"Chaim Sheba Medical Center","city":"Tel Hashomer","zip":"52621","country":"Israel","geoPoint":{"lat":32.04195,"lon":34.85623}},{"facility":"Tel-Aviv Sourasky Medical Center","city":"Tel-Aviv","zip":"64239","country":"Israel","geoPoint":{"lat":32.08088,"lon":34.78057}},{"facility":"Assaf Harofeh Medical Center","city":"Zrifin","zip":"70300","country":"Israel","geoPoint":{"lat":31.95857,"lon":4.83723}},{"facility":"Centralny Szpital Kliniczny","city":"Katowice","zip":"40-752","country":"Poland","geoPoint":{"lat":50.25841,"lon":19.02754}},{"facility":"Collegium Medicum Jegiellonian University","city":"Krakow","zip":"31-503","country":"Poland","geoPoint":{"lat":50.06143,"lon":19.93658}},{"facility":"Military Institute of Medicine","city":"Warsaw","zip":"00-909","country":"Poland","geoPoint":{"lat":52.22977,"lon":21.01178}},{"facility":"St Augustines Hospital","city":"Durban","zip":"4001","country":"South Africa","geoPoint":{"lat":-29.8579,"lon":31.0292}},{"facility":"Vergelegen Medi-Clinic","city":"Somerset West","zip":"7130","country":"South Africa","geoPoint":{"lat":-34.08401,"lon":18.82113}},{"facility":"Sunninghill Hospital Cnr.","city":"Sunninghill","zip":"2157","country":"South Africa","geoPoint":{"lat":-26.0355,"lon":28.06552}},{"facility":"Hospital Universitari Germans Trias i Pujol","city":"Barcelona","zip":"08916","country":"Spain","geoPoint":{"lat":41.38879,"lon":2.15899}},{"facility":"University Hospital of Girona Dr. Josep Trueta, Neurology Department","city":"Girona","zip":"17007","country":"Spain","geoPoint":{"lat":41.98311,"lon":2.82493}},{"facility":"Hospitales Universitarios Virgen Del Rocio","city":"Sevilla","zip":"41013","country":"Spain","geoPoint":{"lat":37.38283,"lon":-5.97317}}]}},"derivedSection":{"miscInfoModule":{"versionHolder":"2024-02-14"},"conditionBrowseModule":{"meshes":[{"id":"D000020521","term":"Stroke"},{"id":"D000083242","term":"Ischemic Stroke"}],"ancestors":[{"id":"D000002561","term":"Cerebrovascular Disorders"},{"id":"D000001927","term":"Brain Diseases"},{"id":"D000002493","term":"Central Nervous System Diseases"},{"id":"D000009422","term":"Nervous System Diseases"},{"id":"D000014652","term":"Vascular Diseases"},{"id":"D000002318","term":"Cardiovascular Diseases"}],"browseLeaves":[{"id":"M21996","name":"Stroke","asFound":"Stroke","relevance":"HIGH"},{"id":"M10233","name":"Ischemia","relevance":"LOW"},{"id":"M2401","name":"Ischemic Stroke","asFound":"Ischemic Stroke","relevance":"HIGH"},{"id":"M5500","name":"Cerebrovascular Disorders","relevance":"LOW"},{"id":"M4894","name":"Brain Diseases","relevance":"LOW"},{"id":"M5432","name":"Central Nervous System Diseases","relevance":"LOW"},{"id":"M17090","name":"Vascular Diseases","relevance":"LOW"},{"id":"T170","name":"Acute Graft Versus Host Disease","relevance":"LOW"}],"browseBranches":[{"abbrev":"BC10","name":"Nervous System Diseases"},{"abbrev":"BC14","name":"Heart and Blood Diseases"},{"abbrev":"All","name":"All Conditions"},{"abbrev":"BC23","name":"Symptoms and General Pathology"},{"abbrev":"Rare","name":"Rare Diseases"}]},"interventionBrowseModule":{"meshes":[{"id":"C000510463","term":"Piclozotan"}],"ancestors":[{"id":"D000058825","term":"Serotonin 5-HT1 Receptor Agonists"},{"id":"D000017366","term":"Serotonin Receptor Agonists"},{"id":"D000018490","term":"Serotonin Agents"},{"id":"D000018377","term":"Neurotransmitter Agents"},{"id":"D000045504","term":"Molecular Mechanisms of Pharmacological Action"},{"id":"D000045505","term":"Physiological Effects of Drugs"}],"browseLeaves":[{"id":"M15202","name":"Serotonin","relevance":"LOW"},{"id":"M19338","name":"Serotonin Receptor Agonists","relevance":"LOW"},{"id":"M228588","name":"Piclozotan","asFound":"Nitrofurantoin 100mg","relevance":"HIGH"},{"id":"M28930","name":"Serotonin 5-HT1 Receptor Agonists","relevance":"LOW"},{"id":"M20194","name":"Neurotransmitter Agents","relevance":"LOW"}],"browseBranches":[{"abbrev":"All","name":"All Drugs and Chemicals"}]}},"hasResults":false}