{"protocolSection":{"identificationModule":{"nctId":"NCT00061022","orgStudyIdInfo":{"id":"SA-NXY-0007"},"secondaryIdInfos":[{"id":"007"},{"id":"SAINT 2"}],"organization":{"fullName":"AstraZeneca","class":"INDUSTRY"},"briefTitle":"Safety and Effectiveness of NXY-059 for the Treatment of Patients Who Have Suffered From a Stroke","officialTitle":"SAINT (Stroke - Acute Ischemic - NXY Treatment) A Double Blind, Randomized, Placebo Controlled, Parallel Group, Multicenter, Phase IIb/III Study to Assess the Efficacy and Safety of Intravenous NXY-059 in Acute Ischemic Stroke"},"statusModule":{"statusVerifiedDate":"2010-11","overallStatus":"COMPLETED","startDateStruct":{"date":"2003-05"},"primaryCompletionDateStruct":{"date":"2006-09","type":"ACTUAL"},"completionDateStruct":{"date":"2006-09","type":"ACTUAL"},"studyFirstSubmitDate":"2003-05-20","studyFirstSubmitQcDate":"2003-05-20","studyFirstPostDateStruct":{"date":"2003-05-21","type":"ESTIMATED"},"lastUpdateSubmitDate":"2010-11-10","lastUpdatePostDateStruct":{"date":"2010-11-15","type":"ESTIMATED"}},"sponsorCollaboratorsModule":{"leadSponsor":{"name":"AstraZeneca","class":"INDUSTRY"}},"descriptionModule":{"briefSummary":"This study will determine if NXY-059 will improve recovery from an acute stroke. The study is designed to look at both overall recovery and recovery of motor function, for example muscle strengthen and coordination."},"conditionsModule":{"conditions":["Cerebral Stroke","Stroke, Acute","Cerebrovascular Stroke","Ischemic Attack, Transient"],"keywords":["Stroke","cerebral vascular accident","CVA","Ischemia","Hemorrhage","TIA","Transient Ischemic Attack","Brain Attack","Cataplexy"]},"designModule":{"studyType":"INTERVENTIONAL","phases":["PHASE3"],"designInfo":{"allocation":"RANDOMIZED","interventionModel":"FACTORIAL","primaryPurpose":"TREATMENT","maskingInfo":{"masking":"DOUBLE"}},"enrollmentInfo":{"count":3200}},"armsInterventionsModule":{"interventions":[{"type":"DRUG","name":"NXY-059"}]},"outcomesModule":{"primaryOutcomes":[{"measure":"Global disability on modified Rankin scale at 90 days."}],"secondaryOutcomes":[{"measure":"NIH stroke scale"},{"measure":"Barthel Index"},{"measure":"Stroke Impact Scale"},{"measure":"EQ-5D all at 90 days"},{"measure":"Safety outcomes"}]},"eligibilityModule":{"eligibilityCriteria":"Inclusion Criteria:\n\n* Males and females\n* Acute ischemic stroke with limb weakness\n* Onset of symptoms within 6 hours\n* Full functional independence prior to the present stroke\n\nExclusion Criteria:\n\n* Unconsciousness\n* Subjects who are unlikely to complete the infusion of investigational product and/or are unlikely to undergo active medical management during that period due to a severe clinical condition.\n* Severe illness with life expectancy less than 6 months.\n* Known severe kidney disorder.\n* Current known alcohol or illicit drug abuse or dependence.\n* Pregnant or breast-feeding.\n* Treatment with acetazolamide and methotrexate is not permitted during the infusion\n* Participation in a previous clinical study within 30 days.\n* Meets all other exclusion criteria.","healthyVolunteers":false,"sex":"ALL","minimumAge":"18 Years","stdAges":["ADULT","OLDER_ADULT"]},"contactsLocationsModule":{"overallOfficials":[{"name":"AstraZeneca NXY-059 Medical Science Director, MD","affiliation":"AstraZeneca","role":"STUDY_DIRECTOR"}],"locations":[{"facility":"Research Site","city":"Birmingham","state":"Alabama","country":"United States","geoPoint":{"lat":33.52066,"lon":-86.80249}},{"facility":"Research Site","city":"Phoenix","state":"Arizona","country":"United States","geoPoint":{"lat":33.44838,"lon":-112.07404}},{"facility":"Research Site","city":"Fort Smith","state":"Arkansas","country":"United States","geoPoint":{"lat":35.38592,"lon":-94.39855}},{"facility":"Research Site","city":"Arcadia","state":"California","country":"United States","geoPoint":{"lat":34.13973,"lon":-118.03534}},{"facility":"Research Site","city":"Concord","state":"California","country":"United States","geoPoint":{"lat":37.97798,"lon":-122.03107}},{"facility":"Research Site","city":"Englewood","state":"California","country":"United States","geoPoint":{"lat":40.39653,"lon":-123.93893}},{"facility":"Research Site","city":"La Mesa","state":"California","country":"United States","geoPoint":{"lat":32.76783,"lon":-117.02308}},{"facility":"Research Site","city":"LaJolla","state":"California","country":"United States","geoPoint":{"lat":33.85752,"lon":-117.87645}},{"facility":"Research Site","city":"Los Angeles","state":"California","country":"United States","geoPoint":{"lat":34.05223,"lon":-118.24368}},{"facility":"Research Site","city":"Oceanside","state":"California","country":"United States","geoPoint":{"lat":33.19587,"lon":-117.37948}},{"facility":"Research Site","city":"Palo Alto","state":"California","country":"United States","geoPoint":{"lat":37.44188,"lon":-122.14302}},{"facility":"Research Site","city":"Poway","state":"California","country":"United States","geoPoint":{"lat":32.96282,"lon":-117.03586}},{"facility":"Research Site","city":"Sacramento","state":"California","country":"United States","geoPoint":{"lat":38.58157,"lon":-121.4944}},{"facility":"Research Site","city":"San Diego","state":"California","country":"United States","geoPoint":{"lat":32.71533,"lon":-117.15726}},{"facility":"Research Site","city":"San Jose","state":"California","country":"United States","geoPoint":{"lat":37.33939,"lon":-121.89496}},{"facility":"Research Site","city":"Englewood","state":"Colorado","country":"United States","geoPoint":{"lat":39.64777,"lon":-104.98776}},{"facility":"Research Site","city":"Danbury","state":"Connecticut","country":"United States","geoPoint":{"lat":41.39482,"lon":-73.45401}},{"facility":"Research Site","city":"Fairfield","state":"Connecticut","country":"United States","geoPoint":{"lat":41.14121,"lon":-73.26373}},{"facility":"Research Site","city":"Delray Beach","state":"Florida","country":"United States","geoPoint":{"lat":26.46146,"lon":-80.07282}},{"facility":"Research Site","city":"Fort Lauderdale","state":"Florida","country":"United States","geoPoint":{"lat":26.12231,"lon":-80.14338}},{"facility":"Research Site","city":"Lakeland","state":"Florida","country":"United States","geoPoint":{"lat":28.03947,"lon":-81.9498}},{"facility":"Research Site","city":"Lane Panama City","state":"Florida","country":"United States"},{"facility":"Research Site","city":"Melbourne","state":"Florida","country":"United States","geoPoint":{"lat":28.08363,"lon":-80.60811}},{"facility":"Research Site","city":"Naples","state":"Florida","country":"United States","geoPoint":{"lat":26.14234,"lon":-81.79596}},{"facility":"Research Site","city":"Ocala","state":"Florida","country":"United States","geoPoint":{"lat":29.1872,"lon":-82.14009}},{"facility":"Research Site","city":"Orlando","state":"Florida","country":"United States","geoPoint":{"lat":28.53834,"lon":-81.37924}},{"facility":"Research Site","city":"Port Charlotte","state":"Florida","country":"United States","geoPoint":{"lat":26.97617,"lon":-82.09064}},{"facility":"Research Site","city":"Sarasota","state":"Florida","country":"United States","geoPoint":{"lat":27.33643,"lon":-82.53065}},{"facility":"Research Site","city":"Tampa","state":"Florida","country":"United States","geoPoint":{"lat":27.94752,"lon":-82.45843}},{"facility":"Research Site","city":"Weston","state":"Florida","country":"United States","geoPoint":{"lat":26.10037,"lon":-80.39977}},{"facility":"Research Site","city":"Decatur","state":"Georgia","country":"United States","geoPoint":{"lat":33.77483,"lon":-84.29631}},{"facility":"Research Site","city":"Lithonia","state":"Georgia","country":"United States","geoPoint":{"lat":33.71233,"lon":-84.10519}},{"facility":"Research Site","city":"Chicago","state":"Illinois","country":"United States","geoPoint":{"lat":41.85003,"lon":-87.65005}},{"facility":"Research Site","city":"Des Plaines","state":"Illinois","country":"United States","geoPoint":{"lat":42.03336,"lon":-87.8834}},{"facility":"Research Site","city":"Elk Grove Village","state":"Illinois","country":"United States","geoPoint":{"lat":42.00392,"lon":-87.97035}},{"facility":"Research Site","city":"Maywood","state":"Illinois","country":"United States","geoPoint":{"lat":41.8792,"lon":-87.84312}},{"facility":"Research Site","city":"Oak Park","state":"Illinois","country":"United States","geoPoint":{"lat":41.88503,"lon":-87.7845}},{"facility":"Research Site","city":"Fort Wayne","state":"Indiana","country":"United States","geoPoint":{"lat":41.1306,"lon":-85.12886}},{"facility":"Research Site","city":"Cedar Rapids","state":"Iowa","country":"United States","geoPoint":{"lat":42.00833,"lon":-91.64407}},{"facility":"Research Site","city":"Des Moines","state":"Iowa","country":"United States","geoPoint":{"lat":41.60054,"lon":-93.60911}},{"facility":"Research Site","city":"Louisville","state":"Kentucky","country":"United States","geoPoint":{"lat":38.25424,"lon":-85.75941}},{"facility":"Research Site","city":"Marrero","state":"Louisiana","country":"United States","geoPoint":{"lat":29.89937,"lon":-90.10035}},{"facility":"Research Site","city":"South Weymouth","state":"Massachusetts","country":"United States","geoPoint":{"lat":42.1751,"lon":-70.94949}},{"facility":"Research Site","city":"Worcester","state":"Massachusetts","country":"United States","geoPoint":{"lat":42.26259,"lon":-71.80229}},{"facility":"Research Site","city":"Ann Arbor","state":"Michigan","country":"United States","geoPoint":{"lat":42.27756,"lon":-83.74088}},{"facility":"Research Site","city":"East Lansing","state":"Michigan","country":"United States","geoPoint":{"lat":42.73698,"lon":-84.48387}},{"facility":"Research Site","city":"Pontiac","state":"Michigan","country":"United States","geoPoint":{"lat":42.63892,"lon":-83.29105}},{"facility":"Research Site","city":"Golden Valley","state":"Minnesota","country":"United States","geoPoint":{"lat":45.00969,"lon":-93.34912}},{"facility":"Research Site","city":"Kansas City","state":"Missouri","country":"United States","geoPoint":{"lat":39.09973,"lon":-94.57857}},{"facility":"Research Site","city":"Springfield","state":"Missouri","country":"United States","geoPoint":{"lat":37.21533,"lon":-93.29824}},{"facility":"Research Site","city":"Great Falls","state":"Montana","country":"United States","geoPoint":{"lat":47.50024,"lon":-111.30081}},{"facility":"Research Site","city":"Lincoln","state":"Nebraska","country":"United States","geoPoint":{"lat":40.8,"lon":-96.66696}},{"facility":"Research Site","city":"Reno","state":"Nevada","country":"United States","geoPoint":{"lat":39.52963,"lon":-119.8138}},{"facility":"Research Site","city":"Edison","state":"New Jersey","country":"United States","geoPoint":{"lat":40.51872,"lon":-74.4121}},{"facility":"Research Site","city":"Long Branch","state":"New Jersey","country":"United States","geoPoint":{"lat":40.30428,"lon":-73.99236}},{"facility":"Research Site","city":"Lumberton","state":"New Jersey","country":"United States","geoPoint":{"lat":39.96595,"lon":-74.80516}},{"facility":"Research Site","city":"Morristown","state":"New Jersey","country":"United States","geoPoint":{"lat":40.79677,"lon":-74.48154}},{"facility":"Research Site","city":"Neptune","state":"New Jersey","country":"United States","geoPoint":{"lat":40.20011,"lon":-74.02792}},{"facility":"Research Site","city":"Red Bank","state":"New Jersey","country":"United States","geoPoint":{"lat":40.34705,"lon":-74.06431}},{"facility":"Research Site","city":"Ridgewood","state":"New Jersey","country":"United States","geoPoint":{"lat":40.97926,"lon":-74.11653}},{"facility":"Research Site","city":"Summit","state":"New Jersey","country":"United States","geoPoint":{"lat":40.71562,"lon":-74.36468}},{"facility":"Research Site","city":"Toms River","state":"New Jersey","country":"United States","geoPoint":{"lat":39.95373,"lon":-74.19792}},{"facility":"Research Site","city":"Trenton","state":"New Jersey","country":"United States","geoPoint":{"lat":40.21705,"lon":-74.74294}},{"facility":"Research Site","city":"Buffalo","state":"New York","country":"United States","geoPoint":{"lat":42.88645,"lon":-78.87837}},{"facility":"Research Site","city":"Flushing","state":"New York","country":"United States","geoPoint":{"lat":40.76538,"lon":-73.81736}},{"facility":"Research Site","city":"New Hyde","state":"New York","country":"United States","geoPoint":{"lat":40.7351,"lon":-73.68791}},{"facility":"Research Site","city":"Rochester","state":"New York","country":"United States","geoPoint":{"lat":43.15478,"lon":-77.61556}},{"facility":"Research Site","city":"Schenectady","state":"New York","country":"United States","geoPoint":{"lat":42.81424,"lon":-73.93957}},{"facility":"Research Site","city":"Asheville","state":"North Carolina","country":"United States","geoPoint":{"lat":35.60095,"lon":-82.55402}},{"facility":"Research Site","city":"Chapel Hill","state":"North Carolina","country":"United States","geoPoint":{"lat":35.9132,"lon":-79.05584}},{"facility":"Research Site","city":"Charlotte","state":"North Carolina","country":"United States","geoPoint":{"lat":35.22709,"lon":-80.84313}},{"facility":"Research Site","city":"Durham","state":"North Carolina","country":"United States","geoPoint":{"lat":35.99403,"lon":-78.89862}},{"facility":"Research Site","city":"Greensboro","state":"North Carolina","country":"United States","geoPoint":{"lat":36.07264,"lon":-79.79198}},{"facility":"Research Site","city":"Salisbury","state":"North Carolina","country":"United States","geoPoint":{"lat":35.67097,"lon":-80.47423}},{"facility":"Research Site","city":"Winston-Salem","state":"North Carolina","country":"United States","geoPoint":{"lat":36.09986,"lon":-80.24422}},{"facility":"Research Site","city":"Cleveland","state":"Ohio","country":"United States","geoPoint":{"lat":41.4995,"lon":-81.69541}},{"facility":"Research Site","city":"Toledo","state":"Ohio","country":"United States","geoPoint":{"lat":41.66394,"lon":-83.55521}},{"facility":"Research Site","city":"Youngstown","state":"Ohio","country":"United States","geoPoint":{"lat":41.09978,"lon":-80.64952}},{"facility":"Research Site","city":"Portland","state":"Oregon","country":"United States","geoPoint":{"lat":45.52345,"lon":-122.67621}},{"facility":"Research Site","city":"Tualatin","state":"Oregon","country":"United States","geoPoint":{"lat":45.38401,"lon":-122.76399}},{"facility":"Research Site","city":"Abington","state":"Pennsylvania","country":"United States","geoPoint":{"lat":40.12067,"lon":-75.11795}},{"facility":"Research Site","city":"Doylestown","state":"Pennsylvania","country":"United States","geoPoint":{"lat":40.31011,"lon":-75.12989}},{"facility":"Research Site","city":"Lancaster","state":"Pennsylvania","country":"United States","geoPoint":{"lat":40.03788,"lon":-76.30551}},{"facility":"Research Site","city":"Philadelphia","state":"Pennsylvania","country":"United States","geoPoint":{"lat":39.95233,"lon":-75.16379}},{"facility":"Research Site","city":"Pittsburgh","state":"Pennsylvania","country":"United States","geoPoint":{"lat":40.44062,"lon":-79.99589}},{"facility":"Research Site","city":"Beaufort","state":"South Carolina","country":"United States","geoPoint":{"lat":32.43158,"lon":-80.66983}},{"facility":"Research Site","city":"Bristol","state":"Tennessee","country":"United States","geoPoint":{"lat":36.59511,"lon":-82.18874}},{"facility":"Research Site","city":"Memphis","state":"Tennessee","country":"United States","geoPoint":{"lat":35.14953,"lon":-90.04898}},{"facility":"Research Site","city":"Houston","state":"Texas","country":"United States","geoPoint":{"lat":29.76328,"lon":-95.36327}},{"facility":"Research Site","city":"Lubbock","state":"Texas","country":"United States","geoPoint":{"lat":33.57786,"lon":-101.85517}},{"facility":"Research Site","city":"Virginia Beach","state":"Virginia","country":"United States","geoPoint":{"lat":36.85293,"lon":-75.97799}},{"facility":"Research Site","city":"Olympia","state":"Washington","country":"United States","geoPoint":{"lat":47.03787,"lon":-122.9007}},{"facility":"Research Site","city":"Seattle","state":"Washington","country":"United States","geoPoint":{"lat":47.60621,"lon":-122.33207}},{"facility":"Research Site","city":"Tacoma","state":"Washington","country":"United States","geoPoint":{"lat":47.25288,"lon":-122.44429}},{"facility":"Research Site","city":"Charleston","state":"West Virginia","country":"United States","geoPoint":{"lat":38.34982,"lon":-81.63262}},{"facility":"Research Site","city":"Madison","state":"Wisconsin","country":"United States","geoPoint":{"lat":43.07305,"lon":-89.40123}},{"facility":"Research Site","city":"Marshfield","state":"Wisconsin","country":"United States","geoPoint":{"lat":44.66885,"lon":-90.1718}},{"facility":"Research Site","city":"Milwaukee","state":"Wisconsin","country":"United States","geoPoint":{"lat":43.0389,"lon":-87.90647}},{"facility":"Research Site","city":"Boulogne","country":"Argentina","geoPoint":{"lat":-34.50856,"lon":-58.56071}},{"facility":"Research Site","city":"Buenos Aires","country":"Argentina","geoPoint":{"lat":-34.61315,"lon":-58.37723}},{"facility":"Research Site","city":"Capital Federal","country":"Argentina","geoPoint":{"lat":-34.61315,"lon":-58.37723}},{"facility":"Research Site","city":"Ciudad de Buenos Aires","country":"Argentina","geoPoint":{"lat":-34.61315,"lon":-58.37723}},{"facility":"Research Site","city":"Cordoba","country":"Argentina","geoPoint":{"lat":-31.4135,"lon":-64.18105}},{"facility":"Research Site","city":"Mar del Plata","country":"Argentina","geoPoint":{"lat":-38.00228,"lon":-57.55754}},{"facility":"Research Site","city":"Bedford Park","country":"Australia","geoPoint":{"lat":-35.03333,"lon":138.56667}},{"facility":"Research Site","city":"Box Hill","country":"Australia","geoPoint":{"lat":-37.81887,"lon":145.12545}},{"facility":"Research Site","city":"Camperdown","country":"Australia","geoPoint":{"lat":-33.88965,"lon":151.17642}},{"facility":"Research Site","city":"Gosford","country":"Australia","geoPoint":{"lat":-33.4244,"lon":151.34399}},{"facility":"Research Site","city":"Heidelberg","country":"Australia","geoPoint":{"lat":-37.75,"lon":145.06667}},{"facility":"Research Site","city":"New Lambton","country":"Australia","geoPoint":{"lat":-32.95,"lon":151.68333}},{"facility":"Research Site","city":"Parkville","country":"Australia","geoPoint":{"lat":-37.78333,"lon":144.95}},{"facility":"Research Site","city":"Klosterneuburg","country":"Austria","geoPoint":{"lat":48.30521,"lon":16.32522}},{"facility":"Research Site","city":"Linz","country":"Austria","geoPoint":{"lat":48.30639,"lon":14.28611}},{"facility":"Research Site","city":"Salzburg","country":"Austria","geoPoint":{"lat":47.79941,"lon":13.04399}},{"facility":"Research Site","city":"Sankt Pölten","country":"Austria","geoPoint":{"lat":48.2,"lon":15.63333}},{"facility":"Research Site","city":"Wien","country":"Austria","geoPoint":{"lat":48.20849,"lon":16.37208}},{"facility":"Research Site","city":"Antwerpen","country":"Belgium","geoPoint":{"lat":51.21989,"lon":4.40346}},{"facility":"Research Site","city":"Brugge","country":"Belgium","geoPoint":{"lat":51.20892,"lon":3.22424}},{"facility":"Research Site","city":"Leuven","country":"Belgium","geoPoint":{"lat":50.87959,"lon":4.70093}},{"facility":"Research Site","city":"Belo Horizonte","country":"Brazil","geoPoint":{"lat":-19.92083,"lon":-43.93778}},{"facility":"Research Site","city":"Curitiba","country":"Brazil","geoPoint":{"lat":-25.42778,"lon":-49.27306}},{"facility":"Research Site","city":"Goiânia","country":"Brazil","geoPoint":{"lat":-16.67861,"lon":-49.25389}},{"facility":"Research Site","city":"Porto Alegre","country":"Brazil","geoPoint":{"lat":-30.03306,"lon":-51.23}},{"facility":"Research Site","city":"Rio de Janeiro","country":"Brazil","geoPoint":{"lat":-22.90278,"lon":-43.2075}},{"facility":"Research Site","city":"Sao Paulo","country":"Brazil","geoPoint":{"lat":-23.5475,"lon":-46.63611}},{"facility":"Research Site","city":"Pleven","country":"Bulgaria","geoPoint":{"lat":43.41667,"lon":24.61667}},{"facility":"Research Site","city":"Plovdiv","country":"Bulgaria","geoPoint":{"lat":42.15,"lon":24.75}},{"facility":"Research Site","city":"Russe","country":"Bulgaria","geoPoint":{"lat":43.85639,"lon":25.97083}},{"facility":"Research Site","city":"Sofia","country":"Bulgaria","geoPoint":{"lat":42.69751,"lon":23.32415}},{"facility":"Research Site","city":"Varna","country":"Bulgaria","geoPoint":{"lat":43.21667,"lon":27.91667}},{"facility":"Research Site","city":"Barrie","country":"Canada","geoPoint":{"lat":44.40011,"lon":-79.66634}},{"facility":"Research Site","city":"Calgary","country":"Canada","geoPoint":{"lat":51.05011,"lon":-114.08529}},{"facility":"Research Site","city":"Edmonton","country":"Canada","geoPoint":{"lat":53.55014,"lon":-113.46871}},{"facility":"Research Site","city":"Greenfield Park","country":"Canada","geoPoint":{"lat":45.48649,"lon":-73.46223}},{"facility":"Research Site","city":"Halifax","country":"Canada","geoPoint":{"lat":44.64533,"lon":-63.57239}},{"facility":"Research Site","city":"Kitchener","country":"Canada","geoPoint":{"lat":43.42537,"lon":-80.5112}},{"facility":"Research Site","city":"Lethbridge","country":"Canada","geoPoint":{"lat":49.69999,"lon":-112.81856}},{"facility":"Research Site","city":"Levis","country":"Canada","geoPoint":{"lat":46.80326,"lon":-71.17793}},{"facility":"Research Site","city":"Mississauga","country":"Canada","geoPoint":{"lat":43.5789,"lon":-79.6583}},{"facility":"Research Site","city":"Montreal","country":"Canada","geoPoint":{"lat":45.50884,"lon":-73.58781}},{"facility":"Research Site","city":"Ottawa","country":"Canada","geoPoint":{"lat":45.41117,"lon":-75.69812}},{"facility":"Research Site","city":"Penticton","country":"Canada","geoPoint":{"lat":49.48062,"lon":-119.58584}},{"facility":"Research Site","city":"Quebec","country":"Canada","geoPoint":{"lat":46.81228,"lon":-71.21454}},{"facility":"Research Site","city":"Saint John","country":"Canada","geoPoint":{"lat":45.2727,"lon":-66.06769}},{"facility":"Research Site","city":"Saskatoon","country":"Canada","geoPoint":{"lat":52.13238,"lon":-106.66892}},{"facility":"Research Site","city":"Thunder Bay","country":"Canada","geoPoint":{"lat":48.38202,"lon":-89.25018}},{"facility":"Research Site","city":"Toronto","country":"Canada","geoPoint":{"lat":43.70011,"lon":-79.4163}},{"facility":"Research Site","city":"Trois-Rivieres","country":"Canada","geoPoint":{"lat":46.34515,"lon":-72.5477}},{"facility":"Research Site","city":"Vancouver","country":"Canada","geoPoint":{"lat":49.24966,"lon":-123.11934}},{"facility":"Research Site","city":"Victoriaville","country":"Canada","geoPoint":{"lat":46.05007,"lon":-71.96579}},{"facility":"Research Site","city":"Windsor","country":"Canada","geoPoint":{"lat":42.30008,"lon":-83.01654}},{"facility":"Research Site","city":"Santiago","country":"Chile","geoPoint":{"lat":-33.45694,"lon":-70.64827}},{"facility":"Research Site","city":"Beijing","country":"China","geoPoint":{"lat":39.9075,"lon":116.39723}},{"facility":"Research Site","city":"Guang Zhou","country":"China"},{"facility":"Research Site","city":"Shanghai","country":"China","geoPoint":{"lat":31.22222,"lon":121.45806}},{"facility":"Research Site","city":"Hradec Králové","country":"Czech Republic","geoPoint":{"lat":50.20923,"lon":15.83277}},{"facility":"Research Site","city":"Olomouc","country":"Czech Republic","geoPoint":{"lat":49.59552,"lon":17.25175}},{"facility":"Research Site","city":"Ostrava","country":"Czech Republic","geoPoint":{"lat":49.83465,"lon":18.28204}},{"facility":"Research Site","city":"Pardubice","country":"Czech Republic","geoPoint":{"lat":50.04075,"lon":15.77659}},{"facility":"Research Site","city":"Pelhrimov","country":"Czech Republic","geoPoint":{"lat":49.43134,"lon":15.22336}},{"facility":"Research Site","city":"Praha","country":"Czech Republic","geoPoint":{"lat":50.08804,"lon":14.42076}},{"facility":"Research Site","city":"Belfort Cedex","country":"France","geoPoint":{"lat":47.63333,"lon":6.86667}},{"facility":"Research Site","city":"Besancon Cedex","country":"France","geoPoint":{"lat":47.24878,"lon":6.01815}},{"facility":"Research Site","city":"Bordeaux Cedex","country":"France","geoPoint":{"lat":44.84044,"lon":-0.5805}},{"facility":"Research Site","city":"Bourg En Bresse","country":"France","geoPoint":{"lat":46.20574,"lon":5.2258}},{"facility":"Research Site","city":"Creteil","country":"France","geoPoint":{"lat":48.78333,"lon":2.46667}},{"facility":"Research Site","city":"Le Chesnay Cedex","country":"France","geoPoint":{"lat":48.8222,"lon":2.12213}},{"facility":"Research Site","city":"Lille","country":"France","geoPoint":{"lat":50.63297,"lon":3.05858}},{"facility":"Research Site","city":"MARSEILLE Cedex 5","country":"France","geoPoint":{"lat":43.29551,"lon":5.38958}},{"facility":"Research Site","city":"Montbeliard Cedex","country":"France","geoPoint":{"lat":47.51667,"lon":6.8}},{"facility":"Research Site","city":"Montpellier Cedex 5","country":"France","geoPoint":{"lat":43.61092,"lon":3.87723}},{"facility":"Research Site","city":"Paris Cedex 13","country":"France","geoPoint":{"lat":48.85341,"lon":2.3488}},{"facility":"Research Site","city":"Paris Cedex 18","country":"France","geoPoint":{"lat":48.85341,"lon":2.3488}},{"facility":"Research Site","city":"Paris","country":"France","geoPoint":{"lat":48.85341,"lon":2.3488}},{"facility":"Research Site","city":"Perpignan","country":"France","geoPoint":{"lat":42.69764,"lon":2.89541}},{"facility":"Research Site","city":"Toulouse","country":"France","geoPoint":{"lat":43.60426,"lon":1.44367}},{"facility":"Research Site","city":"Freiburg","country":"Germany","geoPoint":{"lat":47.9959,"lon":7.85222}},{"facility":"Research Site","city":"Hamburg","country":"Germany","geoPoint":{"lat":53.57532,"lon":10.01534}},{"facility":"Research Site","city":"Heidelberg","country":"Germany","geoPoint":{"lat":49.40768,"lon":8.69079}},{"facility":"Research Site","city":"Leipzig","country":"Germany","geoPoint":{"lat":51.33962,"lon":12.37129}},{"facility":"Research Site","city":"Minden","country":"Germany","geoPoint":{"lat":52.28953,"lon":8.91455}},{"facility":"Research Site","city":"Wiesbaden","country":"Germany","geoPoint":{"lat":50.08258,"lon":8.24932}},{"facility":"Research Site","city":"Athens","country":"Greece","geoPoint":{"lat":37.97945,"lon":23.71622}},{"facility":"Research Site","city":"Heraklion","country":"Greece","geoPoint":{"lat":35.32787,"lon":25.14341}},{"facility":"Research Site","city":"Ioannina","country":"Greece","geoPoint":{"lat":39.66486,"lon":20.85189}},{"facility":"Research Site","city":"Thessaloniki","country":"Greece","geoPoint":{"lat":40.64361,"lon":22.93086}},{"facility":"Research Site","city":"Chai Wan","country":"Hong Kong","geoPoint":{"lat":22.26718,"lon":114.24051}},{"facility":"Research Site","city":"Hong Kong","country":"Hong Kong","geoPoint":{"lat":22.27832,"lon":114.17469}},{"facility":"Research Site","city":"Budapest","country":"Hungary","geoPoint":{"lat":47.49801,"lon":19.03991}},{"facility":"Research Site","city":"Debrecen","country":"Hungary","geoPoint":{"lat":47.53333,"lon":21.63333}},{"facility":"Research Site","city":"Gyor","country":"Hungary","geoPoint":{"lat":47.68333,"lon":17.63512}},{"facility":"Research Site","city":"Kistarcsa","country":"Hungary","geoPoint":{"lat":47.54757,"lon":19.26247}},{"facility":"Research Site","city":"Ashkelon","country":"Israel","geoPoint":{"lat":31.66926,"lon":34.57149}},{"facility":"Research Site","city":"Beer-Sheva","country":"Israel","geoPoint":{"lat":31.25181,"lon":34.7913}},{"facility":"Research Site","city":"Hadera","country":"Israel","geoPoint":{"lat":32.44192,"lon":34.9039}},{"facility":"Research Site","city":"Haifa","country":"Israel","geoPoint":{"lat":32.81841,"lon":34.9885}},{"facility":"Research Site","city":"Holon","country":"Israel","geoPoint":{"lat":32.01034,"lon":34.77918}},{"facility":"Research Site","city":"Jerusalem","country":"Israel","geoPoint":{"lat":31.76904,"lon":35.21633}},{"facility":"Research Site","city":"Naharia","country":"Israel"},{"facility":"Research Site","city":"Petach-Tikva","country":"Israel","geoPoint":{"lat":32.08707,"lon":34.88747}},{"facility":"Research Site","city":"Tel-Aviv","country":"Israel","geoPoint":{"lat":32.08088,"lon":34.78057}},{"facility":"Research Site","city":"Tel-Hashomer","country":"Israel","geoPoint":{"lat":32.04195,"lon":34.85623}},{"facility":"Research Site","city":"Zrifin","country":"Israel","geoPoint":{"lat":31.95857,"lon":4.83723}},{"facility":"Research Site","city":"Anyang","country":"Korea, Republic of","geoPoint":{"lat":37.3925,"lon":126.92694}},{"facility":"Research Site","city":"Seoul","country":"Korea, Republic of","geoPoint":{"lat":37.566,"lon":126.9784}},{"facility":"Research Site","city":"Aguascalientes","country":"Mexico","geoPoint":{"lat":21.88234,"lon":-102.28259}},{"facility":"Research Site","city":"Chihuahua","country":"Mexico","geoPoint":{"lat":28.63528,"lon":-106.08889}},{"facility":"Research Site","city":"Guadalajara","country":"Mexico","geoPoint":{"lat":20.66682,"lon":-103.39182}},{"facility":"Research Site","city":"Monterrey, Nuevo león","country":"Mexico"},{"facility":"Research Site","city":"San Luis Potosí","country":"Mexico","geoPoint":{"lat":22.14982,"lon":-100.97916}},{"facility":"Research Site","city":"Zapopan, Jalisco","country":"Mexico","geoPoint":{"lat":20.72356,"lon":-103.38479}},{"facility":"Research Site","city":"Grafton","country":"New Zealand","geoPoint":{"lat":-36.86029,"lon":174.76566}},{"facility":"Research Site","city":"Manila","country":"Philippines","geoPoint":{"lat":14.6042,"lon":120.9822}},{"facility":"Research Site","city":"Pasay City","country":"Philippines"},{"facility":"Research Site","city":"Quezon City","country":"Philippines","geoPoint":{"lat":14.6488,"lon":121.0509}},{"facility":"Research Site","city":"Czestochowa","country":"Poland","geoPoint":{"lat":50.79646,"lon":19.12409}},{"facility":"Research Site","city":"Gdansk","country":"Poland","geoPoint":{"lat":54.35205,"lon":18.64637}},{"facility":"Research Site","city":"Katowice","country":"Poland","geoPoint":{"lat":50.25841,"lon":19.02754}},{"facility":"Research Site","city":"Kielce","country":"Poland","geoPoint":{"lat":50.87033,"lon":20.62752}},{"facility":"Research Site","city":"Kraków","country":"Poland","geoPoint":{"lat":50.06143,"lon":19.93658}},{"facility":"Research Site","city":"Lodz","country":"Poland","geoPoint":{"lat":51.75,"lon":19.46667}},{"facility":"Research Site","city":"Lublin","country":"Poland","geoPoint":{"lat":51.25,"lon":22.56667}},{"facility":"Research Site","city":"Opole","country":"Poland","geoPoint":{"lat":50.67211,"lon":17.92533}},{"facility":"Research Site","city":"Siedlce","country":"Poland","geoPoint":{"lat":52.16772,"lon":22.29006}},{"facility":"Research Site","city":"Szczecin","country":"Poland","geoPoint":{"lat":53.42894,"lon":14.55302}},{"facility":"Research Site","city":"Warszawa","country":"Poland","geoPoint":{"lat":52.22977,"lon":21.01178}},{"facility":"Research Site","city":"Zabrze","country":"Poland","geoPoint":{"lat":50.32492,"lon":18.78576}},{"facility":"Research Site","city":"Amadora","country":"Portugal","geoPoint":{"lat":38.75382,"lon":-9.23083}},{"facility":"Research Site","city":"Coimbra","country":"Portugal","geoPoint":{"lat":40.20564,"lon":-8.41955}},{"facility":"Research Site","city":"Lisboa","country":"Portugal","geoPoint":{"lat":38.71667,"lon":-9.13333}},{"facility":"Research Site","city":"Porto","country":"Portugal","geoPoint":{"lat":41.14961,"lon":-8.61099}},{"facility":"Research Site","city":"Setúbal","country":"Portugal","geoPoint":{"lat":38.5244,"lon":-8.8882}},{"facility":"Research Site","city":"Moscow","country":"Russian Federation","geoPoint":{"lat":55.75222,"lon":37.61556}},{"facility":"Research Site","city":"St.Petersburg","country":"Russian Federation","geoPoint":{"lat":59.93863,"lon":30.31413}},{"facility":"Research Site","city":"Lovoca","country":"Slovakia"},{"facility":"Research Site","city":"Martin","country":"Slovakia","geoPoint":{"lat":49.06651,"lon":18.92399}},{"facility":"Research Site","city":"Nitra","country":"Slovakia","geoPoint":{"lat":48.30763,"lon":18.08453}},{"facility":"Research Site","city":"Ziliha","country":"Slovakia"},{"facility":"Research Site","city":"Cape Town","country":"South Africa","geoPoint":{"lat":-33.92584,"lon":18.42322}},{"facility":"Research Site","city":"George","country":"South Africa","geoPoint":{"lat":-33.963,"lon":22.46173}},{"facility":"Research Site","city":"Morningside","country":"South Africa"},{"facility":"Research Site","city":"Somerset West","country":"South Africa","geoPoint":{"lat":-34.08401,"lon":18.82113}},{"facility":"Research Site","city":"Barcelona","country":"Spain","geoPoint":{"lat":41.38879,"lon":2.15899}},{"facility":"Research Site","city":"Gerona","country":"Spain","geoPoint":{"lat":41.98311,"lon":2.82493}},{"facility":"Research Site","city":"Madrid","country":"Spain","geoPoint":{"lat":40.4165,"lon":-3.70256}},{"facility":"Research Site","city":"Santiago(A Coruña)","country":"Spain"},{"facility":"Research Site","city":"Aarau","country":"Switzerland","geoPoint":{"lat":47.39254,"lon":8.04422}},{"facility":"Research Site","city":"Basel","country":"Switzerland","geoPoint":{"lat":47.55839,"lon":7.57327}},{"facility":"Research Site","city":"Bern","country":"Switzerland","geoPoint":{"lat":46.94809,"lon":7.44744}},{"facility":"Research Site","city":"Lausanne","country":"Switzerland","geoPoint":{"lat":46.516,"lon":6.63282}},{"facility":"Research Site","city":"St. Gallen","country":"Switzerland","geoPoint":{"lat":47.42391,"lon":9.37477}},{"facility":"Research Site","city":"Zürich","country":"Switzerland","geoPoint":{"lat":47.36667,"lon":8.54999}},{"facility":"Research Site","city":"Taichung","country":"Taiwan","geoPoint":{"lat":24.1469,"lon":120.6839}},{"facility":"Research Site","city":"Taipei","country":"Taiwan","geoPoint":{"lat":25.04776,"lon":121.53185}},{"facility":"Research Site","city":"Taoyuan Hsien","country":"Taiwan"},{"facility":"Research Site","city":"Edinburgh","country":"United Kingdom","geoPoint":{"lat":55.95206,"lon":-3.19648}},{"facility":"Research Site","city":"Glasgow","country":"United Kingdom","geoPoint":{"lat":55.86515,"lon":-4.25763}},{"facility":"Research Site","city":"Newcastle-upon-Tyne","country":"United Kingdom","geoPoint":{"lat":54.97328,"lon":-1.61396}}]},"referencesModule":{"references":[{"pmid":"17687131","type":"DERIVED","citation":"Shuaib A, Lees KR, Lyden P, Grotta J, Davalos A, Davis SM, Diener HC, Ashwood T, Wasiewski WW, Emeribe U; SAINT II Trial Investigators. NXY-059 for the treatment of acute ischemic stroke. N Engl J Med. 2007 Aug 9;357(6):562-71. doi: 10.1056/NEJMoa070240."}]}},"derivedSection":{"miscInfoModule":{"versionHolder":"2024-02-14"},"conditionBrowseModule":{"meshes":[{"id":"D000020521","term":"Stroke"},{"id":"D000002546","term":"Ischemic Attack, Transient"},{"id":"D000007511","term":"Ischemia"}],"ancestors":[{"id":"D000002561","term":"Cerebrovascular Disorders"},{"id":"D000001927","term":"Brain Diseases"},{"id":"D000002493","term":"Central Nervous System Diseases"},{"id":"D000009422","term":"Nervous System Diseases"},{"id":"D000014652","term":"Vascular Diseases"},{"id":"D000002318","term":"Cardiovascular Diseases"},{"id":"D000010335","term":"Pathologic Processes"},{"id":"D000002545","term":"Brain Ischemia"}],"browseLeaves":[{"id":"M21996","name":"Stroke","asFound":"Stroke","relevance":"HIGH"},{"id":"M9246","name":"Hemorrhage","relevance":"LOW"},{"id":"M10233","name":"Ischemia","asFound":"Ischemic","relevance":"HIGH"},{"id":"M2401","name":"Ischemic Stroke","relevance":"LOW"},{"id":"M5485","name":"Ischemic Attack, Transient","asFound":"Ischemic Attack, Transient","relevance":"HIGH"},{"id":"M5327","name":"Cataplexy","relevance":"LOW"},{"id":"M5500","name":"Cerebrovascular Disorders","relevance":"LOW"},{"id":"M4894","name":"Brain Diseases","relevance":"LOW"},{"id":"M5432","name":"Central Nervous System Diseases","relevance":"LOW"},{"id":"M17090","name":"Vascular Diseases","relevance":"LOW"},{"id":"M5484","name":"Brain Ischemia","relevance":"LOW"},{"id":"T170","name":"Acute Graft Versus Host Disease","relevance":"LOW"}],"browseBranches":[{"abbrev":"BC10","name":"Nervous System Diseases"},{"abbrev":"BC14","name":"Heart and Blood Diseases"},{"abbrev":"All","name":"All Conditions"},{"abbrev":"BC23","name":"Symptoms and General Pathology"},{"abbrev":"BXM","name":"Behaviors and Mental Disorders"},{"abbrev":"Rare","name":"Rare Diseases"}]},"interventionBrowseModule":{"meshes":[{"id":"C000120851","term":"Disufenton sodium"}],"ancestors":[{"id":"D000000975","term":"Antioxidants"},{"id":"D000045504","term":"Molecular Mechanisms of Pharmacological Action"},{"id":"D000020011","term":"Protective Agents"},{"id":"D000045505","term":"Physiological Effects of Drugs"}],"browseLeaves":[{"id":"M232497","name":"Disufenton sodium","asFound":"DS-1040b","relevance":"HIGH"},{"id":"M3982","name":"Antioxidants","relevance":"LOW"},{"id":"M21559","name":"Protective Agents","relevance":"LOW"}],"browseBranches":[{"abbrev":"All","name":"All Drugs and Chemicals"}]}},"hasResults":false}