{"protocolSection":{"identificationModule":{"nctId":"NCT00938730","orgStudyIdInfo":{"id":"150-CL-021"},"secondaryIdInfos":[{"id":"2007-001150-87","type":"EUDRACT_NUMBER"}],"organization":{"fullName":"Astellas Pharma Inc","class":"INDUSTRY"},"briefTitle":"A Study Evaluating Safety and Tolerability of YM150 Compared to Warfarin in Subjects With Atrial Fibrillation","officialTitle":"A Phase 2, Double-Blind, Double-Dummy, Randomized, Parallel Group Dose Finding Study To Investigate the Safety and Tolerability of YM150 in Subjects With Non-Valvular Atrial Fibrillation and to Compare the Safety and Tolerability With Warfarin","acronym":"OPAL-2"},"statusModule":{"statusVerifiedDate":"2011-01","overallStatus":"COMPLETED","expandedAccessInfo":{"hasExpandedAccess":false},"startDateStruct":{"date":"2009-06"},"primaryCompletionDateStruct":{"date":"2010-09","type":"ACTUAL"},"completionDateStruct":{"date":"2010-09","type":"ACTUAL"},"studyFirstSubmitDate":"2009-07-01","studyFirstSubmitQcDate":"2009-07-13","studyFirstPostDateStruct":{"date":"2009-07-14","type":"ESTIMATED"},"lastUpdateSubmitDate":"2011-01-18","lastUpdatePostDateStruct":{"date":"2011-01-20","type":"ESTIMATED"}},"sponsorCollaboratorsModule":{"responsibleParty":{"oldNameTitle":"Disclosure Office Europe","oldOrganization":"Astellas Pharma Europe BV"},"leadSponsor":{"name":"Astellas Pharma Inc","class":"INDUSTRY"}},"oversightModule":{"oversightHasDmc":true},"descriptionModule":{"briefSummary":"The purpose of this study is to investigate the optimal daily dose and dose regimen of YM150 in subjects with non-valvular atrial fibrillation (NVAF), primarily based on safety and tolerability data."},"conditionsModule":{"conditions":["Atrial Fibrillation"],"keywords":["Nonvalvular Atrial Fibrillation (NVAF)","Factor Xa Inhibitor","Stroke","Thromboembolism","Transient Ischemic attack","Anticoagulants","Prevention","YM150","Warfarin"]},"designModule":{"studyType":"INTERVENTIONAL","phases":["PHASE2"],"designInfo":{"allocation":"RANDOMIZED","interventionModel":"PARALLEL","primaryPurpose":"PREVENTION","maskingInfo":{"masking":"QUADRUPLE","whoMasked":["PARTICIPANT","CARE_PROVIDER","INVESTIGATOR","OUTCOMES_ASSESSOR"]}},"enrollmentInfo":{"count":1280,"type":"ACTUAL"}},"armsInterventionsModule":{"armGroups":[{"label":"1. YM150, Dose W, twice daily","type":"EXPERIMENTAL","interventionNames":["Drug: YM150"]},{"label":"2. YM150, Dose X, once daily","type":"EXPERIMENTAL","interventionNames":["Drug: YM150"]},{"label":"3. YM150, Dose X, twice daily","type":"EXPERIMENTAL","interventionNames":["Drug: YM150"]},{"label":"4. YM150, Dose Y once daily","type":"EXPERIMENTAL","interventionNames":["Drug: YM150"]},{"label":"5. YM150, Dose Y twice daily","type":"EXPERIMENTAL","interventionNames":["Drug: YM150"]},{"label":"6. YM150, Dose Z, once daily","type":"EXPERIMENTAL","interventionNames":["Drug: YM150"]},{"label":"7. Warfarin","type":"ACTIVE_COMPARATOR","interventionNames":["Drug: Warfarin"]}],"interventions":[{"type":"DRUG","name":"YM150","description":"oral","armGroupLabels":["1. YM150, Dose W, twice daily","2. YM150, Dose X, once daily","3. YM150, Dose X, twice daily","4. YM150, Dose Y once daily","5. YM150, Dose Y twice daily","6. YM150, Dose Z, once daily"]},{"type":"DRUG","name":"Warfarin","description":"oral","armGroupLabels":["7. Warfarin"]}]},"outcomesModule":{"primaryOutcomes":[{"measure":"Incidence of major and clinically relevant non-major bleeding events","timeFrame":"Double-blind treatment period (variable, up to 16 months)"}],"secondaryOutcomes":[{"measure":"Composite and individual incidences of ischemic strokes, TIAs, systemic thrombolic events, ACS, all deaths","timeFrame":"Double-blind treatment period (variable, up to 16 months)"},{"measure":"Incidence of bleeding events","timeFrame":"Double-blind treatment period (variable, up to 16 months)"},{"measure":"Assessment of other safety variables","timeFrame":"Double blind treatment period (variable, up to 16 months)"},{"measure":"Assessment of PK/PD variables","timeFrame":"Double-blind treatment period (up to week 12)"},{"measure":"Patient Reported Outcomes","timeFrame":"Double-blind treatment period (up to week 24)"}]},"eligibilityModule":{"eligibilityCriteria":"Inclusion Criteria:\n\n* Subject with paroxysmal, permanent or persistent Nonvalvular Atrial Fibrillation (NVAF)\n* Subject has prothrombin time international normalized ratio (INR) of 2.0 or below at the baseline visit\n\nExclusion Criteria:\n\n* Subject has current or recent (within 12 months prior to screening) history of stroke and/or systemic embolism (including TIA)\n* Subject has active bleeding or any condition associated with increased risk of bleeding\n* Subject has NVAF secondary to other reversible disorders (e.g. thyrotoxicosis)\n* Subject has an indication for warfarin other than AF (including planned cardioversion)\n* Subject has had a diagnosis of Acute Coronary Syndrome (ACS), coronary artery bypass graft (CABG) or percutaneous transluminal coronary angioplasty (PTCA) within previous 3 months of screening\n* Subject has a diagnosis of left ventricular aneurysm or atrial myxoma\n* Subject requires use of prohibited previous and concomitant medication (i.e., thrombolytics \\[such as tissue Plasminogen Activator (tPA), streptokinase\\], antiplatelet agents \\[such as cilostazol, clopidogrel, ticlopidine, dipyridamole\\], anticoagulants \\[such as vitamin K antagonists, heparin, unfractionated or low molecular weight heparin, fondaparinux, thrombin inhibitors\\] and chronic use of nonsteroidal anti-inflammatory drugs \\[NSAIDs\\] or acetylsalicylic acid use of \\>100 mg/day). (see Section 5.1.3 and Appendix 1 for details)\n* Subject has active infective endocarditis\n* Subject is planned for invasive procedures with potential for bleeding\n* Subject has participated in another clinical trial of an investigational drug (including placebo) or device within 30 days (or the limit set by national law, whichever is longer) of signing informed consent for the present study\n* Subject has participated in any YM150 clinical trials","healthyVolunteers":false,"sex":"ALL","minimumAge":"18 Years","stdAges":["ADULT","OLDER_ADULT"]},"contactsLocationsModule":{"overallOfficials":[{"name":"Use Central Contact","affiliation":"Astellas Pharma Europe B.V.","role":"STUDY_CHAIR"}],"locations":[{"city":"Auchenflower","zip":"4066","country":"Australia","geoPoint":{"lat":-27.47443,"lon":152.99213}},{"city":"Caboolture","zip":"4510","country":"Australia","geoPoint":{"lat":-27.08465,"lon":152.9511}},{"city":"Kippa Ring","zip":"4021","country":"Australia","geoPoint":{"lat":-27.22586,"lon":153.0835}},{"city":"Victoria","zip":"3181","country":"Australia"},{"city":"Wien","zip":"1100","country":"Austria","geoPoint":{"lat":48.20849,"lon":16.37208}},{"city":"Wien","zip":"1160","country":"Austria","geoPoint":{"lat":48.20849,"lon":16.37208}},{"city":"Dimitrovgrad","zip":"6400","country":"Bulgaria","geoPoint":{"lat":42.05,"lon":25.6}},{"city":"Pleven","zip":"5800","country":"Bulgaria","geoPoint":{"lat":43.41667,"lon":24.61667}},{"city":"Sofia","zip":"1202","country":"Bulgaria","geoPoint":{"lat":42.69751,"lon":23.32415}},{"city":"Sofia","zip":"1309","country":"Bulgaria","geoPoint":{"lat":42.69751,"lon":23.32415}},{"city":"Sofia","zip":"1407","country":"Bulgaria","geoPoint":{"lat":42.69751,"lon":23.32415}},{"city":"Sofia","zip":"1505","country":"Bulgaria","geoPoint":{"lat":42.69751,"lon":23.32415}},{"city":"Sofia","zip":"1606","country":"Bulgaria","geoPoint":{"lat":42.69751,"lon":23.32415}},{"city":"Besenov","zip":"25630","country":"Czech Republic"},{"city":"Havirov-mesto","zip":"73601","country":"Czech Republic"},{"city":"Prague","zip":"13","country":"Czech Republic","geoPoint":{"lat":50.08804,"lon":14.42076}},{"city":"Tabor","zip":"2000","country":"Czech Republic","geoPoint":{"lat":49.41441,"lon":14.6578}},{"city":"Usti Nad Labem","zip":"40113","country":"Czech Republic","geoPoint":{"lat":50.6607,"lon":14.03227}},{"city":"Narva","zip":"20307","country":"Estonia","geoPoint":{"lat":59.37722,"lon":28.19028}},{"city":"Tallinn","zip":"10138","country":"Estonia","geoPoint":{"lat":59.43696,"lon":24.75353}},{"city":"Tallinn","zip":"10617","country":"Estonia","geoPoint":{"lat":59.43696,"lon":24.75353}},{"city":"Tartu","zip":"51014","country":"Estonia","geoPoint":{"lat":58.38062,"lon":26.72509}},{"city":"Paris","zip":"75015","country":"France","geoPoint":{"lat":48.85341,"lon":2.3488}},{"city":"Bad Nauheim","zip":"61231","country":"Germany","geoPoint":{"lat":50.36463,"lon":8.73859}},{"city":"Berlin","zip":"10115","country":"Germany","geoPoint":{"lat":52.52437,"lon":13.41053}},{"city":"Berlin","zip":"10117","country":"Germany","geoPoint":{"lat":52.52437,"lon":13.41053}},{"city":"Berlin","zip":"10367","country":"Germany","geoPoint":{"lat":52.52437,"lon":13.41053}},{"city":"Darmstadt","zip":"64283","country":"Germany","geoPoint":{"lat":49.87167,"lon":8.65027}},{"city":"Dresden","zip":"1307","country":"Germany","geoPoint":{"lat":51.05089,"lon":13.73832}},{"city":"Hagen","zip":"58099","country":"Germany","geoPoint":{"lat":51.36081,"lon":7.47168}},{"city":"Kassel","zip":"34121","country":"Germany","geoPoint":{"lat":51.31667,"lon":9.5}},{"city":"Mainz","zip":"55116","country":"Germany","geoPoint":{"lat":49.98419,"lon":8.2791}},{"city":"Mannheim","zip":"68169","country":"Germany","geoPoint":{"lat":49.4891,"lon":8.46694}},{"city":"Markkleeberg","zip":"04416","country":"Germany","geoPoint":{"lat":51.2755,"lon":12.36906}},{"city":"Balatonfured","zip":"H-8230","country":"Hungary","geoPoint":{"lat":46.96188,"lon":17.87187}},{"city":"Budapest","zip":"H-1134","country":"Hungary","geoPoint":{"lat":47.49801,"lon":19.03991}},{"city":"Debrecen","zip":"H-4030","country":"Hungary","geoPoint":{"lat":47.53333,"lon":21.63333}},{"city":"Mosonmagyarovar","zip":"H-9200","country":"Hungary","geoPoint":{"lat":47.86789,"lon":17.26994}},{"city":"Nyiregyhaza","zip":"H-4400","country":"Hungary","geoPoint":{"lat":47.95539,"lon":21.71671}},{"city":"Szekesfehervar","zip":"H-8000","country":"Hungary","geoPoint":{"lat":47.18995,"lon":18.41034}},{"city":"Ahmedabad","zip":"380054","country":"India","geoPoint":{"lat":23.02579,"lon":72.58727}},{"city":"Bangalore","zip":"560034","country":"India","geoPoint":{"lat":12.97194,"lon":77.59369}},{"city":"Bangalore","zip":"560052","country":"India","geoPoint":{"lat":12.97194,"lon":77.59369}},{"city":"Bangalore","zip":"560053","country":"India","geoPoint":{"lat":12.97194,"lon":77.59369}},{"city":"Hyderabaad","zip":"500036","country":"India","geoPoint":{"lat":17.38405,"lon":78.45636}},{"city":"Kolkatta","zip":"700054","country":"India"},{"city":"Madurai","zip":"625107","country":"India","geoPoint":{"lat":9.91769,"lon":78.11898}},{"city":"Nagpur","zip":"440012","country":"India","geoPoint":{"lat":21.14631,"lon":79.08491}},{"city":"Nashik","zip":"42202","country":"India","geoPoint":{"lat":19.99727,"lon":73.79096}},{"city":"Nellore","zip":"524003","country":"India","geoPoint":{"lat":14.44992,"lon":79.98697}},{"city":"Pune","zip":"411001","country":"India","geoPoint":{"lat":18.51957,"lon":73.85535}},{"city":"Pune","zip":"411004","country":"India","geoPoint":{"lat":18.51957,"lon":73.85535}},{"city":"Nahariya","zip":"22100","country":"Israel","geoPoint":{"lat":33.00892,"lon":35.09814}},{"city":"Nazareth","zip":"16100","country":"Israel","geoPoint":{"lat":32.69925,"lon":35.30483}},{"city":"Rehovot","zip":"76100","country":"Israel","geoPoint":{"lat":31.89421,"lon":34.81199}},{"city":"Asahikawa","zip":"078-8214","country":"Japan","geoPoint":{"lat":43.77063,"lon":142.36489}},{"city":"Atsugi","zip":"243-8550","country":"Japan","geoPoint":{"lat":35.44272,"lon":139.36931}},{"city":"Bunkyo-ku","zip":"113-8603","country":"Japan","geoPoint":{"lat":35.37517,"lon":139.92991}},{"city":"Daito","zip":"574-0074","country":"Japan"},{"city":"Fujisawa","zip":"251-8550","country":"Japan","geoPoint":{"lat":35.34926,"lon":139.47666}},{"city":"Funabashi","zip":"274-8503","country":"Japan","geoPoint":{"lat":35.70129,"lon":139.98648}},{"city":"Hachioji","zip":"193-0098","country":"Japan","geoPoint":{"lat":35.65583,"lon":139.32389}},{"city":"Higashiibaraki-gun","zip":"311 3193","country":"Japan"},{"city":"Hiroshima","country":"Japan","geoPoint":{"lat":34.4,"lon":132.45}},{"city":"Kanazawa","zip":"920 8650","country":"Japan","geoPoint":{"lat":36.6,"lon":136.61667}},{"city":"Kasaoka","zip":"714-0043","country":"Japan","geoPoint":{"lat":34.50597,"lon":133.50391}},{"city":"Kishiwada","zip":"596-8522","country":"Japan","geoPoint":{"lat":34.46667,"lon":135.36667}},{"city":"Kitamoto","zip":"364-8501","country":"Japan","geoPoint":{"lat":36.03322,"lon":139.53775}},{"city":"Kiyose","zip":"204 8585","country":"Japan"},{"city":"Kobe","zip":"651-1145","country":"Japan","geoPoint":{"lat":34.6913,"lon":135.183}},{"city":"Meguro-ku","zip":"153-8515","country":"Japan","geoPoint":{"lat":42.12755,"lon":143.31736}},{"city":"Morioka","zip":"020-8505","country":"Japan","geoPoint":{"lat":39.7,"lon":141.15}},{"city":"Nankoku","zip":"783-8509","country":"Japan","geoPoint":{"lat":33.56943,"lon":133.64937}},{"city":"Sapporo","zip":"060-0011","country":"Japan","geoPoint":{"lat":43.06667,"lon":141.35}},{"city":"Sapporo","zip":"063 0005","country":"Japan","geoPoint":{"lat":43.06667,"lon":141.35}},{"city":"Sendai","zip":"983 8520","country":"Japan","geoPoint":{"lat":38.26667,"lon":140.86667}},{"city":"Shimajiri-gun","zip":"901-0496","country":"Japan"},{"city":"Shinjyuku-ku","zip":"162-8543","country":"Japan"},{"city":"Shizuoka","zip":"421-0117","country":"Japan","geoPoint":{"lat":34.98333,"lon":138.38333}},{"city":"Toyama","zip":"939-8511","country":"Japan","geoPoint":{"lat":36.7,"lon":137.21667}},{"city":"Wako","zip":"351 0102","country":"Japan","geoPoint":{"lat":35.78944,"lon":139.62333}},{"city":"Yokohama","zip":"227-0046","country":"Japan","geoPoint":{"lat":35.43333,"lon":139.65}},{"city":"Busan","zip":"603-175","country":"Korea, Republic of","geoPoint":{"lat":35.10278,"lon":129.04028}},{"city":"Gwangju","zip":"501-757","country":"Korea, Republic of","geoPoint":{"lat":35.15472,"lon":126.91556}},{"city":"In Cheon","zip":"405-760","country":"Korea, Republic of"},{"city":"Seoul","zip":"120-752","country":"Korea, Republic of","geoPoint":{"lat":37.566,"lon":126.9784}},{"city":"Seoul","zip":"137-701","country":"Korea, Republic of","geoPoint":{"lat":37.566,"lon":126.9784}},{"city":"Seoul","zip":"138-736","country":"Korea, Republic of","geoPoint":{"lat":37.566,"lon":126.9784}},{"city":"Seoul","zip":"158-710","country":"Korea, Republic of","geoPoint":{"lat":37.566,"lon":126.9784}},{"city":"Kuala Lumpur","zip":"50586","country":"Malaysia","geoPoint":{"lat":3.1412,"lon":101.68653}},{"city":"Selangor Darul Ehsan","zip":"47500","country":"Malaysia"},{"city":"AD Delft","zip":"2625","country":"Netherlands"},{"city":"AE Roosendaal","zip":"4708","country":"Netherlands"},{"city":"BC Amsterdam","zip":"1091","country":"Netherlands"},{"city":"Iloilo","zip":"5000","country":"Philippines","geoPoint":{"lat":10.69694,"lon":122.56444}},{"city":"Bytom","zip":"41-902","country":"Poland","geoPoint":{"lat":50.34802,"lon":18.93282}},{"city":"Gdynia","zip":"81-423","country":"Poland","geoPoint":{"lat":54.51889,"lon":18.53188}},{"city":"Gdynia","zip":"81-472","country":"Poland","geoPoint":{"lat":54.51889,"lon":18.53188}},{"city":"Katowice","zip":"40-635","country":"Poland","geoPoint":{"lat":50.25841,"lon":19.02754}},{"city":"Kielce","zip":"25-735","country":"Poland","geoPoint":{"lat":50.87033,"lon":20.62752}},{"city":"Krakow","zip":"30-082","country":"Poland","geoPoint":{"lat":50.06143,"lon":19.93658}},{"city":"Lodz","zip":"91-425","country":"Poland","geoPoint":{"lat":51.75,"lon":19.46667}},{"city":"Lublin","zip":"20-954","country":"Poland","geoPoint":{"lat":51.25,"lon":22.56667}},{"city":"Torun","zip":"87-100","country":"Poland","geoPoint":{"lat":53.01375,"lon":18.59814}},{"city":"Warsaw","zip":"00-909","country":"Poland","geoPoint":{"lat":52.22977,"lon":21.01178}},{"city":"Warsaw","zip":"02-057","country":"Poland","geoPoint":{"lat":52.22977,"lon":21.01178}},{"city":"Warsaw","zip":"02-097","country":"Poland","geoPoint":{"lat":52.22977,"lon":21.01178}},{"city":"Wroclaw","zip":"50-981","country":"Poland","geoPoint":{"lat":51.1,"lon":17.03333}},{"city":"Arkhangelsk","zip":"163045","country":"Russian Federation","geoPoint":{"lat":64.5401,"lon":40.5433}},{"city":"Chelyabinsk","zip":"454021","country":"Russian Federation","geoPoint":{"lat":55.15402,"lon":61.42915}},{"city":"Moscow","zip":"101990","country":"Russian Federation","geoPoint":{"lat":55.75222,"lon":37.61556}},{"city":"Moscow","zip":"117485","country":"Russian Federation","geoPoint":{"lat":55.75222,"lon":37.61556}},{"city":"Novosibirsk","zip":"630008","country":"Russian Federation","geoPoint":{"lat":55.0415,"lon":82.9346}},{"city":"Novosibirsk","zip":"630012","country":"Russian Federation","geoPoint":{"lat":55.0415,"lon":82.9346}},{"city":"Novosibirsk","zip":"630117","country":"Russian Federation","geoPoint":{"lat":55.0415,"lon":82.9346}},{"city":"Omsk","zip":"644046","country":"Russian Federation","geoPoint":{"lat":54.99244,"lon":73.36859}},{"city":"Saratov","zip":"410028","country":"Russian Federation","geoPoint":{"lat":51.54056,"lon":46.00861}},{"city":"Smolensk","zip":"214018","country":"Russian Federation","geoPoint":{"lat":54.7818,"lon":32.0401}},{"city":"St Petersburg","zip":"194156","country":"Russian Federation","geoPoint":{"lat":59.93863,"lon":30.31413}},{"city":"St. Petersburg","zip":"199106","country":"Russian Federation","geoPoint":{"lat":59.93863,"lon":30.31413}},{"city":"Tomsk","zip":"643063","country":"Russian Federation","geoPoint":{"lat":56.49771,"lon":84.97437}},{"city":"Tula","zip":"300035","country":"Russian Federation","geoPoint":{"lat":54.19609,"lon":37.61822}},{"city":"Tyumen","zip":"625026","country":"Russian Federation","geoPoint":{"lat":57.15222,"lon":65.52722}},{"city":"Bardejov","zip":"08501","country":"Slovakia","geoPoint":{"lat":49.29175,"lon":21.27271}},{"city":"Dolny Kubin","zip":"02601","country":"Slovakia","geoPoint":{"lat":49.20983,"lon":19.30341}},{"city":"Komarno","zip":"94501","country":"Slovakia","geoPoint":{"lat":47.76356,"lon":18.12263}},{"city":"Kosice","zip":"04022","country":"Slovakia","geoPoint":{"lat":48.71395,"lon":21.25808}},{"city":"Liptovsky Hradok","zip":"03301","country":"Slovakia","geoPoint":{"lat":49.03962,"lon":19.72335}},{"city":"Martin","zip":"03601","country":"Slovakia","geoPoint":{"lat":49.06651,"lon":18.92399}},{"city":"Bellville","zip":"7530","country":"South Africa","geoPoint":{"lat":-33.90022,"lon":18.62847}},{"city":"Benoni","zip":"1500","country":"South Africa","geoPoint":{"lat":-26.18848,"lon":28.32078}},{"city":"Centurion","zip":"0157","country":"South Africa","geoPoint":{"lat":-25.85891,"lon":28.18577}},{"city":"Chatsworth","zip":"4092","country":"South Africa","geoPoint":{"lat":-33.54778,"lon":18.58201}},{"city":"Moreletta Park","zip":"0044","country":"South Africa"},{"city":"Somerset West","zip":"7130","country":"South Africa","geoPoint":{"lat":-34.08401,"lon":18.82113}},{"city":"Tongaat","zip":"4400","country":"South Africa","geoPoint":{"lat":-29.57215,"lon":31.11682}},{"city":"Umhlanga","zip":"4320","country":"South Africa","geoPoint":{"lat":-29.72528,"lon":31.08583}},{"city":"Worcester","zip":"6850","country":"South Africa","geoPoint":{"lat":-33.64651,"lon":19.44852}},{"city":"Murcia","zip":"30008","country":"Spain","geoPoint":{"lat":37.98704,"lon":-1.13004}},{"city":"Sevilla","zip":"41009","country":"Spain","geoPoint":{"lat":37.38283,"lon":-5.97317}},{"city":"Viladecans","zip":"08840","country":"Spain","geoPoint":{"lat":41.31405,"lon":2.01427}},{"city":"Bangkok","zip":"10330","country":"Thailand","geoPoint":{"lat":13.75398,"lon":100.50144}},{"city":"Chiang Mai","zip":"50200","country":"Thailand","geoPoint":{"lat":18.79038,"lon":98.98468}},{"city":"Cherkassy","zip":"18009","country":"Ukraine","geoPoint":{"lat":49.42854,"lon":32.06207}},{"city":"Donetsk","zip":"83114","country":"Ukraine","geoPoint":{"lat":48.023,"lon":37.80224}},{"city":"Ivano Frankivsk","zip":"76075","country":"Ukraine","geoPoint":{"lat":48.9215,"lon":24.70972}},{"city":"Kharkiv","zip":"61002","country":"Ukraine","geoPoint":{"lat":49.98081,"lon":36.25272}},{"city":"Kharkiv","zip":"61018","country":"Ukraine","geoPoint":{"lat":49.98081,"lon":36.25272}},{"city":"Kharkiv","zip":"61037","country":"Ukraine","geoPoint":{"lat":49.98081,"lon":36.25272}},{"city":"Kharkiv","zip":"61039","country":"Ukraine","geoPoint":{"lat":49.98081,"lon":36.25272}},{"city":"Kharkiv","zip":"61178","country":"Ukraine","geoPoint":{"lat":49.98081,"lon":36.25272}},{"city":"Kyiv","zip":"02038","country":"Ukraine","geoPoint":{"lat":50.45466,"lon":30.5238}},{"city":"Kyiv","zip":"02660","country":"Ukraine","geoPoint":{"lat":50.45466,"lon":30.5238}},{"city":"Kyiv","zip":"03680","country":"Ukraine","geoPoint":{"lat":50.45466,"lon":30.5238}},{"city":"Kyiv","zip":"3680","country":"Ukraine","geoPoint":{"lat":50.45466,"lon":30.5238}},{"city":"Kyiv","zip":"4050","country":"Ukraine","geoPoint":{"lat":50.45466,"lon":30.5238}},{"city":"Lutsk","zip":"43024","country":"Ukraine","geoPoint":{"lat":50.75932,"lon":25.34244}},{"city":"Lviv","zip":"79013","country":"Ukraine","geoPoint":{"lat":49.83826,"lon":24.02324}},{"city":"Odessa","zip":"65059","country":"Ukraine","geoPoint":{"lat":46.47747,"lon":30.73262}},{"city":"Ternopil","zip":"46002","country":"Ukraine","geoPoint":{"lat":49.55589,"lon":25.60556}},{"city":"Vinnytsya","zip":"21005","country":"Ukraine","geoPoint":{"lat":49.23278,"lon":28.48097}},{"city":"Zaporizhzhya","zip":"69118","country":"Ukraine","geoPoint":{"lat":50.60727,"lon":31.78792}},{"city":"Addlestone","zip":"KT 15 2BH","country":"United Kingdom","geoPoint":{"lat":51.37135,"lon":-0.49353}},{"city":"Bath","zip":"BA2 3HT","country":"United Kingdom","geoPoint":{"lat":51.3751,"lon":-2.36172}},{"city":"Birmingham","zip":"B18 7QH","country":"United Kingdom","geoPoint":{"lat":52.48142,"lon":-1.89983}},{"city":"Dundee","zip":"DD1 9SY","country":"United Kingdom","geoPoint":{"lat":56.46913,"lon":-2.97489}},{"city":"East Horsley","zip":"KT24 6QT","country":"United Kingdom","geoPoint":{"lat":51.27358,"lon":-0.43207}},{"city":"London","zip":"SE5 8AF","country":"United Kingdom","geoPoint":{"lat":51.50853,"lon":-0.12574}},{"city":"Soham","zip":"CB7 5JD","country":"United Kingdom","geoPoint":{"lat":52.33543,"lon":0.33654}},{"city":"Southampton","zip":"SO16 6YD","country":"United Kingdom","geoPoint":{"lat":50.90395,"lon":-1.40428}}]}},"derivedSection":{"miscInfoModule":{"versionHolder":"2024-02-14","removedCountries":["China","Indonesia","Latvia","Lithuania"]},"conditionBrowseModule":{"meshes":[{"id":"D000001281","term":"Atrial Fibrillation"}],"ancestors":[{"id":"D000001145","term":"Arrhythmias, Cardiac"},{"id":"D000006331","term":"Heart Diseases"},{"id":"D000002318","term":"Cardiovascular Diseases"},{"id":"D000010335","term":"Pathologic Processes"}],"browseLeaves":[{"id":"M21996","name":"Stroke","relevance":"LOW"},{"id":"M16372","name":"Thromboembolism","relevance":"LOW"},{"id":"M10233","name":"Ischemia","relevance":"LOW"},{"id":"M5485","name":"Ischemic Attack, Transient","relevance":"LOW"},{"id":"M4276","name":"Atrial Fibrillation","asFound":"Atrial Fibrillation","relevance":"HIGH"},{"id":"M4143","name":"Arrhythmias, Cardiac","relevance":"LOW"},{"id":"M9109","name":"Heart Diseases","relevance":"LOW"}],"browseBranches":[{"abbrev":"BC10","name":"Nervous System Diseases"},{"abbrev":"BC14","name":"Heart and Blood Diseases"},{"abbrev":"All","name":"All Conditions"},{"abbrev":"BC23","name":"Symptoms and General Pathology"}]},"interventionBrowseModule":{"meshes":[{"id":"D000014859","term":"Warfarin"}],"ancestors":[{"id":"D000000925","term":"Anticoagulants"}],"browseLeaves":[{"id":"M3934","name":"Anticoagulants","relevance":"LOW"},{"id":"M30203","name":"Factor Xa Inhibitors","relevance":"LOW"},{"id":"M17292","name":"Warfarin","asFound":"Third","relevance":"HIGH"},{"id":"M227242","name":"Darexaban","relevance":"LOW"}],"browseBranches":[{"abbrev":"AnCoag","name":"Anticoagulants"},{"abbrev":"All","name":"All Drugs and Chemicals"}]}},"hasResults":false}