{"protocolSection":{"identificationModule":{"nctId":"NCT00580216","orgStudyIdInfo":{"id":"EFC10295"},"secondaryIdInfos":[{"id":"2007-004817-33","type":"EUDRACT_NUMBER"}],"organization":{"fullName":"Sanofi","class":"INDUSTRY"},"briefTitle":"Evaluation of Weekly Idrabiotaparinux Sodium Versus Oral Adjusted-dose Warfarin to Prevent Stroke and Systemic Thromboembolic Events in Patients With Atrial Fibrillation","officialTitle":"A Multicenter, Randomized, Double-blind, Assessor-blind, Non-inferiority Study Comparing the Efficacy and Safety of Once-weekly Subcutaneous Biotinylated Idraparinux (SSR126517E) With Oral Adjusted-dose Warfarin in the Prevention of Stroke and Systemic Thromboembolic Events in Patients With Atrial Fibrillation","acronym":"BOREALIS-AF"},"statusModule":{"statusVerifiedDate":"2016-02","overallStatus":"TERMINATED","whyStopped":"early discontinuation based on strategic sponsor decision not driven by any safety concern","expandedAccessInfo":{"hasExpandedAccess":false},"startDateStruct":{"date":"2007-12"},"primaryCompletionDateStruct":{"date":"2010-10","type":"ACTUAL"},"completionDateStruct":{"date":"2010-10","type":"ACTUAL"},"studyFirstSubmitDate":"2007-12-21","studyFirstSubmitQcDate":"2007-12-21","studyFirstPostDateStruct":{"date":"2007-12-24","type":"ESTIMATED"},"dispFirstSubmitDate":"2016-02-19","dispFirstSubmitQcDate":"2016-02-19","dispFirstPostDateStruct":{"date":"2016-03-21","type":"ESTIMATED"},"lastUpdateSubmitDate":"2016-02-19","lastUpdatePostDateStruct":{"date":"2016-03-21","type":"ESTIMATED"}},"sponsorCollaboratorsModule":{"responsibleParty":{"type":"SPONSOR"},"leadSponsor":{"name":"Sanofi","class":"INDUSTRY"}},"oversightModule":{"oversightHasDmc":true},"descriptionModule":{"briefSummary":"The objective is to evaluate whether once weekly subcutaneous (SC) injection of idrabiotaparinux sodium (biotinylated idraparinux) is at least as efficient to prevent clots in brain and in the other organs than oral international normalized ratio (INR) adjusted-dose warfarin in patients with atrial fibrillation (AF).","detailedDescription":"The end of the study is defined by a common study end date for all participants, defined as 9 months (39 weeks) after the last participant randomized.\n\nAll participants will receive oral warfarin (or matching placebo) and weekly SC injections of idrabiotaparinux sodium (or matching placebo) up to 6 months before the common study end date. All participants are expected to be treated for at least 6 months.\n\nAll participants will have then an 6-month observational period after cessation of study treatment."},"conditionsModule":{"conditions":["Atrial Fibrillation"],"keywords":["stroke","systemic thromboembolic events"]},"designModule":{"studyType":"INTERVENTIONAL","phases":["PHASE3"],"designInfo":{"allocation":"RANDOMIZED","interventionModel":"PARALLEL","primaryPurpose":"PREVENTION","maskingInfo":{"masking":"QUADRUPLE","whoMasked":["PARTICIPANT","CARE_PROVIDER","INVESTIGATOR","OUTCOMES_ASSESSOR"]}},"enrollmentInfo":{"count":3773,"type":"ACTUAL"}},"armsInterventionsModule":{"armGroups":[{"label":"Idrabiotaparinux","type":"EXPERIMENTAL","description":"Idrabiotaparinux sodium, 3.0 mg, once-weekly for 7 weeks followed a maintenance dosing adjusted according to the age and to the renal function for a minimum total treatment duration of 6 months.\n\nAvidin, 100 mg, at the discretion of the investigator whenever deemed appropriate and possible (ie, life-threatening bleeding, emergency invasive procedure with the potential of uncontrolled bleeding, or overdosage).","interventionNames":["Drug: Idrabiotaparinux sodium","Drug: Placebo (for warfarin)","Drug: Avidin"]},{"label":"Warfarin","type":"ACTIVE_COMPARATOR","description":"Warfarin, INR-adjusted dose, for a minimum total treatment duration of 6 months.","interventionNames":["Drug: Warfarin","Drug: Placebo (for idrabiotaparinux)","Drug: Placebo (for avidin)"]}],"interventions":[{"type":"DRUG","name":"Idrabiotaparinux sodium","description":"Pre-filled syringes containing:\n\n* 0.5 mL for the 3.0 mg dosage;\n* 0.33 mL for the 2.0 mg dosage (maintenance dosage for participants with mild renal impairment and less than 75 years old);\n* 0.25 mL for the 1.5 mg dosage (maintenance dosage for participants with moderate renal impairment or age ≥75 years).\n\nSubcutaneous injection","armGroupLabels":["Idrabiotaparinux"],"otherNames":["SSR126517","Biotinylated idraparinux"]},{"type":"DRUG","name":"Warfarin","description":"Capsules with 1 or 5 mg for INR-adjusted dose (INR checked at least once a month)\n\nOral administration","armGroupLabels":["Warfarin"]},{"type":"DRUG","name":"Placebo (for idrabiotaparinux)","description":"Matching pre-filled syringes containing:\n\n* 0.5 mL for the 3.0 mg dosage;\n* 0.33 mL for the 2.0 mg dosage (maintenance dosage for participants with mild renal impairment and less than 75 years old);\n* 0.25 mL for the 1.5 mg dosage (maintenance dosage for participants with moderate renal impairment or age ≥75 years).\n\nSubcutaneous injection","armGroupLabels":["Warfarin"]},{"type":"DRUG","name":"Placebo (for warfarin)","description":"Warfarin matching capsules\n\nOral administration","armGroupLabels":["Idrabiotaparinux"]},{"type":"DRUG","name":"Avidin","description":"Vial containing 105 mg of lyophilized powder for dilution\n\nIntravenous infusion for 30 minutes","armGroupLabels":["Idrabiotaparinux"],"otherNames":["SSR29261"]},{"type":"DRUG","name":"Placebo (for avidin)","description":"Vial containing 105 mg of matching lyophilized powder for dissolution\n\nIntravenous infusion for 30 minutes","armGroupLabels":["Warfarin"]}]},"outcomesModule":{"primaryOutcomes":[{"measure":"Composite of all fatal or non-fatal strokes or non central nervous system (CNS) systemic embolic events (SE)","timeFrame":"From randomization up to the end of the treatment period (minimum of 6 months)"}],"secondaryOutcomes":[{"measure":"Components of the primary study outcome measure:","timeFrame":"From randomization up to the end of the treatment period (minimum of 6 months)"},{"measure":"Composite of stroke or non CNS SE or myocardial infarction (MI) or venous thromboembolism (VTE) or major bleeding or death","timeFrame":"From randomization up to the end of the treatment period (minimum of 6 months)"}]},"eligibilityModule":{"eligibilityCriteria":"Inclusion Criteria:\n\n* Non valvular atrial fibrillation (AF)\n* Indication for long-term Vitamin-K antagonist (VKA) therapy based on the presence of previous ischemic stroke, transient ischemic attack (TIA) or systemic embolism and/or at least two of the following risk factors: hypertension requiring drug treatment, moderately or severely impaired left ventricular function and/or congestive heart failure, age \\> or = 75 years, diabetes mellitus.\n\nMain exclusion Criteria:\n\n* Indication for VKA other than AF\n* Stroke or TIA within previous 5 days\n* Transient AF caused by a reversible disorder\n* Planned major surgery/trauma or cardioversion within 30 days\n* INR \\> 3 at baseline\n* Active bleeding or high risk of bleeding\n* Uncontrolled hypertension\n* Pregnancy or childbearing potential without proper contraceptive measures or breast feeding.","healthyVolunteers":false,"sex":"ALL","minimumAge":"18 Years","stdAges":["ADULT","OLDER_ADULT"]},"contactsLocationsModule":{"overallOfficials":[{"name":"Clinical Sciences & Operations","affiliation":"Sanofi","role":"STUDY_DIRECTOR"}],"locations":[{"facility":"Sanofi-Aventis Investigational Site Number 840227","city":"Mobile","state":"Alabama","zip":"36608","country":"United States","geoPoint":{"lat":30.69436,"lon":-88.04305}},{"facility":"Sanofi-Aventis Investigational Site Number 840209","city":"Tucson","state":"Arizona","zip":"85723","country":"United States","geoPoint":{"lat":32.22174,"lon":-110.92648}},{"facility":"Sanofi-Aventis Investigational Site Number 840255","city":"Little Rock","state":"Arkansas","zip":"72204","country":"United States","geoPoint":{"lat":34.74648,"lon":-92.28959}},{"facility":"Sanofi-Aventis Investigational Site Number 840224","city":"Little Rock","state":"Arkansas","zip":"72205","country":"United States","geoPoint":{"lat":34.74648,"lon":-92.28959}},{"facility":"Sanofi-Aventis Investigational Site Number 840179","city":"Mountain Home","state":"Arkansas","zip":"72653","country":"United States","geoPoint":{"lat":36.33534,"lon":-92.38516}},{"facility":"Sanofi-Aventis Investigational Site Number 840270","city":"Beverly Hills","state":"California","zip":"90210","country":"United States","geoPoint":{"lat":34.07362,"lon":-118.40036}},{"facility":"Sanofi-Aventis Investigational Site Number 840278","city":"Beverly Hills","state":"California","zip":"90211","country":"United States","geoPoint":{"lat":34.07362,"lon":-118.40036}},{"facility":"Sanofi-Aventis Investigational Site Number 840241","city":"Burbank","state":"California","zip":"91505","country":"United States","geoPoint":{"lat":34.18084,"lon":-118.30897}},{"facility":"Sanofi-Aventis Investigational Site Number 840010","city":"Corona","state":"California","zip":"92879","country":"United States","geoPoint":{"lat":33.87529,"lon":-117.56644}},{"facility":"Sanofi-Aventis Investigational Site Number 840195","city":"Encino","state":"California","zip":"91436","country":"United States","geoPoint":{"lat":34.15917,"lon":-118.50119}},{"facility":"Sanofi-Aventis Investigational Site Number 840033","city":"Loma Linda","state":"California","zip":"92354","country":"United States","geoPoint":{"lat":34.04835,"lon":-117.26115}},{"facility":"Sanofi-Aventis Investigational Site Number 840184","city":"Long Beach","state":"California","zip":"90813","country":"United States","geoPoint":{"lat":33.76696,"lon":-118.18923}},{"facility":"Sanofi-Aventis Investigational Site Number 840183","city":"Los Banos","state":"California","zip":"93635","country":"United States","geoPoint":{"lat":37.05828,"lon":-120.84992}},{"facility":"Sanofi-Aventis Investigational Site Number 840272","city":"Northridge","state":"California","zip":"91325","country":"United States","geoPoint":{"lat":34.22834,"lon":-118.53675}},{"facility":"Sanofi-Aventis Investigational Site Number 840213","city":"Orange","state":"California","zip":"92868","country":"United States","geoPoint":{"lat":33.78779,"lon":-117.85311}},{"facility":"Sanofi-Aventis Investigational Site Number 840009","city":"Redondo Beach","state":"California","zip":"90277","country":"United States","geoPoint":{"lat":33.84918,"lon":-118.38841}},{"facility":"Sanofi-Aventis Investigational Site Number 840298","city":"Riverside","state":"California","zip":"92501","country":"United States","geoPoint":{"lat":33.95335,"lon":-117.39616}},{"facility":"Sanofi-Aventis Investigational Site Number 840264","city":"San Diego","state":"California","zip":"92103","country":"United States","geoPoint":{"lat":32.71533,"lon":-117.15726}},{"facility":"Sanofi-Aventis Investigational Site Number 840275","city":"San Diego","state":"California","zip":"92128","country":"United States","geoPoint":{"lat":32.71533,"lon":-117.15726}},{"facility":"Sanofi-Aventis Investigational Site Number 840103","city":"Santa Ana","state":"California","zip":"92704","country":"United States","geoPoint":{"lat":33.74557,"lon":-117.86783}},{"facility":"Sanofi-Aventis Investigational Site Number 840002","city":"Santa Rosa","state":"California","zip":"95405","country":"United States","geoPoint":{"lat":38.44047,"lon":-122.71443}},{"facility":"Sanofi-Aventis Investigational Site Number 840111","city":"Torrance","state":"California","zip":"90505","country":"United States","geoPoint":{"lat":33.83585,"lon":-118.34063}},{"facility":"Sanofi-Aventis Investigational Site Number 840118","city":"Visalia","state":"California","zip":"93291","country":"United States","geoPoint":{"lat":36.33023,"lon":-119.29206}},{"facility":"Sanofi-Aventis Investigational Site Number 840268","city":"Bridgeport","state":"Connecticut","zip":"06610","country":"United States","geoPoint":{"lat":41.16704,"lon":-73.20483}},{"facility":"Sanofi-Aventis Investigational Site Number 840246","city":"Bay Pines","state":"Florida","zip":"33744","country":"United States","geoPoint":{"lat":27.81419,"lon":-82.77816}},{"facility":"Sanofi-Aventis Investigational Site Number 840066","city":"Beach","state":"Florida","zip":"32168","country":"United States"},{"facility":"Sanofi-Aventis Investigational Site Number 840313","city":"Brandon","state":"Florida","zip":"33511","country":"United States","geoPoint":{"lat":27.9378,"lon":-82.28592}},{"facility":"Sanofi-Aventis Investigational Site Number 840084","city":"Dunnellon","state":"Florida","zip":"34432","country":"United States","geoPoint":{"lat":29.04914,"lon":-82.46093}},{"facility":"Sanofi-Aventis Investigational Site Number 840220","city":"Fort Lauderdale","state":"Florida","zip":"33316","country":"United States","geoPoint":{"lat":26.12231,"lon":-80.14338}},{"facility":"Sanofi-Aventis Investigational Site Number 840138","city":"Ft. Lauderdale","state":"Florida","zip":"33308","country":"United States","geoPoint":{"lat":26.12231,"lon":-80.14338}},{"facility":"Sanofi-Aventis Investigational Site Number 840215","city":"Gainesville","state":"Florida","zip":"32608","country":"United States","geoPoint":{"lat":29.65163,"lon":-82.32483}},{"facility":"Sanofi-Aventis Investigational Site Number 840131","city":"Hollywood","state":"Florida","zip":"33021","country":"United States","geoPoint":{"lat":26.0112,"lon":-80.14949}},{"facility":"Sanofi-Aventis Investigational Site Number 840161","city":"Hollywood","state":"Florida","zip":"33021","country":"United States","geoPoint":{"lat":26.0112,"lon":-80.14949}},{"facility":"Sanofi-Aventis Investigational Site Number 840234","city":"Key West","state":"Florida","zip":"33040","country":"United States","geoPoint":{"lat":24.55524,"lon":-81.78163}},{"facility":"Sanofi-Aventis Investigational Site Number 840112","city":"Lake Mary","state":"Florida","zip":"32746","country":"United States","geoPoint":{"lat":28.75888,"lon":-81.31784}},{"facility":"Sanofi-Aventis Investigational Site Number 840053","city":"Lakeland","state":"Florida","zip":"33805","country":"United States","geoPoint":{"lat":28.03947,"lon":-81.9498}},{"facility":"Sanofi-Aventis Investigational Site Number 840198","city":"Melbourne","state":"Florida","zip":"32901","country":"United States","geoPoint":{"lat":28.08363,"lon":-80.60811}},{"facility":"Sanofi-Aventis Investigational Site Number 840117","city":"Miami","state":"Florida","zip":"33156","country":"United States","geoPoint":{"lat":25.77427,"lon":-80.19366}},{"facility":"Sanofi-Aventis Investigational Site Number 840003","city":"Niceville","state":"Florida","zip":"32578","country":"United States","geoPoint":{"lat":30.51686,"lon":-86.48217}},{"facility":"Sanofi-Aventis Investigational Site Number 840230","city":"Ocala","state":"Florida","zip":"34471","country":"United States","geoPoint":{"lat":29.1872,"lon":-82.14009}},{"facility":"Sanofi-Aventis Investigational Site Number 840202","city":"Orlando","state":"Florida","zip":"32803","country":"United States","geoPoint":{"lat":28.53834,"lon":-81.37924}},{"facility":"Sanofi-Aventis Investigational Site Number 840306","city":"Orlando","state":"Florida","zip":"32822","country":"United States","geoPoint":{"lat":28.53834,"lon":-81.37924}},{"facility":"Sanofi-Aventis Investigational Site Number 840022","city":"Ormond Beach","state":"Florida","zip":"32174","country":"United States","geoPoint":{"lat":29.28581,"lon":-81.05589}},{"facility":"Sanofi-Aventis Investigational Site Number 840110","city":"Palm Harbor","state":"Florida","zip":"34684","country":"United States","geoPoint":{"lat":28.07807,"lon":-82.76371}},{"facility":"Sanofi-Aventis Investigational Site Number 840211","city":"Plantation","state":"Florida","zip":"33317","country":"United States","geoPoint":{"lat":26.13421,"lon":-80.23184}},{"facility":"Sanofi-Aventis Investigational Site Number 840116","city":"Sanford","state":"Florida","zip":"32271","country":"United States","geoPoint":{"lat":28.80041,"lon":-81.27319}},{"facility":"Sanofi-Aventis Investigational Site Number 840243","city":"Spring Hill","state":"Florida","zip":"34609","country":"United States","geoPoint":{"lat":28.47688,"lon":-82.52546}},{"facility":"Sanofi-Aventis Investigational Site Number 840082","city":"St. Petersburg","state":"Florida","zip":"33701","country":"United States","geoPoint":{"lat":27.77086,"lon":-82.67927}},{"facility":"Sanofi-Aventis Investigational Site Number 840012","city":"St. Petersburg","state":"Florida","zip":"33707","country":"United States","geoPoint":{"lat":27.77086,"lon":-82.67927}},{"facility":"Sanofi-Aventis Investigational Site Number 840073","city":"Atlanta","state":"Georgia","zip":"30342","country":"United States","geoPoint":{"lat":33.749,"lon":-84.38798}},{"facility":"Sanofi-Aventis Investigational Site Number 840273","city":"Augusta","state":"Georgia","zip":"30909","country":"United States","geoPoint":{"lat":33.47097,"lon":-81.97484}},{"facility":"Sanofi-Aventis Investigational Site Number 840204","city":"Columbus","state":"Georgia","zip":"31904-5245","country":"United States","geoPoint":{"lat":32.46098,"lon":-84.98771}},{"facility":"Sanofi-Aventis Investigational Site Number 840290","city":"Columbus","state":"Georgia","zip":"31904","country":"United States","geoPoint":{"lat":32.46098,"lon":-84.98771}},{"facility":"Sanofi-Aventis Investigational Site Number 840225","city":"Columbus","state":"Georgia","zip":"31907","country":"United States","geoPoint":{"lat":32.46098,"lon":-84.98771}},{"facility":"Sanofi-Aventis Investigational Site Number 840305","city":"Dunwoody","state":"Georgia","zip":"30338","country":"United States","geoPoint":{"lat":33.94621,"lon":-84.33465}},{"facility":"Sanofi-Aventis Investigational Site Number 840165","city":"Savannah","state":"Georgia","zip":"31405","country":"United States","geoPoint":{"lat":32.08354,"lon":-81.09983}},{"facility":"Sanofi-Aventis Investigational Site Number 840130","city":"Idaho Falls","state":"Idaho","zip":"83404","country":"United States","geoPoint":{"lat":43.46658,"lon":-112.03414}},{"facility":"Sanofi-Aventis Investigational Site Number 840228","city":"Idaho Falls","state":"Idaho","zip":"83404","country":"United States","geoPoint":{"lat":43.46658,"lon":-112.03414}},{"facility":"Sanofi-Aventis Investigational Site Number 840143","city":"Nampa","state":"Idaho","zip":"83686","country":"United States","geoPoint":{"lat":43.54072,"lon":-116.56346}},{"facility":"Sanofi-Aventis Investigational Site Number 840221","city":"Chicago","state":"Illinois","zip":"60637","country":"United States","geoPoint":{"lat":41.85003,"lon":-87.65005}},{"facility":"Sanofi-Aventis Investigational Site Number 840206","city":"Chicago","state":"Illinois","zip":"60664","country":"United States","geoPoint":{"lat":41.85003,"lon":-87.65005}},{"facility":"Sanofi-Aventis Investigational Site Number 840280","city":"Beaver","state":"Indiana","zip":"15009","country":"United States","geoPoint":{"lat":40.90698,"lon":-87.41558}},{"facility":"Sanofi-Aventis Investigational Site Number 840014","city":"Elkhart","state":"Indiana","zip":"46514","country":"United States","geoPoint":{"lat":41.68199,"lon":-85.97667}},{"facility":"Sanofi-Aventis Investigational Site Number 840249","city":"Wichita","state":"Kansas","zip":"67208","country":"United States","geoPoint":{"lat":37.69224,"lon":-97.33754}},{"facility":"Sanofi-Aventis Investigational Site Number 840265","city":"Lexington","state":"Kentucky","zip":"40504","country":"United States","geoPoint":{"lat":37.98869,"lon":-84.47772}},{"facility":"Sanofi-Aventis Investigational Site Number 840047","city":"Alexandria","state":"Louisiana","zip":"SUITE 250","country":"United States","geoPoint":{"lat":31.31129,"lon":-92.44514}},{"facility":"Sanofi-Aventis Investigational Site Number 840218","city":"Jena","state":"Louisiana","zip":"71342","country":"United States","geoPoint":{"lat":31.68323,"lon":-92.13374}},{"facility":"Sanofi-Aventis Investigational Site Number 840247","city":"Lafayette","state":"Louisiana","zip":"70503","country":"United States","geoPoint":{"lat":30.22409,"lon":-92.01984}},{"facility":"Sanofi-Aventis Investigational Site Number 840158","city":"Lake Charles","state":"Louisiana","zip":"70601","country":"United States","geoPoint":{"lat":30.21309,"lon":-93.2044}},{"facility":"Sanofi-Aventis Investigational Site Number 840077","city":"Natchitoches","state":"Louisiana","zip":"71457","country":"United States","geoPoint":{"lat":31.76072,"lon":-93.08627}},{"facility":"Sanofi-Aventis Investigational Site Number 840259","city":"Shreveport","state":"Louisiana","zip":"71103","country":"United States","geoPoint":{"lat":32.52515,"lon":-93.75018}},{"facility":"Sanofi-Aventis Investigational Site Number 840231","city":"Shreveport","state":"Louisiana","zip":"71105","country":"United States","geoPoint":{"lat":32.52515,"lon":-93.75018}},{"facility":"Sanofi-Aventis Investigational Site Number 840232","city":"Shreveport","state":"Louisiana","zip":"71105","country":"United States","geoPoint":{"lat":32.52515,"lon":-93.75018}},{"facility":"Sanofi-Aventis Investigational Site Number 840145","city":"Auburn","state":"Maine","zip":"04210","country":"United States","geoPoint":{"lat":44.09785,"lon":-70.23117}},{"facility":"Sanofi-Aventis Investigational Site Number 840017","city":"Baltimore","state":"Maryland","zip":"21237","country":"United States","geoPoint":{"lat":39.29038,"lon":-76.61219}},{"facility":"Sanofi-Aventis Investigational Site Number 840317","city":"Denton","state":"Maryland","zip":"76201","country":"United States","geoPoint":{"lat":38.88456,"lon":-75.82716}},{"facility":"Sanofi-Aventis Investigational Site Number 840311","city":"Alpena","state":"Michigan","zip":"49707","country":"United States","geoPoint":{"lat":45.06168,"lon":-83.43275}},{"facility":"Sanofi-Aventis Investigational Site Number 840276","city":"Brighton","state":"Michigan","zip":"48114","country":"United States","geoPoint":{"lat":42.52948,"lon":-83.78022}},{"facility":"Sanofi-Aventis Investigational Site Number 840242","city":"Detroit","state":"Michigan","zip":"48236","country":"United States","geoPoint":{"lat":42.33143,"lon":-83.04575}},{"facility":"Sanofi-Aventis Investigational Site Number 840253","city":"Grand Rapids","state":"Michigan","zip":"49503","country":"United States","geoPoint":{"lat":42.96336,"lon":-85.66809}},{"facility":"Sanofi-Aventis Investigational Site Number 840137","city":"St. Clair Shores","state":"Michigan","zip":"48081","country":"United States","geoPoint":{"lat":42.49698,"lon":-82.88881}},{"facility":"Sanofi-Aventis Investigational Site Number 840134","city":"St Cloud","state":"Minnesota","zip":"56303","country":"United States","geoPoint":{"lat":45.5608,"lon":-94.16249}},{"facility":"Sanofi-Aventis Investigational Site Number 840067","city":"Gulfport","state":"Mississippi","zip":"39503","country":"United States","geoPoint":{"lat":30.36742,"lon":-89.09282}},{"facility":"Sanofi-Aventis Investigational Site Number 840006","city":"Picayune","state":"Mississippi","zip":"39466","country":"United States","geoPoint":{"lat":30.52556,"lon":-89.67788}},{"facility":"Sanofi-Aventis Investigational Site Number 840201","city":"St Louis","state":"Missouri","zip":"63104","country":"United States","geoPoint":{"lat":38.62727,"lon":-90.19789}},{"facility":"Sanofi-Aventis Investigational Site Number 840310","city":"St. Louis","state":"Missouri","zip":"63122","country":"United States","geoPoint":{"lat":38.62727,"lon":-90.19789}},{"facility":"Sanofi-Aventis Investigational Site Number 840200","city":"St. Louis","state":"Missouri","zip":"63128","country":"United States","geoPoint":{"lat":38.62727,"lon":-90.19789}},{"facility":"Sanofi-Aventis Investigational Site Number 840323","city":"St. Louis","state":"Missouri","zip":"63141","country":"United States","geoPoint":{"lat":38.62727,"lon":-90.19789}},{"facility":"Sanofi-Aventis Investigational Site Number 840096","city":"Anaconda","state":"Montana","zip":"59711","country":"United States","geoPoint":{"lat":46.12854,"lon":-112.94226}},{"facility":"Sanofi-Aventis Investigational Site Number 840008","city":"Butte","state":"Montana","zip":"59701","country":"United States","geoPoint":{"lat":46.00382,"lon":-112.53474}},{"facility":"Sanofi-Aventis Investigational Site Number 840126","city":"Fremont","state":"Nebraska","zip":"68025","country":"United States","geoPoint":{"lat":41.43333,"lon":-96.49808}},{"facility":"Sanofi-Aventis Investigational Site Number 840051","city":"Las Vegas","state":"Nevada","zip":"89119","country":"United States","geoPoint":{"lat":36.17497,"lon":-115.13722}},{"facility":"Sanofi-Aventis Investigational Site Number 840258","city":"Las Vegas","state":"Nevada","zip":"89144","country":"United States","geoPoint":{"lat":36.17497,"lon":-115.13722}},{"facility":"Sanofi-Aventis Investigational Site Number 840303","city":"Hamilton","state":"New Jersey","zip":"08690","country":"United States","geoPoint":{"lat":40.20706,"lon":-74.08125}},{"facility":"Sanofi-Aventis Investigational Site Number 840109","city":"Linden","state":"New Jersey","zip":"07036","country":"United States","geoPoint":{"lat":40.62205,"lon":-74.24459}},{"facility":"Sanofi-Aventis Investigational Site Number 840024","city":"Morristown","state":"New Jersey","zip":"07962-1956","country":"United States","geoPoint":{"lat":40.79677,"lon":-74.48154}},{"facility":"Sanofi-Aventis Investigational Site Number 840284","city":"Bronx","state":"New York","country":"United States","geoPoint":{"lat":40.84985,"lon":-73.86641}},{"facility":"Sanofi-Aventis Investigational Site Number 840102","city":"Buffalo","state":"New York","zip":"14209","country":"United States","geoPoint":{"lat":42.88645,"lon":-78.87837}},{"facility":"Sanofi-Aventis Investigational Site Number 840152","city":"Johnson City","state":"New York","zip":"13790","country":"United States","geoPoint":{"lat":42.11563,"lon":-75.95881}},{"facility":"Sanofi-Aventis Investigational Site Number 840159","city":"Rochester","state":"New York","zip":"14607","country":"United States","geoPoint":{"lat":43.15478,"lon":-77.61556}},{"facility":"Sanofi-Aventis Investigational Site Number 840056","city":"Westfield","state":"New York","zip":"14787","country":"United States","geoPoint":{"lat":42.32228,"lon":-79.5781}},{"facility":"Sanofi-Aventis Investigational Site Number 840277","city":"Greensboro","state":"North Carolina","zip":"27401","country":"United States","geoPoint":{"lat":36.07264,"lon":-79.79198}},{"facility":"Sanofi-Aventis Investigational Site Number 840196","city":"Greensboro","state":"North Carolina","zip":"27408","country":"United States","geoPoint":{"lat":36.07264,"lon":-79.79198}},{"facility":"Sanofi-Aventis Investigational Site Number 840127","city":"Hickory","state":"North Carolina","zip":"28602","country":"United States","geoPoint":{"lat":35.73319,"lon":-81.3412}},{"facility":"Sanofi-Aventis Investigational Site Number 840150","city":"Raleigh","state":"North Carolina","zip":"27615","country":"United States","geoPoint":{"lat":35.7721,"lon":-78.63861}},{"facility":"Sanofi-Aventis Investigational Site Number 840185","city":"Rocky Mount","state":"North Carolina","zip":"27804","country":"United States","geoPoint":{"lat":35.93821,"lon":-77.79053}},{"facility":"Sanofi-Aventis Investigational Site Number 840020","city":"Fargo","state":"North Dakota","zip":"58103","country":"United States","geoPoint":{"lat":46.87719,"lon":-96.7898}},{"facility":"Sanofi-Aventis Investigational Site Number 840197","city":"Centerville","state":"Ohio","zip":"45459","country":"United States","geoPoint":{"lat":39.62839,"lon":-84.15938}},{"facility":"Sanofi-Aventis Investigational Site Number 840074","city":"Cincinnati","state":"Ohio","zip":"45267-0525","country":"United States","geoPoint":{"lat":39.12713,"lon":-84.51435}},{"facility":"Sanofi-Aventis Investigational Site Number 840146","city":"Cleveland","state":"Ohio","zip":"44109","country":"United States","geoPoint":{"lat":41.4995,"lon":-81.69541}},{"facility":"Sanofi-Aventis Investigational Site Number 840292","city":"Gallipolis","state":"Ohio","zip":"45631","country":"United States","geoPoint":{"lat":38.8098,"lon":-82.20237}},{"facility":"Sanofi-Aventis Investigational Site Number 840026","city":"Mason","state":"Ohio","zip":"45040","country":"United States","geoPoint":{"lat":39.36006,"lon":-84.30994}},{"facility":"Sanofi-Aventis Investigational Site Number 840233","city":"Toledo","state":"Ohio","zip":"43608","country":"United States","geoPoint":{"lat":41.66394,"lon":-83.55521}},{"facility":"Sanofi-Aventis Investigational Site Number 840064","city":"Wadsworth","state":"Ohio","zip":"44281","country":"United States","geoPoint":{"lat":41.02561,"lon":-81.72985}},{"facility":"Sanofi-Aventis Investigational Site Number 840045","city":"Oklahoma City","state":"Oklahoma","zip":"73104","country":"United States","geoPoint":{"lat":35.46756,"lon":-97.51643}},{"facility":"Sanofi-Aventis Investigational Site Number 840133","city":"Tulsa","state":"Oklahoma","zip":"74104","country":"United States","geoPoint":{"lat":36.15398,"lon":-95.99277}},{"facility":"Sanofi-Aventis Investigational Site Number 840113","city":"Bend","state":"Oregon","zip":"97701","country":"United States","geoPoint":{"lat":44.05817,"lon":-121.31531}},{"facility":"Sanofi-Aventis Investigational Site Number 840257","city":"Portland","state":"Oregon","zip":"97220","country":"United States","geoPoint":{"lat":45.52345,"lon":-122.67621}},{"facility":"Sanofi-Aventis Investigational Site Number 840304","city":"Indiana","state":"Pennsylvania","zip":"15701","country":"United States","geoPoint":{"lat":40.62146,"lon":-79.15253}},{"facility":"Sanofi-Aventis Investigational Site Number 840128","city":"Philadelphia","state":"Pennsylvania","zip":"19102","country":"United States","geoPoint":{"lat":39.95233,"lon":-75.16379}},{"facility":"Sanofi-Aventis Investigational Site Number 840160","city":"Philadelphia","state":"Pennsylvania","zip":"19143","country":"United States","geoPoint":{"lat":39.95233,"lon":-75.16379}},{"facility":"Sanofi-Aventis Investigational Site Number 840339","city":"Philadelphia","state":"Pennsylvania","zip":"19149","country":"United States","geoPoint":{"lat":39.95233,"lon":-75.16379}},{"facility":"Sanofi-Aventis Investigational Site Number 840181","city":"Pittsburgh","state":"Pennsylvania","zip":"15240","country":"United States","geoPoint":{"lat":40.44062,"lon":-79.99589}},{"facility":"Sanofi-Aventis Investigational Site Number 840229","city":"Scotland","state":"Pennsylvania","zip":"17254","country":"United States","geoPoint":{"lat":39.9687,"lon":-77.58721}},{"facility":"Sanofi-Aventis Investigational Site Number 840072","city":"Stoneboro","state":"Pennsylvania","zip":"16153","country":"United States","geoPoint":{"lat":41.33922,"lon":-80.10506}},{"facility":"Sanofi-Aventis Investigational Site Number 840248","city":"Cranston","state":"Rhode Island","zip":"02920","country":"United States","geoPoint":{"lat":41.77982,"lon":-71.43728}},{"facility":"Sanofi-Aventis Investigational Site Number 840261","city":"Anderson","state":"South Carolina","zip":"29621","country":"United States","geoPoint":{"lat":34.50344,"lon":-82.65013}},{"facility":"Sanofi-Aventis Investigational Site Number 840297","city":"Anderson","state":"South Carolina","zip":"29621","country":"United States","geoPoint":{"lat":34.50344,"lon":-82.65013}},{"facility":"Sanofi-Aventis Investigational Site Number 840172","city":"Camden","state":"South Carolina","zip":"29020","country":"United States","geoPoint":{"lat":34.24654,"lon":-80.60702}},{"facility":"Sanofi-Aventis Investigational Site Number 840168","city":"Columbia","state":"South Carolina","zip":"29201","country":"United States","geoPoint":{"lat":34.00071,"lon":-81.03481}},{"facility":"Sanofi-Aventis Investigational Site Number 840122","city":"Manning","state":"South Carolina","zip":"29102","country":"United States","geoPoint":{"lat":33.69516,"lon":-80.21091}},{"facility":"Sanofi-Aventis Investigational Site Number 840085","city":"Newberry","state":"South Carolina","zip":"29108","country":"United States","geoPoint":{"lat":34.27458,"lon":-81.61872}},{"facility":"Sanofi-Aventis Investigational Site Number 840189","city":"Pelzer","state":"South Carolina","zip":"29669","country":"United States","geoPoint":{"lat":34.64234,"lon":-82.45596}},{"facility":"Sanofi-Aventis Investigational Site Number 840032","city":"Fort Meade","state":"South Dakota","zip":"57741","country":"United States"},{"facility":"Sanofi-Aventis Investigational Site Number 840062","city":"Athens","state":"Tennessee","zip":"37303","country":"United States","geoPoint":{"lat":35.44285,"lon":-84.59299}},{"facility":"Sanofi-Aventis Investigational Site Number 840048","city":"Bristol","state":"Tennessee","zip":"37620","country":"United States","geoPoint":{"lat":36.59511,"lon":-82.18874}},{"facility":"Sanofi-Aventis Investigational Site Number 840052","city":"Bristol","state":"Tennessee","zip":"37620","country":"United States","geoPoint":{"lat":36.59511,"lon":-82.18874}},{"facility":"Sanofi-Aventis Investigational Site Number 840104","city":"Cleveland","state":"Tennessee","zip":"37312","country":"United States","geoPoint":{"lat":35.15952,"lon":-84.87661}},{"facility":"Sanofi-Aventis Investigational Site Number 840129","city":"Johnson City","state":"Tennessee","zip":"37614","country":"United States","geoPoint":{"lat":36.31344,"lon":-82.35347}},{"facility":"Sanofi-Aventis Investigational Site Number 840269","city":"Nashville","state":"Tennessee","zip":"37203","country":"United States","geoPoint":{"lat":36.16589,"lon":-86.78444}},{"facility":"Sanofi-Aventis Investigational Site Number 840076","city":"Amarillo","state":"Texas","zip":"79106","country":"United States","geoPoint":{"lat":35.222,"lon":-101.8313}},{"facility":"Sanofi-Aventis Investigational Site Number 840252","city":"Corsicana","state":"Texas","zip":"75110","country":"United States","geoPoint":{"lat":32.09543,"lon":-96.46887}},{"facility":"Sanofi-Aventis Investigational Site Number 840286","city":"Houston","state":"Texas","zip":"77070","country":"United States","geoPoint":{"lat":29.76328,"lon":-95.36327}},{"facility":"Sanofi-Aventis Investigational Site Number 840132","city":"Irving","state":"Texas","zip":"75061","country":"United States","geoPoint":{"lat":32.81402,"lon":-96.94889}},{"facility":"Sanofi-Aventis Investigational Site Number 840005","city":"Odessa","state":"Texas","zip":"79761","country":"United States","geoPoint":{"lat":31.84568,"lon":-102.36764}},{"facility":"Sanofi-Aventis Investigational Site Number 840289","city":"Odessa","state":"Texas","zip":"79761","country":"United States","geoPoint":{"lat":31.84568,"lon":-102.36764}},{"facility":"Sanofi-Aventis Investigational Site Number 840186","city":"San Antonio","state":"Texas","zip":"78234","country":"United States","geoPoint":{"lat":29.42412,"lon":-98.49363}},{"facility":"Sanofi-Aventis Investigational Site Number 840194","city":"San Antonio","state":"Texas","zip":"78238","country":"United States","geoPoint":{"lat":29.42412,"lon":-98.49363}},{"facility":"Sanofi-Aventis Investigational Site Number 840236","city":"Temple","state":"Texas","zip":"76508","country":"United States","geoPoint":{"lat":31.09823,"lon":-97.34278}},{"facility":"Sanofi-Aventis Investigational Site Number 840011","city":"Victoria","state":"Texas","zip":"77901","country":"United States","geoPoint":{"lat":28.80527,"lon":-97.0036}},{"facility":"Sanofi-Aventis Investigational Site Number 840285","city":"Wichita Falls","state":"Texas","zip":"76309","country":"United States","geoPoint":{"lat":33.91371,"lon":-98.49339}},{"facility":"Sanofi-Aventis Investigational Site Number 840223","city":"Clinton","state":"Utah","zip":"84015","country":"United States","geoPoint":{"lat":41.13967,"lon":-112.0505}},{"facility":"Sanofi-Aventis Investigational Site Number 840238","city":"Salt Lake City","state":"Utah","zip":"84124","country":"United States","geoPoint":{"lat":40.76078,"lon":-111.89105}},{"facility":"Sanofi-Aventis Investigational Site Number 840308","city":"Salt Lake City","state":"Utah","zip":"84124","country":"United States","geoPoint":{"lat":40.76078,"lon":-111.89105}},{"facility":"Sanofi-Aventis Investigational Site Number 840068","city":"Salem","state":"Virginia","zip":"24153","country":"United States","geoPoint":{"lat":37.29347,"lon":-80.05476}},{"facility":"Sanofi-Aventis Investigational Site Number 840219","city":"Springfield","state":"Virginia","zip":"22151","country":"United States","geoPoint":{"lat":38.78928,"lon":-77.1872}},{"facility":"Sanofi-Aventis Investigational Site Number 840058","city":"Everett","state":"Washington","zip":"98201","country":"United States","geoPoint":{"lat":47.97898,"lon":-122.20208}},{"facility":"Sanofi-Aventis Investigational Site Number 840123","city":"Seattle","state":"Washington","zip":"98111","country":"United States","geoPoint":{"lat":47.60621,"lon":-122.33207}},{"facility":"Sanofi-Aventis Investigational Site Number 840019","city":"Tacoma","state":"Washington","zip":"98405","country":"United States","geoPoint":{"lat":47.25288,"lon":-122.44429}},{"facility":"Sanofi-Aventis Investigational Site Number 840256","city":"Beloit","state":"Wisconsin","zip":"53511","country":"United States","geoPoint":{"lat":42.50835,"lon":-89.03178}},{"facility":"Sanofi-Aventis Investigational Site Number 840293","city":"Madison","state":"Wisconsin","zip":"53713","country":"United States","geoPoint":{"lat":43.07305,"lon":-89.40123}},{"facility":"Sanofi-Aventis Investigational Site Number 840282","city":"Wauwatosa","state":"Wisconsin","zip":"53226","country":"United States","geoPoint":{"lat":43.04946,"lon":-88.00759}},{"facility":"Sanofi-Aventis Investigational Site Number 032007","city":"Buenos Aires","zip":"1221","country":"Argentina","geoPoint":{"lat":-34.61315,"lon":-58.37723}},{"facility":"Sanofi-Aventis Investigational Site Number 032011","city":"Buenos Aires","zip":"1416","country":"Argentina","geoPoint":{"lat":-34.61315,"lon":-58.37723}},{"facility":"Sanofi-Aventis Investigational Site Number 032001","city":"Buenos Aires","zip":"C1428AQK","country":"Argentina","geoPoint":{"lat":-34.61315,"lon":-58.37723}},{"facility":"Sanofi-Aventis Investigational Site Number 032005","city":"Buenos Aires","zip":"C1437JCP","country":"Argentina","geoPoint":{"lat":-34.61315,"lon":-58.37723}},{"facility":"Sanofi-Aventis Investigational Site Number 032009","city":"Capital Federal","zip":"C1094AAD","country":"Argentina","geoPoint":{"lat":-34.61315,"lon":-58.37723}},{"facility":"Sanofi-Aventis Investigational Site Number 032012","city":"Corrientes","zip":"3400","country":"Argentina","geoPoint":{"lat":-27.4806,"lon":-58.8341}},{"facility":"Sanofi-Aventis Investigational Site Number 032006","city":"Mar Del Plata","zip":"7600","country":"Argentina","geoPoint":{"lat":-38.00228,"lon":-57.55754}},{"facility":"Sanofi-Aventis Investigational Site Number 032014","city":"Moron","country":"Argentina","geoPoint":{"lat":-34.6509,"lon":-58.61956}},{"facility":"Sanofi-Aventis Investigational Site Number 032016","city":"Salta","zip":"4400","country":"Argentina","geoPoint":{"lat":-24.7859,"lon":-65.41166}},{"facility":"Sanofi-Aventis Investigational Site Number 032010","city":"Zarate","zip":"2800","country":"Argentina","geoPoint":{"lat":-34.09814,"lon":-59.02858}},{"facility":"Sanofi-Aventis Investigational Site Number 036006","city":"Adelaide","zip":"5035","country":"Australia","geoPoint":{"lat":-34.92866,"lon":138.59863}},{"facility":"Sanofi-Aventis Investigational Site Number 036003","city":"Auchenflower","zip":"4066","country":"Australia","geoPoint":{"lat":-27.47443,"lon":152.99213}},{"facility":"Sanofi-Aventis Investigational Site Number 036008","city":"Box Hill","zip":"3128","country":"Australia","geoPoint":{"lat":-37.81887,"lon":145.12545}},{"facility":"Sanofi-Aventis Investigational Site Number 036005","city":"Coffs Harbour","zip":"2450","country":"Australia","geoPoint":{"lat":-30.29626,"lon":153.11351}},{"facility":"Sanofi-Aventis Investigational Site Number 036001","city":"Kippa Ring","zip":"4021","country":"Australia","geoPoint":{"lat":-27.22586,"lon":153.0835}},{"facility":"Sanofi-Aventis Investigational Site Number 036002","city":"Kippa Ring","zip":"4021","country":"Australia","geoPoint":{"lat":-27.22586,"lon":153.0835}},{"facility":"Sanofi-Aventis Investigational Site Number 036009","city":"Launceston","zip":"7250","country":"Australia","geoPoint":{"lat":-41.43876,"lon":147.13467}},{"facility":"Sanofi-Aventis Investigational Site Number 036010","city":"Woden","zip":"2606","country":"Australia"},{"facility":"Sanofi-Aventis Investigational Site Number 040001","city":"Graz","zip":"8036","country":"Austria","geoPoint":{"lat":47.06667,"lon":15.45}},{"facility":"Sanofi-Aventis Investigational Site Number 040004","city":"Linz","zip":"4021","country":"Austria","geoPoint":{"lat":48.30639,"lon":14.28611}},{"facility":"Sanofi-Aventis Investigational Site Number 112001","city":"Minsk","zip":"220013","country":"Belarus","geoPoint":{"lat":53.9,"lon":27.56667}},{"facility":"Sanofi-Aventis Investigational Site Number 112002","city":"Minsk","zip":"220116","country":"Belarus","geoPoint":{"lat":53.9,"lon":27.56667}},{"facility":"Sanofi-Aventis Investigational Site Number 112003","city":"Minsk","zip":"220116","country":"Belarus","geoPoint":{"lat":53.9,"lon":27.56667}},{"facility":"Sanofi-Aventis Investigational Site Number 112005","city":"Minsk","zip":"220600","country":"Belarus","geoPoint":{"lat":53.9,"lon":27.56667}},{"facility":"Sanofi-Aventis Investigational Site Number 076019","city":"Belo Horizonte","zip":"30150-221","country":"Brazil","geoPoint":{"lat":-19.92083,"lon":-43.93778}},{"facility":"Sanofi-Aventis Investigational Site Number 076011","city":"Campina Grande Do Sul","zip":"83430-000","country":"Brazil","geoPoint":{"lat":-25.30556,"lon":-49.05528}},{"facility":"Sanofi-Aventis Investigational Site Number 076007","city":"Campinas","zip":"13059-740","country":"Brazil","geoPoint":{"lat":-22.90556,"lon":-47.06083}},{"facility":"Sanofi-Aventis Investigational Site Number 076013","city":"Campinas","zip":"13083-190","country":"Brazil","geoPoint":{"lat":-22.90556,"lon":-47.06083}},{"facility":"Sanofi-Aventis Investigational Site Number 076001","city":"Curitiba","zip":"80730-150","country":"Brazil","geoPoint":{"lat":-25.42778,"lon":-49.27306}},{"facility":"Sanofi-Aventis Investigational Site Number 076017","city":"Goiania","zip":"74223-130","country":"Brazil","geoPoint":{"lat":-16.67861,"lon":-49.25389}},{"facility":"Sanofi-Aventis Investigational Site Number 076016","city":"Goiania","zip":"74605-020","country":"Brazil","geoPoint":{"lat":-16.67861,"lon":-49.25389}},{"facility":"Sanofi-Aventis Investigational Site Number 076018","city":"Maceio","zip":"57021-500","country":"Brazil","geoPoint":{"lat":-9.66583,"lon":-35.73528}},{"facility":"Sanofi-Aventis Investigational Site Number 076012","city":"Porto Alegre","zip":"90610-000","country":"Brazil","geoPoint":{"lat":-30.03306,"lon":-51.23}},{"facility":"Sanofi-Aventis Investigational Site Number 076008","city":"Porto Alegre","zip":"90810-120","country":"Brazil","geoPoint":{"lat":-30.03306,"lon":-51.23}},{"facility":"Sanofi-Aventis Investigational Site Number 076014","city":"Porto Alegre","zip":"91350 200","country":"Brazil","geoPoint":{"lat":-30.03306,"lon":-51.23}},{"facility":"Sanofi-Aventis Investigational Site Number 076009","city":"Recife","zip":"52051-380","country":"Brazil","geoPoint":{"lat":-8.05389,"lon":-34.88111}},{"facility":"Sanofi-Aventis Investigational Site Number 076005","city":"Sao Jose Do Rio Preto","zip":"15015-210","country":"Brazil","geoPoint":{"lat":-20.81972,"lon":-49.37944}},{"facility":"Sanofi-Aventis Investigational Site Number 076010","city":"Sao Paulo","zip":"04024-002","country":"Brazil","geoPoint":{"lat":-23.5475,"lon":-46.63611}},{"facility":"Sanofi-Aventis Investigational Site Number 076015","city":"Uberlandia","zip":"38400 299","country":"Brazil","geoPoint":{"lat":-18.91861,"lon":-48.27722}},{"facility":"Sanofi-Aventis Investigational Site Number 100004","city":"Pleven","zip":"5800","country":"Bulgaria","geoPoint":{"lat":43.41667,"lon":24.61667}},{"facility":"Sanofi-Aventis Investigational Site Number 100005","city":"Plovdiv","zip":"4003","country":"Bulgaria","geoPoint":{"lat":42.15,"lon":24.75}},{"facility":"Sanofi-Aventis Investigational Site Number 100001","city":"Sofia","zip":"1309","country":"Bulgaria","geoPoint":{"lat":42.69751,"lon":23.32415}},{"facility":"Sanofi-Aventis Investigational Site Number 100002","city":"Sofia","zip":"1606","country":"Bulgaria","geoPoint":{"lat":42.69751,"lon":23.32415}},{"facility":"Sanofi-Aventis Investigational Site Number 100003","city":"Sofia","zip":"1618","country":"Bulgaria","geoPoint":{"lat":42.69751,"lon":23.32415}},{"facility":"Sanofi-Aventis Investigational Site Number 124014","city":"London","zip":"N6A 5A5","country":"Canada","geoPoint":{"lat":42.98339,"lon":-81.23304}},{"facility":"Sanofi-Aventis Investigational Site Number 124006","city":"Newmarket","zip":"L3Y 8C3","country":"Canada","geoPoint":{"lat":44.05011,"lon":-79.46631}},{"facility":"Sanofi-Aventis Investigational Site Number 124012","city":"Quebec","zip":"G1V 4G5","country":"Canada","geoPoint":{"lat":46.81228,"lon":-71.21454}},{"facility":"Sanofi-Aventis Investigational Site Number 124011","city":"Toronto","zip":"M5G 2C4","country":"Canada","geoPoint":{"lat":43.70011,"lon":-79.4163}},{"facility":"Sanofi-Aventis Investigational Site Number 152007","city":"Santiago","zip":"750-0691","country":"Chile","geoPoint":{"lat":-33.45694,"lon":-70.64827}},{"facility":"Sanofi-Aventis Investigational Site Number 152001","city":"Santiago","zip":"8053095","country":"Chile","geoPoint":{"lat":-33.45694,"lon":-70.64827}},{"facility":"Sanofi-Aventis Investigational Site Number 152003","city":"Santiago","country":"Chile","geoPoint":{"lat":-33.45694,"lon":-70.64827}},{"facility":"Sanofi-Aventis Investigational Site Number 152004","city":"Santiago","country":"Chile","geoPoint":{"lat":-33.45694,"lon":-70.64827}},{"facility":"Sanofi-Aventis Investigational Site Number 152005","city":"Santiago","country":"Chile","geoPoint":{"lat":-33.45694,"lon":-70.64827}},{"facility":"Sanofi-Aventis Investigational Site Number 152008","city":"Santiago","country":"Chile","geoPoint":{"lat":-33.45694,"lon":-70.64827}},{"facility":"Sanofi-Aventis Investigational Site Number 152009","city":"Viña Del Mar","zip":"257-0017","country":"Chile","geoPoint":{"lat":-33.02457,"lon":-71.55183}},{"facility":"Sanofi-Aventis Investigational Site Number 152006","city":"Viña Del Mar","country":"Chile","geoPoint":{"lat":-33.02457,"lon":-71.55183}},{"facility":"Sanofi-Aventis Investigational Site Number 170003","city":"Bogota","country":"Colombia","geoPoint":{"lat":4.60971,"lon":-74.08175}},{"facility":"Sanofi-Aventis Investigational Site Number 170006","city":"Bogota","country":"Colombia","geoPoint":{"lat":4.60971,"lon":-74.08175}},{"facility":"Sanofi-Aventis Investigational Site Number 170001","city":"Bucaramanga","country":"Colombia","geoPoint":{"lat":7.12539,"lon":-73.1198}},{"facility":"Sanofi-Aventis Investigational Site Number 170005","city":"Envigado-Antioquia","country":"Colombia"},{"facility":"Sanofi-Aventis Investigational Site Number 170002","city":"Medellin","country":"Colombia","geoPoint":{"lat":6.25184,"lon":-75.56359}},{"facility":"Sanofi-Aventis Investigational Site Number 188004","city":"San José","country":"Costa Rica","geoPoint":{"lat":9.93333,"lon":-84.08333}},{"facility":"Sanofi-Aventis Investigational Site Number 191003","city":"Split","zip":"21000","country":"Croatia","geoPoint":{"lat":43.50891,"lon":16.43915}},{"facility":"Sanofi-Aventis Investigational Site Number 191001","city":"Zagreb","zip":"10000","country":"Croatia","geoPoint":{"lat":45.81444,"lon":15.97798}},{"facility":"Sanofi-Aventis Investigational Site Number 191004","city":"Zagreb","zip":"10000","country":"Croatia","geoPoint":{"lat":45.81444,"lon":15.97798}},{"facility":"Sanofi-Aventis Investigational Site Number 203005","city":"Chomutov","zip":"43012","country":"Czech Republic","geoPoint":{"lat":50.46048,"lon":13.41779}},{"facility":"Sanofi-Aventis Investigational Site Number 203003","city":"Jihlava","zip":"58633","country":"Czech Republic","geoPoint":{"lat":49.3961,"lon":15.59124}},{"facility":"Sanofi-Aventis Investigational Site Number 203009","city":"Ostrava Vitkovice","zip":"70300","country":"Czech Republic","geoPoint":{"lat":49.83465,"lon":18.28204}},{"facility":"Sanofi-Aventis Investigational Site Number 203001","city":"Pardubice","zip":"53203","country":"Czech Republic","geoPoint":{"lat":50.04075,"lon":15.77659}},{"facility":"Sanofi-Aventis Investigational Site Number 203011","city":"Plzen - Bory","zip":"30599","country":"Czech Republic","geoPoint":{"lat":49.74747,"lon":13.37759}},{"facility":"Sanofi-Aventis Investigational Site Number 203002","city":"Praha 2","zip":"12808","country":"Czech Republic","geoPoint":{"lat":50.08804,"lon":14.42076}},{"facility":"Sanofi-Aventis Investigational Site Number 203004","city":"Praha 4","zip":"14059","country":"Czech Republic","geoPoint":{"lat":50.08804,"lon":14.42076}},{"facility":"Sanofi-Aventis Investigational Site Number 203010","city":"Praha 6","zip":"16902","country":"Czech Republic","geoPoint":{"lat":50.08804,"lon":14.42076}},{"facility":"Sanofi-Aventis Investigational Site Number 203006","city":"Prostejov","zip":"796 04","country":"Czech Republic","geoPoint":{"lat":49.47188,"lon":17.11184}},{"facility":"Sanofi-Aventis Investigational Site Number 203008","city":"Usti Nad Orlici","zip":"56218","country":"Czech Republic","geoPoint":{"lat":49.97387,"lon":16.39361}},{"facility":"Sanofi-Aventis Investigational Site Number 208002","city":"Glostrup","zip":"2600","country":"Denmark","geoPoint":{"lat":55.6666,"lon":12.40377}},{"facility":"Sanofi-Aventis Investigational Site Number 208001","city":"Hellerup","zip":"2900","country":"Denmark","geoPoint":{"lat":55.73204,"lon":12.57093}},{"facility":"Sanofi-Aventis Investigational Site Number 208007","city":"Hvidovre","zip":"2650","country":"Denmark","geoPoint":{"lat":55.65719,"lon":12.47364}},{"facility":"Sanofi-Aventis Investigational Site Number 208003","city":"København S","zip":"2300","country":"Denmark","geoPoint":{"lat":55.67594,"lon":12.56553}},{"facility":"Sanofi-Aventis Investigational Site Number 208004","city":"Odense","zip":"5000","country":"Denmark","geoPoint":{"lat":55.39594,"lon":10.38831}},{"facility":"Sanofi-Aventis Investigational Site Number 208006","city":"Roskilde","zip":"4000","country":"Denmark","geoPoint":{"lat":55.64152,"lon":12.08035}},{"facility":"Sanofi-Aventis Investigational Site Number 208005","city":"Svendborg","zip":"5700","country":"Denmark","geoPoint":{"lat":55.05982,"lon":10.60677}},{"facility":"Sanofi-Aventis Investigational Site Number 818002","city":"Alexandria","country":"Egypt","geoPoint":{"lat":31.21564,"lon":29.95527}},{"facility":"Sanofi-Aventis Investigational Site Number 818003","city":"Alexandria","country":"Egypt","geoPoint":{"lat":31.21564,"lon":29.95527}},{"facility":"Sanofi-Aventis Investigational Site Number 818004","city":"Alexandria","country":"Egypt","geoPoint":{"lat":31.21564,"lon":29.95527}},{"facility":"Sanofi-Aventis Investigational Site Number 818001","city":"Cairo","country":"Egypt","geoPoint":{"lat":30.06263,"lon":31.24967}},{"facility":"Sanofi-Aventis Investigational Site Number 233003","city":"Tallinn","zip":"10138","country":"Estonia","geoPoint":{"lat":59.43696,"lon":24.75353}},{"facility":"Sanofi-Aventis Investigational Site Number 233004","city":"Tallinn","zip":"13415","country":"Estonia","geoPoint":{"lat":59.43696,"lon":24.75353}},{"facility":"Sanofi-Aventis Investigational Site Number 233001","city":"Tallinn","zip":"13419","country":"Estonia","geoPoint":{"lat":59.43696,"lon":24.75353}},{"facility":"Sanofi-Aventis Investigational Site Number 233002","city":"Tartu","zip":"50410","country":"Estonia","geoPoint":{"lat":58.38062,"lon":26.72509}},{"facility":"Sanofi-Aventis Investigational Site Number 246001","city":"Helsinki","zip":"00290","country":"Finland","geoPoint":{"lat":60.16952,"lon":24.93545}},{"facility":"Sanofi-Aventis Investigational Site Number 250028","city":"Abbeville","zip":"80142","country":"France","geoPoint":{"lat":50.1,"lon":1.83333}},{"facility":"Sanofi-Aventis Investigational Site Number 250012","city":"Albi Cedex 9","zip":"81013","country":"France","geoPoint":{"lat":43.9298,"lon":2.148}},{"facility":"Sanofi-Aventis Investigational Site Number 250034","city":"Allauch","zip":"13190","country":"France","geoPoint":{"lat":43.33573,"lon":5.48201}},{"facility":"Sanofi-Aventis Investigational Site Number 250031","city":"Belfort Cedex","zip":"90016","country":"France","geoPoint":{"lat":47.63333,"lon":6.86667}},{"facility":"Sanofi-Aventis Investigational Site Number 250011","city":"Bordeaux","zip":"33076","country":"France","geoPoint":{"lat":44.84044,"lon":-0.5805}},{"facility":"Sanofi-Aventis Investigational Site Number 250010","city":"Brest Cedex 2","zip":"29609","country":"France","geoPoint":{"lat":48.3903,"lon":-4.48628}},{"facility":"Sanofi-Aventis Investigational Site Number 250021","city":"Brest","zip":"29609","country":"France","geoPoint":{"lat":48.3903,"lon":-4.48628}},{"facility":"Sanofi-Aventis Investigational Site Number 250035","city":"Bron","zip":"69677","country":"France","geoPoint":{"lat":45.73333,"lon":4.91667}},{"facility":"Sanofi-Aventis Investigational Site Number 250022","city":"Cholet Cedex","zip":"49300","country":"France","geoPoint":{"lat":47.06667,"lon":-0.88333}},{"facility":"Sanofi-Aventis Investigational Site Number 250018","city":"Dijon Cedex","zip":"21034","country":"France","geoPoint":{"lat":47.31667,"lon":5.01667}},{"facility":"Sanofi-Aventis Investigational Site Number 250006","city":"Dijon","zip":"21033","country":"France","geoPoint":{"lat":47.31667,"lon":5.01667}},{"facility":"Sanofi-Aventis Investigational Site Number 250004","city":"La Rochelle","zip":"17019","country":"France","geoPoint":{"lat":46.16667,"lon":-1.15}},{"facility":"Sanofi-Aventis Investigational Site Number 250029","city":"Le Chesnay Cedex","zip":"78187","country":"France","geoPoint":{"lat":48.8222,"lon":2.12213}},{"facility":"Sanofi-Aventis Investigational Site Number 250019","city":"Lille","zip":"59020","country":"France","geoPoint":{"lat":50.63297,"lon":3.05858}},{"facility":"Sanofi-Aventis Investigational Site Number 250015","city":"Lille","zip":"59037","country":"France","geoPoint":{"lat":50.63297,"lon":3.05858}},{"facility":"Sanofi-Aventis Investigational Site Number 250030","city":"Metz Tessy","zip":"74370","country":"France","geoPoint":{"lat":45.93406,"lon":6.10826}},{"facility":"Sanofi-Aventis Investigational Site Number 250003","city":"Montpellier","zip":"34295","country":"France","geoPoint":{"lat":43.61092,"lon":3.87723}},{"facility":"Sanofi-Aventis Investigational Site Number 250032","city":"Montpellier","zip":"59523","country":"France","geoPoint":{"lat":43.61092,"lon":3.87723}},{"facility":"Sanofi-Aventis Investigational Site Number 250016","city":"Nice Cedex","zip":"06006","country":"France","geoPoint":{"lat":43.70313,"lon":7.26608}},{"facility":"Sanofi-Aventis Investigational Site Number 250014","city":"Paris Cedex 13","zip":"75651","country":"France","geoPoint":{"lat":48.85341,"lon":2.3488}},{"facility":"Sanofi-Aventis Investigational Site Number 250008","city":"Paris Cedex 14","zip":"75674","country":"France","geoPoint":{"lat":48.85341,"lon":2.3488}},{"facility":"Sanofi-Aventis Investigational Site Number 250001","city":"Paris","zip":"75018","country":"France","geoPoint":{"lat":48.85341,"lon":2.3488}},{"facility":"Sanofi-Aventis Investigational Site Number 250005","city":"Saint Etienne Cedex 2","zip":"42055","country":"France","geoPoint":{"lat":45.43389,"lon":4.39}},{"facility":"Sanofi-Aventis Investigational Site Number 250026","city":"Toulouse Cedex 9","zip":"31059","country":"France","geoPoint":{"lat":43.60426,"lon":1.44367}},{"facility":"Sanofi-Aventis Investigational Site Number 250027","city":"Tours Cedex 1","zip":"37044","country":"France","geoPoint":{"lat":47.38333,"lon":0.68333}},{"facility":"Sanofi-Aventis Investigational Site Number 250002","city":"Vandoeuvre Les Nancy Cedex","zip":"54511","country":"France","geoPoint":{"lat":48.65,"lon":6.18333}},{"facility":"Sanofi-Aventis Investigational Site Number 300009","city":"Athens","zip":"11521","country":"Greece","geoPoint":{"lat":37.97945,"lon":23.71622}},{"facility":"Sanofi-Aventis Investigational Site Number 300007","city":"Athens","zip":"11527","country":"Greece","geoPoint":{"lat":37.97945,"lon":23.71622}},{"facility":"Sanofi-Aventis Investigational Site Number 300002","city":"Athens","zip":"11538","country":"Greece","geoPoint":{"lat":37.97945,"lon":23.71622}},{"facility":"Sanofi-Aventis Investigational Site Number 300005","city":"Athens","country":"Greece","geoPoint":{"lat":37.97945,"lon":23.71622}},{"facility":"Sanofi-Aventis Investigational Site Number 300006","city":"Chalkida","zip":"34 100","country":"Greece","geoPoint":{"lat":38.46354,"lon":23.60284}},{"facility":"Sanofi-Aventis Investigational Site Number 300004","city":"Chios","country":"Greece","geoPoint":{"lat":38.36778,"lon":26.13583}},{"facility":"Sanofi-Aventis Investigational Site Number 300008","city":"Elefsina","zip":"19600","country":"Greece","geoPoint":{"lat":38.04135,"lon":23.54295}},{"facility":"Sanofi-Aventis Investigational Site Number 320002","city":"Guatemala","zip":"01010","country":"Guatemala","geoPoint":{"lat":14.64072,"lon":-90.51327}},{"facility":"Sanofi-Aventis Investigational Site Number 320001","city":"Guatemala","zip":"01014","country":"Guatemala","geoPoint":{"lat":14.64072,"lon":-90.51327}},{"facility":"Sanofi-Aventis Investigational Site Number 320003","city":"Guatemala","zip":"01014","country":"Guatemala","geoPoint":{"lat":14.64072,"lon":-90.51327}},{"facility":"Sanofi-Aventis Investigational Site Number 320004","city":"Guatemala","country":"Guatemala","geoPoint":{"lat":14.64072,"lon":-90.51327}},{"facility":"Sanofi-Aventis Investigational Site Number 356001","city":"Ahmedabad","zip":"380 015","country":"India","geoPoint":{"lat":23.02579,"lon":72.58727}},{"facility":"Sanofi-Aventis Investigational Site Number 356010","city":"Ahmedabad","zip":"380054","country":"India","geoPoint":{"lat":23.02579,"lon":72.58727}},{"facility":"Sanofi-Aventis Investigational Site Number 356015","city":"Bangalore","zip":"560034","country":"India","geoPoint":{"lat":12.97194,"lon":77.59369}},{"facility":"Sanofi-Aventis Investigational Site Number 356009","city":"Bangalore","zip":"562 150","country":"India","geoPoint":{"lat":12.97194,"lon":77.59369}},{"facility":"Sanofi-Aventis Investigational Site Number 356005","city":"Chennai","zip":"600 037","country":"India","geoPoint":{"lat":13.08784,"lon":80.27847}},{"facility":"Sanofi-Aventis Investigational Site Number 356002","city":"Coimbatore","zip":"641004","country":"India","geoPoint":{"lat":11.00555,"lon":76.96612}},{"facility":"Sanofi-Aventis Investigational Site Number 356007","city":"Coimbatore","zip":"641014","country":"India","geoPoint":{"lat":11.00555,"lon":76.96612}},{"facility":"Sanofi-Aventis Investigational Site Number 356013","city":"Lucknow","zip":"226003","country":"India","geoPoint":{"lat":26.83928,"lon":80.92313}},{"facility":"Sanofi-Aventis Investigational Site Number 356006","city":"Lucknow","zip":"226014","country":"India","geoPoint":{"lat":26.83928,"lon":80.92313}},{"facility":"Sanofi-Aventis Investigational Site Number 356017","city":"Mumbai","zip":"54","country":"India","geoPoint":{"lat":19.07283,"lon":72.88261}},{"facility":"Sanofi-Aventis Investigational Site Number 356014","city":"Mysore","zip":"570020","country":"India","geoPoint":{"lat":12.29791,"lon":76.63925}},{"facility":"Sanofi-Aventis Investigational Site Number 356020","city":"Nashik","zip":"42003","country":"India","geoPoint":{"lat":19.99727,"lon":73.79096}},{"facility":"Sanofi-Aventis Investigational Site Number 356004","city":"New Delhi","zip":"110060","country":"India","geoPoint":{"lat":28.63576,"lon":77.22445}},{"facility":"Sanofi-Aventis Investigational Site Number 356012","city":"New Delhi","country":"India","geoPoint":{"lat":28.63576,"lon":77.22445}},{"facility":"Sanofi-Aventis Investigational Site Number 356018","city":"Pune.","zip":"400011","country":"India","geoPoint":{"lat":18.51957,"lon":73.85535}},{"facility":"Sanofi-Aventis Investigational Site Number 356011","city":"Pune","zip":"411004","country":"India","geoPoint":{"lat":18.51957,"lon":73.85535}},{"facility":"Sanofi-Aventis Investigational Site Number 356003","city":"Secunderabad","zip":"500 003","country":"India","geoPoint":{"lat":17.50427,"lon":78.54263}},{"facility":"Sanofi-Aventis Investigational Site Number 360002","city":"Jakarta","zip":"10430","country":"Indonesia","geoPoint":{"lat":-6.21462,"lon":106.84513}},{"facility":"Sanofi-Aventis Investigational Site Number 360001","city":"Jakarta","country":"Indonesia","geoPoint":{"lat":-6.21462,"lon":106.84513}},{"facility":"Sanofi-Aventis Investigational Site Number 376003","city":"Afula","zip":"18101","country":"Israel","geoPoint":{"lat":32.60907,"lon":35.2892}},{"facility":"Sanofi-Aventis Investigational Site Number 376015","city":"Ashkelon","zip":"78278","country":"Israel","geoPoint":{"lat":31.66926,"lon":34.57149}},{"facility":"Sanofi-Aventis Investigational Site Number 376001","city":"Givatayim","zip":"53583","country":"Israel","geoPoint":{"lat":32.07225,"lon":34.81253}},{"facility":"Sanofi-Aventis Investigational Site Number 376007","city":"Haifa","zip":"31048","country":"Israel","geoPoint":{"lat":32.81841,"lon":34.9885}},{"facility":"Sanofi-Aventis Investigational Site Number 376014","city":"Haifa","zip":"31096","country":"Israel","geoPoint":{"lat":32.81841,"lon":34.9885}},{"facility":"Sanofi-Aventis Investigational Site Number 376004","city":"Holon","zip":"58100","country":"Israel","geoPoint":{"lat":32.01034,"lon":34.77918}},{"facility":"Sanofi-Aventis Investigational Site Number 376012","city":"Nahariya","zip":"22100","country":"Israel","geoPoint":{"lat":33.00892,"lon":35.09814}},{"facility":"Sanofi-Aventis Investigational Site Number 376009","city":"Nazareth","zip":"16100","country":"Israel","geoPoint":{"lat":32.69925,"lon":35.30483}},{"facility":"Sanofi-Aventis Investigational Site Number 376011","city":"Rehovot","zip":"76100","country":"Israel","geoPoint":{"lat":31.89421,"lon":34.81199}},{"facility":"Sanofi-Aventis Investigational Site Number 376002","city":"Tel Aviv","zip":"64239","country":"Israel","geoPoint":{"lat":32.08088,"lon":34.78057}},{"facility":"Sanofi-Aventis Investigational Site Number 380015","city":"Ascoli Piceno","zip":"63100","country":"Italy","geoPoint":{"lat":42.85351,"lon":13.57395}},{"facility":"Sanofi-Aventis Investigational Site Number 380018","city":"Borgo San Lorenzo","zip":"50032","country":"Italy","geoPoint":{"lat":43.95548,"lon":11.38561}},{"facility":"Sanofi-Aventis Investigational Site Number 380016","city":"Chieti","zip":"66013","country":"Italy","geoPoint":{"lat":42.34827,"lon":14.16494}},{"facility":"Sanofi-Aventis Investigational Site Number 380005","city":"Fidenza","zip":"43036","country":"Italy","geoPoint":{"lat":44.86694,"lon":10.06039}},{"facility":"Sanofi-Aventis Investigational Site Number 380010","city":"Merate","zip":"23807","country":"Italy","geoPoint":{"lat":45.68858,"lon":9.4208}},{"facility":"Sanofi-Aventis Investigational Site Number 380014","city":"Milano","zip":"20132","country":"Italy","geoPoint":{"lat":45.46427,"lon":9.18951}},{"facility":"Sanofi-Aventis Investigational Site Number 380020","city":"Novara","zip":"28100","country":"Italy","geoPoint":{"lat":45.44694,"lon":8.62118}},{"facility":"Sanofi-Aventis Investigational Site Number 380001","city":"Padova","zip":"35128","country":"Italy","geoPoint":{"lat":45.40797,"lon":11.88586}},{"facility":"Sanofi-Aventis Investigational Site Number 380007","city":"Padova","zip":"35128","country":"Italy","geoPoint":{"lat":45.40797,"lon":11.88586}},{"facility":"Sanofi-Aventis Investigational Site Number 380004","city":"Palermo","zip":"90127","country":"Italy","geoPoint":{"lat":38.13205,"lon":13.33561}},{"facility":"Sanofi-Aventis Investigational Site Number 380008","city":"Pavia","zip":"27100","country":"Italy","geoPoint":{"lat":45.19205,"lon":9.15917}},{"facility":"Sanofi-Aventis Investigational Site Number 380021","city":"Perugia","zip":"06132","country":"Italy","geoPoint":{"lat":43.1122,"lon":12.38878}},{"facility":"Sanofi-Aventis Investigational Site Number 380013","city":"San Daniele Del Friuli","zip":"33038","country":"Italy","geoPoint":{"lat":46.15714,"lon":13.00726}},{"facility":"Sanofi-Aventis Investigational Site Number 380003","city":"Sassari","zip":"07100","country":"Italy","geoPoint":{"lat":40.72586,"lon":8.55552}},{"facility":"Sanofi-Aventis Investigational Site Number 380011","city":"Torino","zip":"10144","country":"Italy","geoPoint":{"lat":45.07049,"lon":7.68682}},{"facility":"Sanofi-Aventis Investigational Site Number 380009","city":"Treviso","zip":"31100","country":"Italy","geoPoint":{"lat":45.66673,"lon":12.2416}},{"facility":"Sanofi-Aventis Investigational Site Number 410008","city":"Anyang","zip":"431-070","country":"Korea, Republic of","geoPoint":{"lat":37.3925,"lon":126.92694}},{"facility":"Sanofi-Aventis Investigational Site Number 410002","city":"Daegu","zip":"700-712","country":"Korea, Republic of","geoPoint":{"lat":35.87028,"lon":128.59111}},{"facility":"Sanofi-Aventis Investigational Site Number 410006","city":"Goyang","zip":"411-706","country":"Korea, Republic of","geoPoint":{"lat":37.65639,"lon":126.835}},{"facility":"Sanofi-Aventis Investigational Site Number 410012","city":"Goyang","zip":"411-773","country":"Korea, Republic of","geoPoint":{"lat":37.65639,"lon":126.835}},{"facility":"Sanofi-Aventis Investigational Site Number 410007","city":"Gwangju","zip":"501-757","country":"Korea, Republic of","geoPoint":{"lat":35.15472,"lon":126.91556}},{"facility":"Sanofi-Aventis Investigational Site Number 410003","city":"Seongnam","zip":"463-802","country":"Korea, Republic of","geoPoint":{"lat":37.43861,"lon":127.13778}},{"facility":"Sanofi-Aventis Investigational Site Number 410001","city":"Seoul","zip":"134-701","country":"Korea, Republic of","geoPoint":{"lat":37.566,"lon":126.9784}},{"facility":"Sanofi-Aventis Investigational Site Number 410004","city":"Seoul","zip":"135-710","country":"Korea, Republic of","geoPoint":{"lat":37.566,"lon":126.9784}},{"facility":"Sanofi-Aventis Investigational Site Number 410005","city":"Seoul","zip":"138-736","country":"Korea, Republic of","geoPoint":{"lat":37.566,"lon":126.9784}},{"facility":"Sanofi-Aventis Investigational Site Number 410011","city":"Seoul","zip":"140-210","country":"Korea, Republic of","geoPoint":{"lat":37.566,"lon":126.9784}},{"facility":"Sanofi-Aventis Investigational Site Number 440004","city":"Kaunas","zip":"3007","country":"Lithuania","geoPoint":{"lat":54.90272,"lon":23.90961}},{"facility":"Sanofi-Aventis Investigational Site Number 440002","city":"Kaunas","zip":"LT-49456","country":"Lithuania","geoPoint":{"lat":54.90272,"lon":23.90961}},{"facility":"Sanofi-Aventis Investigational Site Number 440003","city":"Vilnius","zip":"LT-07156","country":"Lithuania","geoPoint":{"lat":54.68916,"lon":25.2798}},{"facility":"Sanofi-Aventis Investigational Site Number 440001","city":"Vilnius","zip":"LT-08661","country":"Lithuania","geoPoint":{"lat":54.68916,"lon":25.2798}},{"facility":"Sanofi-Aventis Investigational Site Number 458001","city":"Kuching","zip":"93586","country":"Malaysia","geoPoint":{"lat":1.54999,"lon":110.33333}},{"facility":"Sanofi-Aventis Investigational Site Number 458002","city":"Penang","zip":"10450","country":"Malaysia"},{"facility":"Sanofi-Aventis Investigational Site Number 458005","city":"Taiping","zip":"34000","country":"Malaysia","geoPoint":{"lat":4.85,"lon":100.73333}},{"facility":"Sanofi-Aventis Investigational Site Number 484008","city":"Acapulco","zip":"39670","country":"Mexico","geoPoint":{"lat":16.86336,"lon":-99.8901}},{"facility":"Sanofi-Aventis Investigational Site Number 484013","city":"Aguascalientes","zip":"20230","country":"Mexico","geoPoint":{"lat":21.88234,"lon":-102.28259}},{"facility":"Sanofi-Aventis Investigational Site Number 484016","city":"Aguascalientes","zip":"20230","country":"Mexico","geoPoint":{"lat":21.88234,"lon":-102.28259}},{"facility":"Sanofi-Aventis Investigational Site Number 484004","city":"Guadalajara","zip":"4428","country":"Mexico","geoPoint":{"lat":20.66682,"lon":-103.39182}},{"facility":"Sanofi-Aventis Investigational Site Number 484007","city":"Guadalajara","zip":"44340","country":"Mexico","geoPoint":{"lat":20.66682,"lon":-103.39182}},{"facility":"Sanofi-Aventis Investigational Site Number 484012","city":"Mexico Df","zip":"07300","country":"Mexico","geoPoint":{"lat":19.42847,"lon":-99.12766}},{"facility":"Sanofi-Aventis Investigational Site Number 484010","city":"Monterrey","zip":"64060","country":"Mexico","geoPoint":{"lat":25.67507,"lon":-100.31847}},{"facility":"Sanofi-Aventis Investigational Site Number 484011","city":"San Luis Potosi","zip":"72244","country":"Mexico","geoPoint":{"lat":22.14982,"lon":-100.97916}},{"facility":"Sanofi-Aventis Investigational Site Number 484005","city":"San Luis Potosi","zip":"78200","country":"Mexico","geoPoint":{"lat":22.14982,"lon":-100.97916}},{"facility":"Sanofi-Aventis Investigational Site Number 484003","city":"Veracruz","zip":"91700","country":"Mexico","geoPoint":{"lat":19.18095,"lon":-96.1429}},{"facility":"Sanofi-Aventis Investigational Site Number 504001","city":"Marrakech","zip":"40000","country":"Morocco","geoPoint":{"lat":31.63416,"lon":-7.99994}},{"facility":"Sanofi-Aventis Investigational Site Number 504002","city":"Meknes","zip":"50000","country":"Morocco","geoPoint":{"lat":33.89352,"lon":-5.54727}},{"facility":"Sanofi-Aventis Investigational Site Number 528012","city":"Almelo","zip":"7609 PP","country":"Netherlands","geoPoint":{"lat":52.35667,"lon":6.6625}},{"facility":"Sanofi-Aventis Investigational Site Number 528030","city":"Amsterdam","zip":"1066 EC","country":"Netherlands","geoPoint":{"lat":52.37403,"lon":4.88969}},{"facility":"Sanofi-Aventis Investigational Site Number 528026","city":"Breda","zip":"4818 CK","country":"Netherlands","geoPoint":{"lat":51.58656,"lon":4.77596}},{"facility":"Sanofi-Aventis Investigational Site Number 528009","city":"Delft","zip":"2526 AD","country":"Netherlands","geoPoint":{"lat":52.00667,"lon":4.35556}},{"facility":"Sanofi-Aventis Investigational Site Number 528035","city":"Den Haag","zip":"2545 CH","country":"Netherlands","geoPoint":{"lat":52.07667,"lon":4.29861}},{"facility":"Sanofi-Aventis Investigational Site Number 528027","city":"Ede","zip":"6716 RP","country":"Netherlands","geoPoint":{"lat":52.03333,"lon":5.65833}},{"facility":"Sanofi-Aventis Investigational Site Number 528006","city":"Eindhoven","zip":"5623 EJ","country":"Netherlands","geoPoint":{"lat":51.44083,"lon":5.47778}},{"facility":"Sanofi-Aventis Investigational Site Number 528017","city":"Eindhoven","zip":"5623 EJ","country":"Netherlands","geoPoint":{"lat":51.44083,"lon":5.47778}},{"facility":"Sanofi-Aventis Investigational Site Number 528016","city":"Gouda","zip":"2803 HH","country":"Netherlands","geoPoint":{"lat":52.01667,"lon":4.70833}},{"facility":"Sanofi-Aventis Investigational Site Number 528007","city":"Harderwijk","zip":"3844 DG","country":"Netherlands","geoPoint":{"lat":52.34167,"lon":5.62083}},{"facility":"Sanofi-Aventis Investigational Site Number 528001","city":"Heerlen","zip":"6419 PC","country":"Netherlands","geoPoint":{"lat":50.88365,"lon":5.98154}},{"facility":"Sanofi-Aventis Investigational Site Number 528024","city":"Heerlen","zip":"6419 PC","country":"Netherlands","geoPoint":{"lat":50.88365,"lon":5.98154}},{"facility":"Sanofi-Aventis Investigational Site Number 528003","city":"Hengelo","zip":"7555 DL","country":"Netherlands","geoPoint":{"lat":52.26583,"lon":6.79306}},{"facility":"Sanofi-Aventis Investigational Site Number 528010","city":"Hengelo","zip":"7555 DL","country":"Netherlands","geoPoint":{"lat":52.26583,"lon":6.79306}},{"facility":"Sanofi-Aventis Investigational Site Number 528031","city":"Hoogeveen","zip":"7909 AA","country":"Netherlands","geoPoint":{"lat":52.7225,"lon":6.47639}},{"facility":"Sanofi-Aventis Investigational Site Number 528019","city":"Hoorn","zip":"1625 HV","country":"Netherlands","geoPoint":{"lat":52.6425,"lon":5.05978}},{"facility":"Sanofi-Aventis Investigational Site Number 528020","city":"Leeuwarden","zip":"8934 AD","country":"Netherlands","geoPoint":{"lat":53.20139,"lon":5.80859}},{"facility":"Sanofi-Aventis Investigational Site Number 528004","city":"Nijmegen","zip":"6532 SZ","country":"Netherlands","geoPoint":{"lat":51.8425,"lon":5.85278}},{"facility":"Sanofi-Aventis Investigational Site Number 528013","city":"Rotterdam","zip":"3083 AN","country":"Netherlands","geoPoint":{"lat":51.9225,"lon":4.47917}},{"facility":"Sanofi-Aventis Investigational Site Number 528022","city":"Sittard-Geleen","zip":"6162 BG","country":"Netherlands"},{"facility":"Sanofi-Aventis Investigational Site Number 528002","city":"Sneek","zip":"8601 ZK","country":"Netherlands","geoPoint":{"lat":53.03297,"lon":5.6589}},{"facility":"Sanofi-Aventis Investigational Site Number 528033","city":"Tilburg","zip":"5022 GC","country":"Netherlands","geoPoint":{"lat":51.55551,"lon":5.0913}},{"facility":"Sanofi-Aventis Investigational Site Number 528021","city":"Venlo","zip":"5912 BL","country":"Netherlands","geoPoint":{"lat":51.37,"lon":6.16806}},{"facility":"Sanofi-Aventis Investigational Site Number 528005","city":"Zoetermeer","zip":"2725 NA","country":"Netherlands","geoPoint":{"lat":52.0575,"lon":4.49306}},{"facility":"Sanofi-Aventis Investigational Site Number 528025","city":"Zwolle","zip":"8011 JW","country":"Netherlands","geoPoint":{"lat":52.5125,"lon":6.09444}},{"facility":"Sanofi-Aventis Investigational Site Number 554003","city":"Christchurch","country":"New Zealand","geoPoint":{"lat":-43.53333,"lon":172.63333}},{"facility":"Sanofi-Aventis Investigational Site Number 554002","city":"Dunedin","country":"New Zealand","geoPoint":{"lat":-45.87416,"lon":170.50361}},{"facility":"Sanofi-Aventis Investigational Site Number 554001","city":"Nelson","country":"New Zealand","geoPoint":{"lat":-41.27078,"lon":173.28404}},{"facility":"Sanofi-Aventis Investigational Site Number 578001","city":"Bergen","zip":"5021","country":"Norway","geoPoint":{"lat":60.39299,"lon":5.32415}},{"facility":"Sanofi-Aventis Investigational Site Number 578006","city":"Flekkefjord","zip":"4400","country":"Norway","geoPoint":{"lat":58.29705,"lon":6.66069}},{"facility":"Sanofi-Aventis Investigational Site Number 578005","city":"Lørenskog","zip":"1478","country":"Norway","geoPoint":{"lat":59.92625,"lon":10.95422}},{"facility":"Sanofi-Aventis Investigational Site Number 578004","city":"Oslo","zip":"0027","country":"Norway","geoPoint":{"lat":59.91273,"lon":10.74609}},{"facility":"Sanofi-Aventis Investigational Site Number 591001","city":"Panama","country":"Panama","geoPoint":{"lat":8.9936,"lon":-79.51973}},{"facility":"Sanofi-Aventis Investigational Site Number 591002","city":"Panama","country":"Panama","geoPoint":{"lat":8.9936,"lon":-79.51973}},{"facility":"Sanofi-Aventis Investigational Site Number 591003","city":"Panama","country":"Panama","geoPoint":{"lat":8.9936,"lon":-79.51973}},{"facility":"Sanofi-Aventis Investigational Site Number 604004","city":"Lima","zip":"CALLAO 2","country":"Peru","geoPoint":{"lat":-12.04318,"lon":-77.02824}},{"facility":"Sanofi-Aventis Investigational Site Number 604002","city":"Lima","zip":"Lima 11","country":"Peru","geoPoint":{"lat":-12.04318,"lon":-77.02824}},{"facility":"Sanofi-Aventis Investigational Site Number 604001","city":"Lima","zip":"LIMA 13","country":"Peru","geoPoint":{"lat":-12.04318,"lon":-77.02824}},{"facility":"Sanofi-Aventis Investigational Site Number 604005","city":"Lima","zip":"LIMA 31","country":"Peru","geoPoint":{"lat":-12.04318,"lon":-77.02824}},{"facility":"Sanofi-Aventis Investigational Site Number 604003","city":"Lima","zip":"LIMA 41","country":"Peru","geoPoint":{"lat":-12.04318,"lon":-77.02824}},{"facility":"Sanofi-Aventis Investigational Site Number 608001","city":"Quezon City","zip":"1102","country":"Philippines","geoPoint":{"lat":14.6488,"lon":121.0509}},{"facility":"Sanofi-Aventis Investigational Site Number 616013","city":"Chojnice","zip":"89-600","country":"Poland","geoPoint":{"lat":53.69554,"lon":17.55701}},{"facility":"Sanofi-Aventis Investigational Site Number 616011","city":"Gdansk","zip":"81-756","country":"Poland","geoPoint":{"lat":54.35205,"lon":18.64637}},{"facility":"Sanofi-Aventis Investigational Site Number 616014","city":"Gdynia-Redlowo","zip":"81-402","country":"Poland"},{"facility":"Sanofi-Aventis Investigational Site Number 616009","city":"Katowice","zip":"40-635","country":"Poland","geoPoint":{"lat":50.25841,"lon":19.02754}},{"facility":"Sanofi-Aventis Investigational Site Number 616017","city":"Lodz","zip":"91-425","country":"Poland","geoPoint":{"lat":51.75,"lon":19.46667}},{"facility":"Sanofi-Aventis Investigational Site Number 616002","city":"Lublin","zip":"20-954","country":"Poland","geoPoint":{"lat":51.25,"lon":22.56667}},{"facility":"Sanofi-Aventis Investigational Site Number 616012","city":"Ostrowiec Swietokrzyski","zip":"27-400","country":"Poland","geoPoint":{"lat":50.92936,"lon":21.38525}},{"facility":"Sanofi-Aventis Investigational Site Number 616015","city":"Pulawy","zip":"24-100","country":"Poland","geoPoint":{"lat":51.41655,"lon":21.96939}},{"facility":"Sanofi-Aventis Investigational Site Number 616007","city":"Torun","zip":"87-100","country":"Poland","geoPoint":{"lat":53.01375,"lon":18.59814}},{"facility":"Sanofi-Aventis Investigational Site Number 616006","city":"Tychy","zip":"43-100","country":"Poland","geoPoint":{"lat":50.13717,"lon":18.96641}},{"facility":"Sanofi-Aventis Investigational Site Number 616001","city":"Warszawa","zip":"02-005","country":"Poland","geoPoint":{"lat":52.22977,"lon":21.01178}},{"facility":"Sanofi-Aventis Investigational Site Number 616010","city":"Warszawa","zip":"02-097","country":"Poland","geoPoint":{"lat":52.22977,"lon":21.01178}},{"facility":"Sanofi-Aventis Investigational Site Number 616008","city":"Wroclaw","zip":"50-349","country":"Poland","geoPoint":{"lat":51.1,"lon":17.03333}},{"facility":"Sanofi-Aventis Investigational Site Number 620002","city":"Amadora","zip":"2720-276","country":"Portugal","geoPoint":{"lat":38.75382,"lon":-9.23083}},{"facility":"Sanofi-Aventis Investigational Site Number 620007","city":"Braga","zip":"4701-968","country":"Portugal","geoPoint":{"lat":41.55032,"lon":-8.42005}},{"facility":"Sanofi-Aventis Investigational Site Number 620006","city":"Coimbra","zip":"3000-075","country":"Portugal","geoPoint":{"lat":40.20564,"lon":-8.41955}},{"facility":"Sanofi-Aventis Investigational Site Number 620008","city":"Setubal","zip":"2910-446","country":"Portugal","geoPoint":{"lat":38.5244,"lon":-8.8882}},{"facility":"Sanofi-Aventis Investigational Site Number 630001","city":"San Juan","zip":"00921-3201","country":"Puerto Rico","geoPoint":{"lat":18.46633,"lon":-66.10572}},{"facility":"Sanofi-Aventis Investigational Site Number 643033","city":"Barnaul","zip":"656055","country":"Russian Federation","geoPoint":{"lat":53.36056,"lon":83.76361}},{"facility":"Sanofi-Aventis Investigational Site Number 643040","city":"Chelyabinsk","zip":"454048","country":"Russian Federation","geoPoint":{"lat":55.15402,"lon":61.42915}},{"facility":"Sanofi-Aventis Investigational Site Number 643050","city":"Chelyabinsk","zip":"454092","country":"Russian Federation","geoPoint":{"lat":55.15402,"lon":61.42915}},{"facility":"Sanofi-Aventis Investigational Site Number 643036","city":"Chelyabinsk","zip":"454136","country":"Russian Federation","geoPoint":{"lat":55.15402,"lon":61.42915}},{"facility":"Sanofi-Aventis Investigational Site Number 643031","city":"Ekaterinburg","zip":"620109","country":"Russian Federation","geoPoint":{"lat":56.8519,"lon":60.6122}},{"facility":"Sanofi-Aventis Investigational Site Number 643009","city":"Kemerovo","zip":"650002","country":"Russian Federation","geoPoint":{"lat":55.33333,"lon":86.08333}},{"facility":"Sanofi-Aventis Investigational Site Number 643042","city":"Kemerovo","zip":"650002","country":"Russian Federation","geoPoint":{"lat":55.33333,"lon":86.08333}},{"facility":"Sanofi-Aventis Investigational Site Number 643015","city":"Moscow","zip":"105066","country":"Russian Federation","geoPoint":{"lat":55.75222,"lon":37.61556}},{"facility":"Sanofi-Aventis Investigational Site Number 643032","city":"Moscow","zip":"109263","country":"Russian Federation","geoPoint":{"lat":55.75222,"lon":37.61556}},{"facility":"Sanofi-Aventis Investigational Site Number 643007","city":"Moscow","zip":"111539","country":"Russian Federation","geoPoint":{"lat":55.75222,"lon":37.61556}},{"facility":"Sanofi-Aventis Investigational Site Number 643020","city":"Moscow","zip":"117292","country":"Russian Federation","geoPoint":{"lat":55.75222,"lon":37.61556}},{"facility":"Sanofi-Aventis Investigational Site Number 643054","city":"Moscow","zip":"117342","country":"Russian Federation","geoPoint":{"lat":55.75222,"lon":37.61556}},{"facility":"Sanofi-Aventis Investigational Site Number 643052","city":"Moscow","zip":"117556","country":"Russian Federation","geoPoint":{"lat":55.75222,"lon":37.61556}},{"facility":"Sanofi-Aventis Investigational Site Number 643056","city":"Moscow","zip":"119415","country":"Russian Federation","geoPoint":{"lat":55.75222,"lon":37.61556}},{"facility":"Sanofi-Aventis Investigational Site Number 643025","city":"Moscow","zip":"119435","country":"Russian Federation","geoPoint":{"lat":55.75222,"lon":37.61556}},{"facility":"Sanofi-Aventis Investigational Site Number 643053","city":"Moscow","zip":"119435","country":"Russian Federation","geoPoint":{"lat":55.75222,"lon":37.61556}},{"facility":"Sanofi-Aventis Investigational Site Number 643028","city":"Moscow","zip":"121359","country":"Russian Federation","geoPoint":{"lat":55.75222,"lon":37.61556}},{"facility":"Sanofi-Aventis Investigational Site Number 643037","city":"Moscow","zip":"121359","country":"Russian Federation","geoPoint":{"lat":55.75222,"lon":37.61556}},{"facility":"Sanofi-Aventis Investigational Site Number 643001","city":"Moscow","zip":"121552","country":"Russian Federation","geoPoint":{"lat":55.75222,"lon":37.61556}},{"facility":"Sanofi-Aventis Investigational Site Number 643026","city":"Moscow","zip":"121552","country":"Russian Federation","geoPoint":{"lat":55.75222,"lon":37.61556}},{"facility":"Sanofi-Aventis Investigational Site Number 643039","city":"Moscow","zip":"121552","country":"Russian Federation","geoPoint":{"lat":55.75222,"lon":37.61556}},{"facility":"Sanofi-Aventis Investigational Site Number 643011","city":"Moscow","zip":"127473","country":"Russian Federation","geoPoint":{"lat":55.75222,"lon":37.61556}},{"facility":"Sanofi-Aventis Investigational Site Number 643034","city":"Moscow","zip":"127473","country":"Russian Federation","geoPoint":{"lat":55.75222,"lon":37.61556}},{"facility":"Sanofi-Aventis Investigational Site Number 643049","city":"Moscow","zip":"129090","country":"Russian Federation","geoPoint":{"lat":55.75222,"lon":37.61556}},{"facility":"Sanofi-Aventis Investigational Site Number 643030","city":"Moscow","zip":"129336","country":"Russian Federation","geoPoint":{"lat":55.75222,"lon":37.61556}},{"facility":"Sanofi-Aventis Investigational Site Number 643013","city":"Nizhny Novgorod","zip":"603003","country":"Russian Federation","geoPoint":{"lat":56.32867,"lon":44.00205}},{"facility":"Sanofi-Aventis Investigational Site Number 643041","city":"Nizniy Novgorod","zip":"603005","country":"Russian Federation","geoPoint":{"lat":56.32867,"lon":44.00205}},{"facility":"Sanofi-Aventis Investigational Site Number 643048","city":"Novosibirsk-117","zip":"630117","country":"Russian Federation","geoPoint":{"lat":55.0415,"lon":82.9346}},{"facility":"Sanofi-Aventis Investigational Site Number 643051","city":"Novosibirsk","zip":"630008","country":"Russian Federation","geoPoint":{"lat":55.0415,"lon":82.9346}},{"facility":"Sanofi-Aventis Investigational Site Number 643044","city":"Novosibirsk","zip":"630091","country":"Russian Federation","geoPoint":{"lat":55.0415,"lon":82.9346}},{"facility":"Sanofi-Aventis Investigational Site Number 643045","city":"Penza","country":"Russian Federation","geoPoint":{"lat":53.20066,"lon":45.00464}},{"facility":"Sanofi-Aventis Investigational Site Number 643023","city":"Perm","zip":"614097","country":"Russian Federation","geoPoint":{"lat":58.01046,"lon":56.25017}},{"facility":"Sanofi-Aventis Investigational Site Number 643006","city":"Perm","zip":"614107","country":"Russian Federation","geoPoint":{"lat":58.01046,"lon":56.25017}},{"facility":"Sanofi-Aventis Investigational Site Number 643046","city":"Petrozavodsk","zip":"185019","country":"Russian Federation","geoPoint":{"lat":61.78491,"lon":34.34691}},{"facility":"Sanofi-Aventis Investigational Site Number 643012","city":"Rostov-Na-Donu","zip":"344068","country":"Russian Federation","geoPoint":{"lat":47.23135,"lon":39.72328}},{"facility":"Sanofi-Aventis Investigational Site Number 643008","city":"Ryazan","zip":"390026","country":"Russian Federation","geoPoint":{"lat":54.6269,"lon":39.6916}},{"facility":"Sanofi-Aventis Investigational Site Number 643017","city":"Saint-Petersburg","zip":"197022","country":"Russian Federation","geoPoint":{"lat":59.93863,"lon":30.31413}},{"facility":"Sanofi-Aventis Investigational Site Number 643047","city":"Saint-Petersburg","zip":"197022","country":"Russian Federation","geoPoint":{"lat":59.93863,"lon":30.31413}},{"facility":"Sanofi-Aventis Investigational Site Number 643029","city":"Samara","zip":"443070","country":"Russian Federation","geoPoint":{"lat":53.20007,"lon":50.15}},{"facility":"Sanofi-Aventis Investigational Site Number 643004","city":"Saratov","zip":"410028","country":"Russian Federation","geoPoint":{"lat":51.54056,"lon":46.00861}},{"facility":"Sanofi-Aventis Investigational Site Number 643005","city":"Saratov","zip":"410028","country":"Russian Federation","geoPoint":{"lat":51.54056,"lon":46.00861}},{"facility":"Sanofi-Aventis Investigational Site Number 643003","city":"Saratov","zip":"410054","country":"Russian Federation","geoPoint":{"lat":51.54056,"lon":46.00861}},{"facility":"Sanofi-Aventis Investigational Site Number 643022","city":"St-Petersburg","zip":"192242","country":"Russian Federation","geoPoint":{"lat":59.93863,"lon":30.31413}},{"facility":"Sanofi-Aventis Investigational Site Number 643038","city":"St-Petersburg","zip":"194354","country":"Russian Federation","geoPoint":{"lat":59.93863,"lon":30.31413}},{"facility":"Sanofi-Aventis Investigational Site Number 643016","city":"St-Petersburg","zip":"196247","country":"Russian Federation","geoPoint":{"lat":59.93863,"lon":30.31413}},{"facility":"Sanofi-Aventis Investigational Site Number 643018","city":"St-Petersburg","zip":"197110","country":"Russian Federation","geoPoint":{"lat":59.93863,"lon":30.31413}},{"facility":"Sanofi-Aventis Investigational Site Number 643010","city":"St-Petersburg","zip":"198013","country":"Russian Federation","geoPoint":{"lat":59.93863,"lon":30.31413}},{"facility":"Sanofi-Aventis Investigational Site Number 643027","city":"St-Petersburg","zip":"198013","country":"Russian Federation","geoPoint":{"lat":59.93863,"lon":30.31413}},{"facility":"Sanofi-Aventis Investigational Site Number 643002","city":"St-Petersburg","zip":"199106","country":"Russian Federation","geoPoint":{"lat":59.93863,"lon":30.31413}},{"facility":"Sanofi-Aventis Investigational Site Number 643024","city":"Tomsk","zip":"634012","country":"Russian Federation","geoPoint":{"lat":56.49771,"lon":84.97437}},{"facility":"Sanofi-Aventis Investigational Site Number 643035","city":"Tomsk","zip":"634012","country":"Russian Federation","geoPoint":{"lat":56.49771,"lon":84.97437}},{"facility":"Sanofi-Aventis Investigational Site Number 643021","city":"Tyumen","zip":"625023","country":"Russian Federation","geoPoint":{"lat":57.15222,"lon":65.52722}},{"facility":"Sanofi-Aventis Investigational Site Number 643043","city":"Voronezh","zip":"394006","country":"Russian Federation","geoPoint":{"lat":51.67204,"lon":39.1843}},{"facility":"Sanofi-Aventis Investigational Site Number 643019","city":"Yaroslavl","zip":"150062","country":"Russian Federation","geoPoint":{"lat":57.62987,"lon":39.87368}},{"facility":"Sanofi-Aventis Investigational Site Number 703003","city":"Kosice","zip":"04015","country":"Slovakia","geoPoint":{"lat":48.71395,"lon":21.25808}},{"facility":"Sanofi-Aventis Investigational Site Number 703005","city":"Levice","country":"Slovakia","geoPoint":{"lat":48.21563,"lon":18.60705}},{"facility":"Sanofi-Aventis Investigational Site Number 703004","city":"Nitra","zip":"950 01","country":"Slovakia","geoPoint":{"lat":48.30763,"lon":18.08453}},{"facility":"Sanofi-Aventis Investigational Site Number 703006","city":"Poprad","zip":"05845","country":"Slovakia","geoPoint":{"lat":49.06144,"lon":20.29798}},{"facility":"Sanofi-Aventis Investigational Site Number 703002","city":"Trnava","zip":"91775","country":"Slovakia","geoPoint":{"lat":48.37741,"lon":17.58723}},{"facility":"Sanofi-Aventis Investigational Site Number 710013","city":"Amanzimtoti","country":"South Africa","geoPoint":{"lat":-30.05219,"lon":30.88527}},{"facility":"Sanofi-Aventis Investigational Site Number 710011","city":"Bloemfontein","country":"South Africa","geoPoint":{"lat":-29.12107,"lon":26.214}},{"facility":"Sanofi-Aventis Investigational Site Number 710007","city":"Cape Town","zip":"7129","country":"South Africa","geoPoint":{"lat":-33.92584,"lon":18.42322}},{"facility":"Sanofi-Aventis Investigational Site Number 710017","city":"Cape Town","zip":"7764","country":"South Africa","geoPoint":{"lat":-33.92584,"lon":18.42322}},{"facility":"Sanofi-Aventis Investigational Site Number 710001","city":"Durban","zip":"4092","country":"South Africa","geoPoint":{"lat":-29.8579,"lon":31.0292}},{"facility":"Sanofi-Aventis Investigational Site Number 710012","city":"Durban","country":"South Africa","geoPoint":{"lat":-29.8579,"lon":31.0292}},{"facility":"Sanofi-Aventis Investigational Site Number 710009","city":"Johannesburg","zip":"1449","country":"South Africa","geoPoint":{"lat":-26.20227,"lon":28.04363}},{"facility":"Sanofi-Aventis Investigational Site Number 710016","city":"Port Elizabeth","country":"South Africa","geoPoint":{"lat":-33.91799,"lon":25.57007}},{"facility":"Sanofi-Aventis Investigational Site Number 710020","city":"Pretoria","zip":"0050","country":"South Africa","geoPoint":{"lat":-25.74486,"lon":28.18783}},{"facility":"Sanofi-Aventis Investigational Site Number 710003","city":"Pretoria","zip":"0084","country":"South Africa","geoPoint":{"lat":-25.74486,"lon":28.18783}},{"facility":"Sanofi-Aventis Investigational Site Number 710002","city":"Pretoria","zip":"0204","country":"South Africa","geoPoint":{"lat":-25.74486,"lon":28.18783}},{"facility":"Sanofi-Aventis Investigational Site Number 710015","city":"Randburg","zip":"2194","country":"South Africa","geoPoint":{"lat":-26.0941,"lon":28.00123}},{"facility":"Sanofi-Aventis Investigational Site Number 710014","city":"Scottburgh","country":"South Africa","geoPoint":{"lat":-30.28666,"lon":30.75316}},{"facility":"Sanofi-Aventis Investigational Site Number 710018","city":"Umhlanga Rocks","zip":"4400","country":"South Africa"},{"facility":"Sanofi-Aventis Investigational Site Number 724003","city":"Barcelona","zip":"08003","country":"Spain","geoPoint":{"lat":41.38879,"lon":2.15899}},{"facility":"Sanofi-Aventis Investigational Site Number 724002","city":"Barcelona","zip":"08036","country":"Spain","geoPoint":{"lat":41.38879,"lon":2.15899}},{"facility":"Sanofi-Aventis Investigational Site Number 724001","city":"Madrid","zip":"28046","country":"Spain","geoPoint":{"lat":40.4165,"lon":-3.70256}},{"facility":"Sanofi-Aventis Investigational Site Number 724005","city":"Santiago De Compostela","zip":"15706","country":"Spain","geoPoint":{"lat":42.88052,"lon":-8.54569}},{"facility":"Sanofi-Aventis Investigational Site Number 724007","city":"Sevilla","zip":"41006","country":"Spain","geoPoint":{"lat":37.38283,"lon":-5.97317}},{"facility":"Sanofi-Aventis Investigational Site Number 752003","city":"Göteborg","zip":"413 45","country":"Sweden","geoPoint":{"lat":57.70716,"lon":11.96679}},{"facility":"Sanofi-Aventis Investigational Site Number 752006","city":"Göteborg","zip":"413 45","country":"Sweden","geoPoint":{"lat":57.70716,"lon":11.96679}},{"facility":"Sanofi-Aventis Investigational Site Number 752007","city":"Malmo","zip":"211 52","country":"Sweden","geoPoint":{"lat":55.60587,"lon":13.00073}},{"facility":"Sanofi-Aventis Investigational Site Number 752002","city":"Malmö","zip":"20502","country":"Sweden","geoPoint":{"lat":55.60587,"lon":13.00073}},{"facility":"Sanofi-Aventis Investigational Site Number 752004","city":"Ostersund","zip":"831 83","country":"Sweden","geoPoint":{"lat":63.1792,"lon":14.63566}},{"facility":"Sanofi-Aventis Investigational Site Number 752001","city":"Stockolm","zip":"SE-171 76","country":"Sweden"},{"facility":"Sanofi-Aventis Investigational Site Number 158003","city":"Kaohsiung","zip":"833","country":"Taiwan","geoPoint":{"lat":22.61626,"lon":120.31333}},{"facility":"Sanofi-Aventis Investigational Site Number 158002","city":"Taichung","country":"Taiwan","geoPoint":{"lat":24.1469,"lon":120.6839}},{"facility":"Sanofi-Aventis Investigational Site Number 158004","city":"Tainan Hsien","zip":"710","country":"Taiwan"},{"facility":"Sanofi-Aventis Investigational Site Number 158001","city":"Taipei","country":"Taiwan","geoPoint":{"lat":25.04776,"lon":121.53185}},{"facility":"Sanofi-Aventis Investigational Site Number 158005","city":"Taipei","country":"Taiwan","geoPoint":{"lat":25.04776,"lon":121.53185}},{"facility":"Sanofi-Aventis Investigational Site Number 764002","city":"Bangkok-Noi","zip":"10700","country":"Thailand","geoPoint":{"lat":13.76266,"lon":100.47798}},{"facility":"Sanofi-Aventis Investigational Site Number 764001","city":"Bangkok","zip":"10330","country":"Thailand","geoPoint":{"lat":13.75398,"lon":100.50144}},{"facility":"Sanofi-Aventis Investigational Site Number 764003","city":"Muang","zip":"50200","country":"Thailand"},{"facility":"Sanofi-Aventis Investigational Site Number 792004","city":"Edirne","country":"Turkey","geoPoint":{"lat":41.67719,"lon":26.55597}},{"facility":"Sanofi-Aventis Investigational Site Number 792005","city":"Edirne","country":"Turkey","geoPoint":{"lat":41.67719,"lon":26.55597}},{"facility":"Sanofi-Aventis Investigational Site Number 792002","city":"Istanbul","zip":"34034","country":"Turkey","geoPoint":{"lat":41.01384,"lon":28.94966}},{"facility":"Sanofi-Aventis Investigational Site Number 792001","city":"Istanbul","country":"Turkey","geoPoint":{"lat":41.01384,"lon":28.94966}},{"facility":"Sanofi-Aventis Investigational Site Number 792003","city":"Istanbul","country":"Turkey","geoPoint":{"lat":41.01384,"lon":28.94966}},{"facility":"Sanofi-Aventis Investigational Site Number 792006","city":"Kocaeli","zip":"41300","country":"Turkey","geoPoint":{"lat":39.62497,"lon":27.51145}},{"facility":"Sanofi-Aventis Investigational Site Number 792007","city":"Kocaeli","zip":"41380","country":"Turkey","geoPoint":{"lat":39.62497,"lon":27.51145}},{"facility":"Sanofi-Aventis Investigational Site Number 804013","city":"Dnepropetrovsk","country":"Ukraine","geoPoint":{"lat":48.4593,"lon":35.03864}},{"facility":"Sanofi-Aventis Investigational Site Number 804015","city":"Dnepropetrovsk","country":"Ukraine","geoPoint":{"lat":48.4593,"lon":35.03864}},{"facility":"Sanofi-Aventis Investigational Site Number 804005","city":"Dnipropetrovsk","country":"Ukraine","geoPoint":{"lat":48.4593,"lon":35.03864}},{"facility":"Sanofi-Aventis Investigational Site Number 804008","city":"Ivano-Frankivsk","country":"Ukraine","geoPoint":{"lat":48.9215,"lon":24.70972}},{"facility":"Sanofi-Aventis Investigational Site Number 804004","city":"Kharkiv","country":"Ukraine","geoPoint":{"lat":49.98081,"lon":36.25272}},{"facility":"Sanofi-Aventis Investigational Site Number 804002","city":"Kharkov","country":"Ukraine","geoPoint":{"lat":49.98081,"lon":36.25272}},{"facility":"Sanofi-Aventis Investigational Site Number 804012","city":"Kharkov","country":"Ukraine","geoPoint":{"lat":49.98081,"lon":36.25272}},{"facility":"Sanofi-Aventis Investigational Site Number 804003","city":"Kiev","country":"Ukraine","geoPoint":{"lat":50.45466,"lon":30.5238}},{"facility":"Sanofi-Aventis Investigational Site Number 804007","city":"Lutsk","country":"Ukraine","geoPoint":{"lat":50.75932,"lon":25.34244}},{"facility":"Sanofi-Aventis Investigational Site Number 804009","city":"Lutsk","country":"Ukraine","geoPoint":{"lat":50.75932,"lon":25.34244}},{"facility":"Sanofi-Aventis Investigational Site Number 804011","city":"Odessa","country":"Ukraine","geoPoint":{"lat":46.47747,"lon":30.73262}},{"facility":"Sanofi-Aventis Investigational Site Number 804010","city":"Ternopil","country":"Ukraine","geoPoint":{"lat":49.55589,"lon":25.60556}},{"facility":"Sanofi-Aventis Investigational Site Number 804006","city":"Uzhgorod","country":"Ukraine","geoPoint":{"lat":48.61667,"lon":22.3}},{"facility":"Sanofi-Aventis Investigational Site Number 804014","city":"Zaporizhzhia","country":"Ukraine","geoPoint":{"lat":50.60727,"lon":31.78792}},{"facility":"Sanofi-Aventis Investigational Site Number 862001","city":"Caracas","country":"Venezuela","geoPoint":{"lat":10.48801,"lon":-66.87919}},{"facility":"Sanofi-Aventis Investigational Site Number 862002","city":"Maracay","zip":"2103","country":"Venezuela","geoPoint":{"lat":10.23535,"lon":-67.59113}}]},"referencesModule":{"references":[{"pmid":"24597472","type":"RESULT","citation":"Buller HR, Halperin J, Hankey GJ, Pillion G, Prins MH, Raskob GE. Comparison of idrabiotaparinux with vitamin K antagonists for prevention of thromboembolism in patients with atrial fibrillation: the Borealis-Atrial Fibrillation Study. J Thromb Haemost. 2014 Jun;12(6):824-30. doi: 10.1111/jth.12546."}]}},"derivedSection":{"miscInfoModule":{"versionHolder":"2024-02-14","removedCountries":["China","Germany","Hungary","United Kingdom"]},"conditionBrowseModule":{"meshes":[{"id":"D000001281","term":"Atrial Fibrillation"},{"id":"D000013923","term":"Thromboembolism"}],"ancestors":[{"id":"D000014652","term":"Vascular Diseases"},{"id":"D000002318","term":"Cardiovascular Diseases"},{"id":"D000001145","term":"Arrhythmias, Cardiac"},{"id":"D000006331","term":"Heart Diseases"},{"id":"D000010335","term":"Pathologic Processes"},{"id":"D000016769","term":"Embolism and Thrombosis"}],"browseLeaves":[{"id":"M21996","name":"Stroke","relevance":"LOW"},{"id":"M16372","name":"Thromboembolism","asFound":"Thromboembolic Events","relevance":"HIGH"},{"id":"M4276","name":"Atrial Fibrillation","asFound":"Atrial Fibrillation","relevance":"HIGH"},{"id":"M17090","name":"Vascular Diseases","relevance":"LOW"},{"id":"M4143","name":"Arrhythmias, Cardiac","relevance":"LOW"},{"id":"M9109","name":"Heart Diseases","relevance":"LOW"},{"id":"M16376","name":"Thrombosis","relevance":"LOW"},{"id":"M7474","name":"Embolism","relevance":"LOW"},{"id":"M18818","name":"Embolism and Thrombosis","relevance":"LOW"}],"browseBranches":[{"abbrev":"BC10","name":"Nervous System Diseases"},{"abbrev":"BC14","name":"Heart and Blood Diseases"},{"abbrev":"All","name":"All Conditions"},{"abbrev":"BC23","name":"Symptoms and General Pathology"}]},"interventionBrowseModule":{"meshes":[{"id":"D000001710","term":"Biotin"},{"id":"D000014859","term":"Warfarin"},{"id":"C000479958","term":"Idraparinux"},{"id":"C000545956","term":"Idrabiotaparinux"}],"ancestors":[{"id":"D000000925","term":"Anticoagulants"},{"id":"D000065427","term":"Factor Xa Inhibitors"},{"id":"D000000991","term":"Antithrombins"},{"id":"D000015842","term":"Serine Proteinase Inhibitors"},{"id":"D000011480","term":"Protease Inhibitors"},{"id":"D000004791","term":"Enzyme Inhibitors"},{"id":"D000045504","term":"Molecular Mechanisms of Pharmacological Action"},{"id":"D000014803","term":"Vitamin B Complex"},{"id":"D000014815","term":"Vitamins"},{"id":"D000018977","term":"Micronutrients"},{"id":"D000045505","term":"Physiological Effects of Drugs"}],"browseLeaves":[{"id":"M17292","name":"Warfarin","asFound":"Third","relevance":"HIGH"},{"id":"M262479","name":"Idraparinux","asFound":"Sparsentan","relevance":"HIGH"},{"id":"M259043","name":"Idrabiotaparinux","asFound":"Natesto","relevance":"HIGH"},{"id":"M4682","name":"Biotin","asFound":"Natesto","relevance":"HIGH"},{"id":"M3934","name":"Anticoagulants","relevance":"LOW"},{"id":"M30203","name":"Factor Xa Inhibitors","relevance":"LOW"},{"id":"M3997","name":"Antithrombins","relevance":"LOW"},{"id":"M3996","name":"Antithrombin III","relevance":"LOW"},{"id":"M14033","name":"Protease Inhibitors","relevance":"LOW"},{"id":"M18081","name":"Serine Proteinase Inhibitors","relevance":"LOW"},{"id":"M19299","name":"HIV Protease Inhibitors","relevance":"LOW"},{"id":"M7641","name":"Enzyme Inhibitors","relevance":"LOW"},{"id":"M17248","name":"Vitamins","relevance":"LOW"},{"id":"M8308","name":"Folic Acid","relevance":"LOW"},{"id":"M17236","name":"Vitamin B Complex","relevance":"LOW"},{"id":"M20699","name":"Micronutrients","relevance":"LOW"},{"id":"M16575","name":"Trace Elements","relevance":"LOW"},{"id":"T439","name":"Biotin","relevance":"LOW"},{"id":"T473","name":"Vitamin B7","relevance":"LOW"},{"id":"T18","name":"Serine","relevance":"LOW"},{"id":"T446","name":"Folic Acid","relevance":"LOW"},{"id":"T448","name":"Folate","relevance":"LOW"},{"id":"T475","name":"Vitamin B9","relevance":"LOW"}],"browseBranches":[{"abbrev":"AnCoag","name":"Anticoagulants"},{"abbrev":"All","name":"All Drugs and Chemicals"},{"abbrev":"Micro","name":"Micronutrients"},{"abbrev":"Infe","name":"Anti-Infective Agents"},{"abbrev":"Hemat","name":"Hematinics"},{"abbrev":"Vi","name":"Vitamins"},{"abbrev":"AA","name":"Amino Acids"}]}},"hasResults":false}