{"protocolSection":{"identificationModule":{"nctId":"NCT04126486","orgStudyIdInfo":{"id":"CV185-749"},"organization":{"fullName":"Bristol-Myers Squibb","class":"INDUSTRY"},"briefTitle":"A Study to Determine if Identification of Undiagnosed Atrial Fibrillation in People at Least 70 Years of Age Reduces the Risk of Stroke","officialTitle":"GUARD-AF: reducinG Stroke by Screening for UndiAgnosed atRial Fibrillation in Elderly inDividuals","acronym":"GUARD-AF"},"statusModule":{"statusVerifiedDate":"2023-07","overallStatus":"COMPLETED","expandedAccessInfo":{"hasExpandedAccess":false},"startDateStruct":{"date":"2019-12-17","type":"ACTUAL"},"primaryCompletionDateStruct":{"date":"2023-06-30","type":"ACTUAL"},"completionDateStruct":{"date":"2023-06-30","type":"ACTUAL"},"studyFirstSubmitDate":"2019-10-11","studyFirstSubmitQcDate":"2019-10-11","studyFirstPostDateStruct":{"date":"2019-10-15","type":"ACTUAL"},"lastUpdateSubmitDate":"2023-07-10","lastUpdatePostDateStruct":{"date":"2023-07-12","type":"ACTUAL"}},"sponsorCollaboratorsModule":{"responsibleParty":{"type":"SPONSOR"},"leadSponsor":{"name":"Bristol-Myers Squibb","class":"INDUSTRY"},"collaborators":[{"name":"Pfizer","class":"INDUSTRY"}]},"oversightModule":{"oversightHasDmc":false,"isFdaRegulatedDrug":false,"isFdaRegulatedDevice":false},"descriptionModule":{"briefSummary":"The purpose of this study is to determine if an AF detection intervention in men and women at least 70 years of age with undiagnosed atrial fibrillation (AF) or atrial flutter (AFL) reduces the person-years incidence rate of stroke compared to usual care (no AF detection intervention).","detailedDescription":"This a prospective, randomized study in primary care practices."},"conditionsModule":{"conditions":["Atrial Fibrillation","Atrial Flutter"]},"designModule":{"studyType":"INTERVENTIONAL","phases":["PHASE4"],"designInfo":{"allocation":"RANDOMIZED","interventionModel":"PARALLEL","primaryPurpose":"PREVENTION","maskingInfo":{"masking":"NONE"}},"enrollmentInfo":{"count":11931,"type":"ACTUAL"}},"armsInterventionsModule":{"armGroups":[{"label":"Zio®XT Monitor Arm","type":"OTHER","interventionNames":["Other: Zio®XT Monitor"]},{"label":"Usual Care Arm","type":"NO_INTERVENTION"}],"interventions":[{"type":"OTHER","name":"Zio®XT Monitor","description":"A Zio® XT monitor will be affixed to the participant's chest","armGroupLabels":["Zio®XT Monitor Arm"]}]},"outcomesModule":{"primaryOutcomes":[{"measure":"Incidence of all strokes leading to hospitalization","timeFrame":"From 2.5 years to 5 years after study start"},{"measure":"Incidence of bleeding leading to hospitalization","timeFrame":"From 2.5 years to 5 years after study start"}]},"eligibilityModule":{"eligibilityCriteria":"Inclusion Criteria:\n\n* Men and women at least 70 years of age who are new or established participants in the primary care practice\n* Willing to provide consent to participate in the study and to use personal health information to ascertain endpoints from the Center for Medicare \\& Medicaid Services (CMS) Medicare Claims Database and to access data from health records\n* Health insurance by Medicare Parts A \\& B (Medicare Fee-for-service)\n\nExclusion Criteria:\n\n* Oral anticoagulation (OAC) for any indication at the time of enrollment\n* History of Atrial Fibrillation (AF) or Atrial Flutter (AFL) as documented in the participant's current medical problem list\n* Any condition the investigator considers a contraindication to OAC, e.g., bleeding that required medical attention or severe renal impairment\n* Any condition the investigator considers will prevent compliance with study instructions\n* Implanted cardiac devices (pacemakers, implantable cardiac defibrillators, or cardiac resynchronization therapy, and implantable loop recorders)\n* History of allergy to adhesive\n* Not able to wear the Zio®XT monitor or not able to apply the monitor by herself/himself or with the help of a caregiver\n\nOther protocol-defined inclusion/exclusion criteria could apply","healthyVolunteers":false,"sex":"ALL","minimumAge":"70 Years","stdAges":["OLDER_ADULT"]},"contactsLocationsModule":{"overallOfficials":[{"name":"Bristol-Myers Squibb","affiliation":"Bristol-Myers Squibb","role":"STUDY_DIRECTOR"}],"locations":[{"facility":"Local Institution - 0302","city":"Birmingham","state":"Alabama","zip":"35209","country":"United States","geoPoint":{"lat":33.52066,"lon":-86.80249}},{"facility":"Local Institution - 0360","city":"Guntersville","state":"Alabama","zip":"35976","country":"United States","geoPoint":{"lat":34.35823,"lon":-86.29447}},{"facility":"Local Institution - 0158","city":"Montgomery","state":"Alabama","zip":"36106","country":"United States","geoPoint":{"lat":32.36681,"lon":-86.29997}},{"facility":"Local Institution - 0109","city":"Kingman","state":"Arizona","zip":"86409","country":"United States","geoPoint":{"lat":35.18944,"lon":-114.05301}},{"facility":"Local Institution - 0047","city":"Peoria","state":"Arizona","zip":"85381","country":"United States","geoPoint":{"lat":33.5806,"lon":-112.23738}},{"facility":"Local Institution - 0237","city":"Peoria","state":"Arizona","zip":"85381","country":"United States","geoPoint":{"lat":33.5806,"lon":-112.23738}},{"facility":"Local Institution - 0171","city":"Phoenix","state":"Arizona","zip":"85004","country":"United States","geoPoint":{"lat":33.44838,"lon":-112.07404}},{"facility":"Local Institution - 0271","city":"Phoenix","state":"Arizona","zip":"85051","country":"United States","geoPoint":{"lat":33.44838,"lon":-112.07404}},{"facility":"Local Institution - 0323","city":"Yuma","state":"Arizona","zip":"85364","country":"United States","geoPoint":{"lat":32.72532,"lon":-114.6244}},{"facility":"Local Institution - 0097","city":"Little Rock","state":"Arkansas","zip":"72204","country":"United States","geoPoint":{"lat":34.74648,"lon":-92.28959}},{"facility":"Hope Clinical Research","city":"Canoga Park","state":"California","zip":"91303","country":"United States","geoPoint":{"lat":34.20112,"lon":-118.59814}},{"facility":"Local Institution - 0173","city":"Fremont","state":"California","zip":"94538","country":"United States","geoPoint":{"lat":37.54827,"lon":-121.98857}},{"facility":"Local Institution - 0110","city":"Fullerton","state":"California","zip":"92831","country":"United States","geoPoint":{"lat":33.87029,"lon":-117.92534}},{"facility":"Local Institution - 0301","city":"Oakland","state":"California","zip":"94612","country":"United States","geoPoint":{"lat":37.80437,"lon":-122.2708}},{"facility":"Local Institution - 0248","city":"Sacramento","state":"California","zip":"95821-2640","country":"United States","geoPoint":{"lat":38.58157,"lon":-121.4944}},{"facility":"Local Institution - 0061","city":"Toluca Lake","state":"California","zip":"91602","country":"United States","geoPoint":{"lat":34.15262,"lon":-118.35731}},{"facility":"Local Institution","city":"Aventura","state":"Florida","zip":"33180","country":"United States","geoPoint":{"lat":25.95648,"lon":-80.13921}},{"facility":"Local Institution - 0143","city":"Boynton Beach","state":"Florida","zip":"33435","country":"United States","geoPoint":{"lat":26.52535,"lon":-80.06643}},{"facility":"Local Institution - 0232","city":"Clearwater","state":"Florida","zip":"33756-2004","country":"United States","geoPoint":{"lat":27.96585,"lon":-82.8001}},{"facility":"Local Institution - 0017","city":"Clearwater","state":"Florida","zip":"33761","country":"United States","geoPoint":{"lat":27.96585,"lon":-82.8001}},{"facility":"Local Institution - 0062","city":"DeLand","state":"Florida","zip":"32720","country":"United States","geoPoint":{"lat":29.02832,"lon":-81.30312}},{"facility":"University Clinical Research-Deland LLC dba Accel Research Sites","city":"DeLand","state":"Florida","zip":"32720","country":"United States","geoPoint":{"lat":29.02832,"lon":-81.30312}},{"facility":"Local Institution - 0350","city":"Doral","state":"Florida","zip":"33166","country":"United States","geoPoint":{"lat":25.81954,"lon":-80.35533}},{"facility":"Local Institution - 0367","city":"Fort Lauderdale","state":"Florida","zip":"33073","country":"United States","geoPoint":{"lat":26.12231,"lon":-80.14338}},{"facility":"Local Institution - 0161","city":"Fort Lauderdale","state":"Florida","zip":"33308","country":"United States","geoPoint":{"lat":26.12231,"lon":-80.14338}},{"facility":"Vanguard Clinical Research, LLC","city":"Fort Myers","state":"Florida","zip":"33907","country":"United States","geoPoint":{"lat":26.62168,"lon":-81.84059}},{"facility":"Finlay Medical Research Corp","city":"Greenacres City","state":"Florida","zip":"33467","country":"United States","geoPoint":{"lat":26.62368,"lon":-80.12532}},{"facility":"Local Institution - 0348","city":"Hialeah","state":"Florida","zip":"33012","country":"United States","geoPoint":{"lat":25.8576,"lon":-80.27811}},{"facility":"Local Institution - 0358","city":"Hialeah","state":"Florida","zip":"33015","country":"United States","geoPoint":{"lat":25.8576,"lon":-80.27811}},{"facility":"Local Institution - 0219","city":"Hialeah","state":"Florida","zip":"33016","country":"United States","geoPoint":{"lat":25.8576,"lon":-80.27811}},{"facility":"Local Institution - 0366","city":"Jacksonville","state":"Florida","zip":"32204","country":"United States","geoPoint":{"lat":30.33218,"lon":-81.65565}},{"facility":"Local Institution - 0368","city":"Jacksonville","state":"Florida","zip":"32216","country":"United States","geoPoint":{"lat":30.33218,"lon":-81.65565}},{"facility":"Local Institution - 0277","city":"Jacksonville","state":"Florida","zip":"32224","country":"United States","geoPoint":{"lat":30.33218,"lon":-81.65565}},{"facility":"Local Institution - 0375","city":"Lake City","state":"Florida","zip":"32055-4833","country":"United States","geoPoint":{"lat":30.18968,"lon":-82.63929}},{"facility":"Local Institution - 0149","city":"Miami Beach","state":"Florida","zip":"33140","country":"United States","geoPoint":{"lat":25.79065,"lon":-80.13005}},{"facility":"Local Institution - 0374","city":"Miami Lakes","state":"Florida","zip":"33014","country":"United States","geoPoint":{"lat":25.90871,"lon":-80.30866}},{"facility":"Local Institution - 0372","city":"Miami Shores","state":"Florida","zip":"33138","country":"United States","geoPoint":{"lat":25.86315,"lon":-80.19283}},{"facility":"Nova Clinical Research Center Inc","city":"Miami","state":"Florida","zip":"33125","country":"United States","geoPoint":{"lat":25.77427,"lon":-80.19366}},{"facility":"Local Institution - 0025","city":"Miami","state":"Florida","zip":"33144","country":"United States","geoPoint":{"lat":25.77427,"lon":-80.19366}},{"facility":"Local Institution - 0296","city":"Miami","state":"Florida","zip":"33144","country":"United States","geoPoint":{"lat":25.77427,"lon":-80.19366}},{"facility":"Local Institution","city":"Miami","state":"Florida","zip":"33155","country":"United States","geoPoint":{"lat":25.77427,"lon":-80.19366}},{"facility":"Local Institution","city":"Miami","state":"Florida","zip":"33165","country":"United States","geoPoint":{"lat":25.77427,"lon":-80.19366}},{"facility":"Local Institution - 0300","city":"Miami","state":"Florida","zip":"33174","country":"United States","geoPoint":{"lat":25.77427,"lon":-80.19366}},{"facility":"Local Institution - 0371","city":"Miami","state":"Florida","zip":"33175","country":"United States","geoPoint":{"lat":25.77427,"lon":-80.19366}},{"facility":"Local Institution","city":"Miami","state":"Florida","zip":"33176","country":"United States","geoPoint":{"lat":25.77427,"lon":-80.19366}},{"facility":"Local Institution - 0010","city":"Mount Dora","state":"Florida","zip":"32757-9519","country":"United States","geoPoint":{"lat":28.80249,"lon":-81.64452}},{"facility":"Local Institution - 0058","city":"Oviedo","state":"Florida","zip":"32765-4515","country":"United States","geoPoint":{"lat":28.67,"lon":-81.20812}},{"facility":"Local Institution - 0132","city":"Palm Harbor","state":"Florida","zip":"34684","country":"United States","geoPoint":{"lat":28.07807,"lon":-82.76371}},{"facility":"Local Institution - 0034","city":"Palm Springs","state":"Florida","zip":"33406","country":"United States","geoPoint":{"lat":26.6359,"lon":-80.09615}},{"facility":"Local Institution - 0028","city":"Tampa","state":"Florida","zip":"33613","country":"United States","geoPoint":{"lat":27.94752,"lon":-82.45843}},{"facility":"Local Institution - 0090","city":"Tampa","state":"Florida","zip":"33615","country":"United States","geoPoint":{"lat":27.94752,"lon":-82.45843}},{"facility":"Local Institution - 0361","city":"Weston","state":"Florida","zip":"33326","country":"United States","geoPoint":{"lat":26.10037,"lon":-80.39977}},{"facility":"Local Institution - 0263","city":"Albany","state":"Georgia","zip":"31701","country":"United States","geoPoint":{"lat":31.57851,"lon":-84.15574}},{"facility":"Local Institution - 0027","city":"Atlanta","state":"Georgia","zip":"30345","country":"United States","geoPoint":{"lat":33.749,"lon":-84.38798}},{"facility":"Local Institution","city":"Columbus","state":"Georgia","zip":"31904","country":"United States","geoPoint":{"lat":32.46098,"lon":-84.98771}},{"facility":"Local Institution - 0033","city":"Eatonton","state":"Georgia","zip":"31024","country":"United States","geoPoint":{"lat":33.3268,"lon":-83.3885}},{"facility":"Local Institution - 0176","city":"Fayetteville","state":"Georgia","zip":"30214","country":"United States","geoPoint":{"lat":33.44873,"lon":-84.45493}},{"facility":"Local Institution - 0214","city":"Rincon","state":"Georgia","zip":"31406","country":"United States","geoPoint":{"lat":32.29603,"lon":-81.23539}},{"facility":"Local Institution - 0098","city":"Savannah","state":"Georgia","zip":"31406","country":"United States","geoPoint":{"lat":32.08354,"lon":-81.09983}},{"facility":"Local Institution - 0123","city":"Woodstock","state":"Georgia","zip":"30189","country":"United States","geoPoint":{"lat":34.10149,"lon":-84.51938}},{"facility":"Local Institution - 0311","city":"Chicago","state":"Illinois","zip":"60637","country":"United States","geoPoint":{"lat":41.85003,"lon":-87.65005}},{"facility":"Local Institution - 0345","city":"Evergreen Park","state":"Illinois","zip":"60805","country":"United States","geoPoint":{"lat":41.72059,"lon":-87.70172}},{"facility":"Local Institution - 0241","city":"Gillespie","state":"Illinois","zip":"62033","country":"United States","geoPoint":{"lat":39.12977,"lon":-89.81954}},{"facility":"Local Institution - 0306","city":"Wauconda","state":"Illinois","zip":"60084","country":"United States","geoPoint":{"lat":42.25891,"lon":-88.13925}},{"facility":"Local Institution - 0365","city":"Indianapolis","state":"Indiana","zip":"46202","country":"United States","geoPoint":{"lat":39.76838,"lon":-86.15804}},{"facility":"Local Institution - 0254","city":"Michigan City","state":"Indiana","zip":"46360-9330","country":"United States","geoPoint":{"lat":41.70754,"lon":-86.89503}},{"facility":"Local Institution - 0338","city":"Ames","state":"Iowa","zip":"50010","country":"United States","geoPoint":{"lat":42.03471,"lon":-93.61994}},{"facility":"University of Iowa","city":"Iowa City","state":"Iowa","zip":"52242","country":"United States","geoPoint":{"lat":41.66113,"lon":-91.53017}},{"facility":"Local Institution - 0244","city":"Wichita","state":"Kansas","zip":"67214","country":"United States","geoPoint":{"lat":37.69224,"lon":-97.33754}},{"facility":"Local Institution - 0369","city":"Lexington","state":"Kentucky","zip":"40504","country":"United States","geoPoint":{"lat":37.98869,"lon":-84.47772}},{"facility":"Local Institution - 0133","city":"Eunice","state":"Louisiana","zip":"70535","country":"United States","geoPoint":{"lat":30.49437,"lon":-92.41763}},{"facility":"Local Institution - 0321","city":"New Orleans","state":"Louisiana","zip":"70121","country":"United States","geoPoint":{"lat":29.95465,"lon":-90.07507}},{"facility":"Local Institution - 0229","city":"Zachary","state":"Louisiana","zip":"70791-4006","country":"United States","geoPoint":{"lat":30.64852,"lon":-91.1565}},{"facility":"Local Institution - 0351","city":"Annapolis","state":"Maryland","zip":"21401","country":"United States","geoPoint":{"lat":38.97845,"lon":-76.49218}},{"facility":"Johns Hopkins","city":"Baltimore","state":"Maryland","zip":"21287","country":"United States","geoPoint":{"lat":39.29038,"lon":-76.61219}},{"facility":"Local Institution - 0037","city":"Elkridge","state":"Maryland","zip":"21075","country":"United States","geoPoint":{"lat":39.21261,"lon":-76.71358}},{"facility":"Local Institution - 0095","city":"Rockville","state":"Maryland","zip":"20854","country":"United States","geoPoint":{"lat":39.084,"lon":-77.15276}},{"facility":"Local Institution - 0284","city":"Boston","state":"Massachusetts","zip":"02114","country":"United States","geoPoint":{"lat":42.35843,"lon":-71.05977}},{"facility":"Local Institution - 0051","city":"Boston","state":"Massachusetts","zip":"02115","country":"United States","geoPoint":{"lat":42.35843,"lon":-71.05977}},{"facility":"Local Institution - 0333","city":"Haverhill","state":"Massachusetts","zip":"01830","country":"United States","geoPoint":{"lat":42.7762,"lon":-71.07728}},{"facility":"Local Institution - 0201","city":"New Bedford","state":"Massachusetts","zip":"02740","country":"United States","geoPoint":{"lat":41.63622,"lon":-70.93421}},{"facility":"Local Institution - 0227","city":"Worcester","state":"Massachusetts","zip":"01655","country":"United States","geoPoint":{"lat":42.26259,"lon":-71.80229}},{"facility":"Local Institution - 0260","city":"Caro","state":"Michigan","zip":"48723","country":"United States","geoPoint":{"lat":43.49073,"lon":-83.39885}},{"facility":"Local Institution - 0005","city":"Detroit","state":"Michigan","zip":"48216","country":"United States","geoPoint":{"lat":42.33143,"lon":-83.04575}},{"facility":"Local Institution - 0166","city":"Sterling Heights","state":"Michigan","zip":"48310","country":"United States","geoPoint":{"lat":42.58031,"lon":-83.0302}},{"facility":"Local Institution - 0257","city":"Troy","state":"Michigan","zip":"48085","country":"United States","geoPoint":{"lat":42.60559,"lon":-83.14993}},{"facility":"Local Institution - 0256","city":"Rochester","state":"Minnesota","zip":"55905-0001","country":"United States","geoPoint":{"lat":44.02163,"lon":-92.4699}},{"facility":"Belzoni Family Practice","city":"Belzoni","state":"Mississippi","zip":"39038","country":"United States","geoPoint":{"lat":33.18429,"lon":-90.48926}},{"facility":"Local Institution - 0089","city":"Jackson","state":"Mississippi","zip":"39209","country":"United States","geoPoint":{"lat":32.29876,"lon":-90.18481}},{"facility":"Local Institution - 0224","city":"Petal","state":"Mississippi","zip":"39465","country":"United States","geoPoint":{"lat":31.34656,"lon":-89.26006}},{"facility":"Local Institution - 0060","city":"Picayune","state":"Mississippi","zip":"39466","country":"United States","geoPoint":{"lat":30.52556,"lon":-89.67788}},{"facility":"Quinn Healthcare/SKYCRNG","city":"Ridgeland","state":"Mississippi","zip":"39157","country":"United States","geoPoint":{"lat":32.42848,"lon":-90.13231}},{"facility":"Local Institution - 0116","city":"Saint Louis","state":"Missouri","zip":"63123","country":"United States","geoPoint":{"lat":38.62727,"lon":-90.19789}},{"facility":"Local Institution - 0063","city":"Norfolk","state":"Nebraska","zip":"68701","country":"United States","geoPoint":{"lat":42.02834,"lon":-97.417}},{"facility":"Local Institution - 0222","city":"Henderson","state":"Nevada","zip":"89014","country":"United States","geoPoint":{"lat":36.0397,"lon":-114.98194}},{"facility":"Local Institution","city":"Las Vegas","state":"Nevada","zip":"89109","country":"United States","geoPoint":{"lat":36.17497,"lon":-115.13722}},{"facility":"Local Institution - 0334","city":"Linden","state":"New Jersey","zip":"07036","country":"United States","geoPoint":{"lat":40.62205,"lon":-74.24459}},{"facility":"Local Institution - 0249","city":"Brooklyn","state":"New York","zip":"11229","country":"United States","geoPoint":{"lat":40.6501,"lon":-73.94958}},{"facility":"Local Institution - 0362","city":"Cooperstown","state":"New York","zip":"13326","country":"United States","geoPoint":{"lat":42.70048,"lon":-74.92426}},{"facility":"Local Institution","city":"East Syracuse","state":"New York","zip":"13057","country":"United States","geoPoint":{"lat":43.06534,"lon":-76.07853}},{"facility":"Local Institution - 0102","city":"Endwell","state":"New York","zip":"13760","country":"United States","geoPoint":{"lat":42.11285,"lon":-76.02103}},{"facility":"Local Institution - 0379","city":"Niagara Falls","state":"New York","zip":"14304","country":"United States","geoPoint":{"lat":43.0945,"lon":-79.05671}},{"facility":"Digiovanna Institute For Medical Education","city":"North Massapequa","state":"New York","zip":"11758","country":"United States","geoPoint":{"lat":40.70093,"lon":-73.46207}},{"facility":"Local Institution","city":"Black Mountain","state":"North Carolina","zip":"28711","country":"United States","geoPoint":{"lat":35.6179,"lon":-82.32123}},{"facility":"Local Institution - 0328","city":"Burlington","state":"North Carolina","zip":"27215","country":"United States","geoPoint":{"lat":36.09569,"lon":-79.4378}},{"facility":"Local Institution - 0164","city":"Cary","state":"North Carolina","zip":"27615","country":"United States","geoPoint":{"lat":35.79154,"lon":-78.78112}},{"facility":"PMG Research of Charlotte, LLC","city":"Charlotte","state":"North Carolina","zip":"28209","country":"United States","geoPoint":{"lat":35.22709,"lon":-80.84313}},{"facility":"Local Institution - 0207","city":"Charlotte","state":"North Carolina","zip":"28287","country":"United States","geoPoint":{"lat":35.22709,"lon":-80.84313}},{"facility":"Local Institution - 0006","city":"Durham","state":"North Carolina","zip":"27701","country":"United States","geoPoint":{"lat":35.99403,"lon":-78.89862}},{"facility":"Local Institution","city":"Fayetteville","state":"North Carolina","zip":"28304-3571","country":"United States","geoPoint":{"lat":35.05266,"lon":-78.87836}},{"facility":"Local Institution - 0268","city":"Franklinton","state":"North Carolina","zip":"27525","country":"United States","geoPoint":{"lat":36.10182,"lon":-78.45805}},{"facility":"Local Institution - 0258","city":"Greensboro","state":"North Carolina","zip":"27408","country":"United States","geoPoint":{"lat":36.07264,"lon":-79.79198}},{"facility":"Local Institution - 0159","city":"Hickory","state":"North Carolina","zip":"28601","country":"United States","geoPoint":{"lat":35.73319,"lon":-81.3412}},{"facility":"Local Institution - 0331","city":"Matthews","state":"North Carolina","zip":"28105","country":"United States","geoPoint":{"lat":35.11681,"lon":-80.72368}},{"facility":"Local Institution - 0230","city":"Raleigh","state":"North Carolina","zip":"27609","country":"United States","geoPoint":{"lat":35.7721,"lon":-78.63861}},{"facility":"Local Institution - 0175","city":"Rocky Mount","state":"North Carolina","zip":"27804","country":"United States","geoPoint":{"lat":35.93821,"lon":-77.79053}},{"facility":"Local Institution - 0253","city":"Salisbury","state":"North Carolina","zip":"28144","country":"United States","geoPoint":{"lat":35.67097,"lon":-80.47423}},{"facility":"Local Institution - 0153","city":"Statesville","state":"North Carolina","zip":"28625","country":"United States","geoPoint":{"lat":35.78264,"lon":-80.8873}},{"facility":"Local Institution - 0182","city":"Statesville","state":"North Carolina","zip":"28625","country":"United States","geoPoint":{"lat":35.78264,"lon":-80.8873}},{"facility":"Local Institution - 0235","city":"Wilmington","state":"North Carolina","zip":"28401-7307","country":"United States","geoPoint":{"lat":34.22573,"lon":-77.94471}},{"facility":"Local Institution - 0167","city":"Winston-Salem","state":"North Carolina","zip":"27103-4109","country":"United States","geoPoint":{"lat":36.09986,"lon":-80.24422}},{"facility":"Sterling Research Group","city":"Cincinnati","state":"Ohio","zip":"45219","country":"United States","geoPoint":{"lat":39.12713,"lon":-84.51435}},{"facility":"Local Institution - 0085","city":"Cincinnati","state":"Ohio","zip":"45246","country":"United States","geoPoint":{"lat":39.12713,"lon":-84.51435}},{"facility":"Local Institution - 0283","city":"Cleveland","state":"Ohio","zip":"44195","country":"United States","geoPoint":{"lat":41.4995,"lon":-81.69541}},{"facility":"Local Institution - 0036","city":"Columbus","state":"Ohio","zip":"43213-3399","country":"United States","geoPoint":{"lat":39.96118,"lon":-82.99879}},{"facility":"Dayton Clinical Research","city":"Dayton","state":"Ohio","zip":"45406","country":"United States","geoPoint":{"lat":39.75895,"lon":-84.19161}},{"facility":"Local Institution - 0212","city":"Dayton","state":"Ohio","zip":"45419","country":"United States","geoPoint":{"lat":39.75895,"lon":-84.19161}},{"facility":"Local Institution - 0129","city":"Philadelphia","state":"Pennsylvania","zip":"19107","country":"United States","geoPoint":{"lat":39.95233,"lon":-75.16379}},{"facility":"Local Institution - 0272","city":"Pittsburgh","state":"Pennsylvania","zip":"15208","country":"United States","geoPoint":{"lat":40.44062,"lon":-79.99589}},{"facility":"Local Institution - 0236","city":"Pittsburgh","state":"Pennsylvania","zip":"15236-4604","country":"United States","geoPoint":{"lat":40.44062,"lon":-79.99589}},{"facility":"Local Institution - 0349","city":"Pittsburgh","state":"Pennsylvania","zip":"15243","country":"United States","geoPoint":{"lat":40.44062,"lon":-79.99589}},{"facility":"Local Institution - 0347","city":"Uniontown","state":"Pennsylvania","zip":"15401","country":"United States","geoPoint":{"lat":39.90008,"lon":-79.71643}},{"facility":"Local Institution - 0370","city":"Uniontown","state":"Pennsylvania","zip":"15401","country":"United States","geoPoint":{"lat":39.90008,"lon":-79.71643}},{"facility":"Local Institution - 0240","city":"East Providence","state":"Rhode Island","zip":"02914","country":"United States","geoPoint":{"lat":41.81371,"lon":-71.37005}},{"facility":"Local Institution - 0155","city":"Bristol","state":"Tennessee","zip":"37620","country":"United States","geoPoint":{"lat":36.59511,"lon":-82.18874}},{"facility":"Local Institution - 0234","city":"Knoxville","state":"Tennessee","zip":"37912","country":"United States","geoPoint":{"lat":35.96064,"lon":-83.92074}},{"facility":"Local Institution - 0324","city":"Morristown","state":"Tennessee","zip":"37813","country":"United States","geoPoint":{"lat":36.21398,"lon":-83.29489}},{"facility":"Local Institution - 0309","city":"Nashville","state":"Tennessee","zip":"37212","country":"United States","geoPoint":{"lat":36.16589,"lon":-86.78444}},{"facility":"Wellness Clinical Research","city":"Allen","state":"Texas","zip":"75013","country":"United States","geoPoint":{"lat":33.10317,"lon":-96.67055}},{"facility":"Local Institution - 0187","city":"Austin","state":"Texas","zip":"78731","country":"United States","geoPoint":{"lat":30.26715,"lon":-97.74306}},{"facility":"Local Institution - 0243","city":"Austin","state":"Texas","zip":"78745","country":"United States","geoPoint":{"lat":30.26715,"lon":-97.74306}},{"facility":"HRMD Research","city":"Dallas","state":"Texas","zip":"75240","country":"United States","geoPoint":{"lat":32.78306,"lon":-96.80667}},{"facility":"Local Institution - 0242","city":"Denton","state":"Texas","zip":"76210","country":"United States","geoPoint":{"lat":33.21484,"lon":-97.13307}},{"facility":"Invesclinic.U.S,LLC","city":"Edinburg","state":"Texas","zip":"78539","country":"United States","geoPoint":{"lat":26.30174,"lon":-98.16334}},{"facility":"Local Institution - 0141","city":"Friendswood","state":"Texas","zip":"77546","country":"United States","geoPoint":{"lat":29.5294,"lon":-95.20104}},{"facility":"Local Institution - 0354","city":"Georgetown","state":"Texas","zip":"78628","country":"United States","geoPoint":{"lat":30.63269,"lon":-97.67723}},{"facility":"Local Institution - 0011","city":"Houston","state":"Texas","zip":"77070","country":"United States","geoPoint":{"lat":29.76328,"lon":-95.36327}},{"facility":"Local Institution - 0343","city":"Houston","state":"Texas","zip":"77095","country":"United States","geoPoint":{"lat":29.76328,"lon":-95.36327}},{"facility":"Local Institution - 0016","city":"Hurst","state":"Texas","zip":"76054-3351","country":"United States","geoPoint":{"lat":32.82346,"lon":-97.17057}},{"facility":"Local Institution - 0151","city":"Laredo","state":"Texas","zip":"78041","country":"United States","geoPoint":{"lat":27.50641,"lon":-99.50754}},{"facility":"Local Institution - 0170","city":"Mesquite","state":"Texas","zip":"75149","country":"United States","geoPoint":{"lat":32.7668,"lon":-96.59916}},{"facility":"Local Institution - 0101","city":"Pearland","state":"Texas","zip":"77584-7401","country":"United States","geoPoint":{"lat":29.56357,"lon":-95.28605}},{"facility":"Local Institution - 0223","city":"Pflugerville","state":"Texas","zip":"78660","country":"United States","geoPoint":{"lat":30.43937,"lon":-97.62}},{"facility":"Local Institution - 0303","city":"Pharr","state":"Texas","zip":"78577","country":"United States","geoPoint":{"lat":26.1948,"lon":-98.18362}},{"facility":"Local Institution - 0204","city":"Plano","state":"Texas","zip":"75025","country":"United States","geoPoint":{"lat":33.01984,"lon":-96.69889}},{"facility":"Local Institution - 0067","city":"Plano","state":"Texas","zip":"75093","country":"United States","geoPoint":{"lat":33.01984,"lon":-96.69889}},{"facility":"SA Premiere Internal Medicine","city":"San Antonio","state":"Texas","zip":"78220-2531","country":"United States","geoPoint":{"lat":29.42412,"lon":-98.49363}},{"facility":"Local Institution - 0092","city":"San Antonio","state":"Texas","zip":"78249","country":"United States","geoPoint":{"lat":29.42412,"lon":-98.49363}},{"facility":"Local Institution - 0278","city":"San Marcos","state":"Texas","zip":"78666-7579","country":"United States","geoPoint":{"lat":29.88327,"lon":-97.94139}},{"facility":"Local Institution - 0055","city":"Sugar Land","state":"Texas","zip":"77479","country":"United States","geoPoint":{"lat":29.61968,"lon":-95.63495}},{"facility":"Local Institution - 0137","city":"Sugar Land","state":"Texas","zip":"77479","country":"United States","geoPoint":{"lat":29.61968,"lon":-95.63495}},{"facility":"Local Institution - 0251","city":"The Woodlands","state":"Texas","zip":"77382","country":"United States","geoPoint":{"lat":30.15799,"lon":-95.48938}},{"facility":"Local Institution - 0147","city":"The Woodlands","state":"Texas","zip":"77384","country":"United States","geoPoint":{"lat":30.15799,"lon":-95.48938}},{"facility":"Local Institution - 0322","city":"Tyler","state":"Texas","zip":"75702","country":"United States","geoPoint":{"lat":32.35126,"lon":-95.30106}},{"facility":"Local Institution - 0150","city":"Bountiful","state":"Utah","zip":"84010","country":"United States","geoPoint":{"lat":40.88939,"lon":-111.88077}},{"facility":"Local Institution - 0339","city":"Appomattox","state":"Virginia","zip":"24522","country":"United States","geoPoint":{"lat":37.35709,"lon":-78.82529}},{"facility":"Local Institution - 0191","city":"Burke","state":"Virginia","zip":"22015","country":"United States","geoPoint":{"lat":38.79345,"lon":-77.27165}},{"facility":"Local Institution - 0340","city":"Forest","state":"Virginia","zip":"24551","country":"United States","geoPoint":{"lat":37.36375,"lon":-79.28975}},{"facility":"Local Institution - 0267","city":"Suffolk","state":"Virginia","zip":"23435","country":"United States","geoPoint":{"lat":36.72836,"lon":-76.58496}},{"facility":"Local Institution - 0096","city":"Winchester","state":"Virginia","zip":"22601","country":"United States","geoPoint":{"lat":39.18566,"lon":-78.16333}},{"facility":"Local Institution - 0364","city":"Winchester","state":"Virginia","zip":"22601","country":"United States","geoPoint":{"lat":39.18566,"lon":-78.16333}},{"facility":"Local Institution - 0086","city":"Everett","state":"Washington","zip":"98208","country":"United States","geoPoint":{"lat":47.97898,"lon":-122.20208}},{"facility":"Local Institution - 0299","city":"Tacoma","state":"Washington","zip":"98498","country":"United States","geoPoint":{"lat":47.25288,"lon":-122.44429}},{"facility":"Local Institution - 0337","city":"Eau Claire","state":"Wisconsin","zip":"54703","country":"United States","geoPoint":{"lat":44.81135,"lon":-91.49849}},{"facility":"Local Institution - 0335","city":"La Crosse","state":"Wisconsin","zip":"54601","country":"United States","geoPoint":{"lat":43.80136,"lon":-91.23958}},{"facility":"Local Institution - 0288","city":"Madison","state":"Wisconsin","zip":"53715","country":"United States","geoPoint":{"lat":43.07305,"lon":-89.40123}}]},"referencesModule":{"seeAlsoLinks":[{"label":"BMS Clinical Trial Information","url":"https://www.bms.com/researchers-and-partners/clinical-trials-and-research.html"},{"label":"BMS Clinical Trial Patient Recruiting","url":"https://www.bmsstudyconnect.com/us/en/home.html"}]}},"derivedSection":{"miscInfoModule":{"versionHolder":"2024-02-14"},"conditionBrowseModule":{"meshes":[{"id":"D000001281","term":"Atrial Fibrillation"},{"id":"D000001282","term":"Atrial Flutter"}],"ancestors":[{"id":"D000001145","term":"Arrhythmias, Cardiac"},{"id":"D000006331","term":"Heart Diseases"},{"id":"D000002318","term":"Cardiovascular Diseases"},{"id":"D000010335","term":"Pathologic Processes"}],"browseLeaves":[{"id":"M21996","name":"Stroke","relevance":"LOW"},{"id":"M4276","name":"Atrial Fibrillation","asFound":"Atrial Fibrillation","relevance":"HIGH"},{"id":"M4277","name":"Atrial Flutter","asFound":"Atrial Flutter","relevance":"HIGH"},{"id":"M4143","name":"Arrhythmias, Cardiac","relevance":"LOW"},{"id":"M9109","name":"Heart Diseases","relevance":"LOW"}],"browseBranches":[{"abbrev":"BC10","name":"Nervous System Diseases"},{"abbrev":"BC14","name":"Heart and Blood Diseases"},{"abbrev":"All","name":"All Conditions"},{"abbrev":"BC23","name":"Symptoms and General Pathology"}]}},"hasResults":false}