{"protocolSection":{"identificationModule":{"nctId":"NCT02507856","orgStudyIdInfo":{"id":"PRODAST"},"organization":{"fullName":"University Hospital, Essen","class":"OTHER"},"briefTitle":"Prospective Record Of the Use of Dabigatran in Patients With Acute Stroke or TIA","officialTitle":"Prospective Record Of the Use of Dabigatran in Patients With Acute Stroke or TIA","acronym":"PRODAST"},"statusModule":{"statusVerifiedDate":"2022-05","overallStatus":"COMPLETED","expandedAccessInfo":{"hasExpandedAccess":false},"startDateStruct":{"date":"2015-07","type":"ACTUAL"},"primaryCompletionDateStruct":{"date":"2021-12","type":"ACTUAL"},"completionDateStruct":{"date":"2022-04","type":"ACTUAL"},"studyFirstSubmitDate":"2015-07-16","studyFirstSubmitQcDate":"2015-07-22","studyFirstPostDateStruct":{"date":"2015-07-24","type":"ESTIMATED"},"lastUpdateSubmitDate":"2022-05-09","lastUpdatePostDateStruct":{"date":"2022-05-10","type":"ACTUAL"}},"sponsorCollaboratorsModule":{"responsibleParty":{"type":"PRINCIPAL_INVESTIGATOR","investigatorFullName":"Prof. Dr. Hans Diener","investigatorTitle":"Prof. Dr. med.","investigatorAffiliation":"University Hospital, Essen"},"leadSponsor":{"name":"University Hospital, Essen","class":"OTHER"}},"oversightModule":{"oversightHasDmc":true},"descriptionModule":{"briefSummary":"The multi-center, prospective PRODAST study is investigating patients with non-valvular atrial fibrillation (AF) who experienced an ischemic stroke or a transient ischemic attack (TIA) recently (≤ 1 week) both with and without previous oral anticoagulation. It consists of a baseline visit and a 3 months central follow-up for patients who were discharged with dabigatran, vitamin K-antagonists, antiplatelets only, or no oral antithrombotic treatment at all. Thus, data on the use of dabigatran and vitamin K-antagonists in routine clinical practice will be collected to describe how dabigatran is prescribed and used in the population of AF patients with recent cerebrovascular events and how these factors influence important outcome and safety events. The utilization of dabigatran will be assessed with regards to treatment persistence, compliance, proportion of patients discontinuing treatment and reason for discontinuation as well clinical endpoints such as major bleeding, stroke or systemic embolism. Due to the fact that patients will be treated according to local medical practice it is possible that medication will be changed during the observation period. In the follow-up, data from the first as well as from the second prescribed medication will be used in the study. To explore a long-term effect of anticoagulation, survival up to one year will be assessed."},"conditionsModule":{"conditions":["Brain Ischemia With Non-valvular Atrial Fibrillation","Transient Ischemic Attack With Non-valvular Atrial Fibrillation"]},"designModule":{"studyType":"OBSERVATIONAL","patientRegistry":true,"targetDuration":"3 Months","designInfo":{"observationalModel":"COHORT","timePerspective":"PROSPECTIVE"},"enrollmentInfo":{"count":10044,"type":"ACTUAL"}},"armsInterventionsModule":{"armGroups":[{"label":"investigational group","description":"early/late dabigatran"},{"label":"control group","description":"vitamin k antagonist (vka)"}]},"outcomesModule":{"primaryOutcomes":[{"measure":"Major bleeding event rate","description":"Major bleeding event rate within 3 months following the index event (= stroke or TIA)","timeFrame":"from study inclusion up to 3 months"}],"secondaryOutcomes":[{"measure":"Complications during hospitalisation","description":"Complications during hospitalisation before study inclusion (= signature of informed consent)","timeFrame":"from index event up to 1 week"},{"measure":"Number of participants with newly occurring or recurrent strokes","description":"Stroke (hemorrhagic, ischemic or uncertain classification)","timeFrame":"from study inclusion up to 3 months"},{"measure":"Severity of stroke assessed by modified Rankin Scale (mRS)","timeFrame":"from study inclusion up to 3 months"},{"measure":"Number of participants with newly occurring or recurrent TIA","description":"transient ischemic attack","timeFrame":"from study inclusion up to 3 months"},{"measure":"Number of participants with systemic embolism","timeFrame":"from study inclusion up to 3 months"},{"measure":"Number of participants with pulmonary embolism","timeFrame":"from study inclusion up to 3 months"},{"measure":"Number of participants with myocardial infarction","timeFrame":"from study inclusion up to 3 months"},{"measure":"Life-threatening bleeding events","timeFrame":"from study inclusion up to 3 months"},{"measure":"Any cause of death","description":"any cause of death (non-vascular, vascular or unknown cause)","timeFrame":"from study inclusion up to 3 months"},{"measure":"Point in time for withdrawal/change of medication","timeFrame":"from study inclusion up to 3 months"},{"measure":"Reason for withdrawal/change of medication","timeFrame":"from study inclusion up to 3 months"},{"measure":"Patient compliance","timeFrame":"from study inclusion up to 3 months"},{"measure":"Treatment persistence","timeFrame":"from study inclusion up to 3 months"},{"measure":"(Serious) Adverse Events (AE/SAE)","timeFrame":"from study inclusion up to 3 months"},{"measure":"Survival one year after study inclusion","description":"any cause of death (non-vascular, vascular or unknown cause)","timeFrame":"up to 1 year from study inclusion"}]},"eligibilityModule":{"eligibilityCriteria":"Inclusion Criteria:\n\n* Age ≥18 years at enrollment\n* Male or female patient willing and able to provide written informed consent for data transmission. For patients who are not legally competent to sign this informed consent for data transmission exceptions/special cases are described in the protocol.\n* Patient with ischemic stroke or TIA within the last 7 days.\n* Patient diagnosed with non-valvular AF. Documentation of AF by 12 lead ECG, ECG rhythm strip, monitor print-out, pacemaker/ICD electrocardiogram, Holter ECG (duration of AF episode at least 30 seconds) or written physician´s diagnosis prior to index event needed for all enrolled patients.\n\nExclusion Criteria:\n\n* Presence of any mechanical heart valve, or valve disease that is expected to require valve replacement intervention (surgical or non-surgical) during the next 3 months.\n* Current participation in any randomized clinical trial of an experimental drug or device.\n* Women of childbearing age without anamnestic exclusion of pregnancy or not using an effective contraception or nursing mothers.","healthyVolunteers":false,"sex":"ALL","minimumAge":"18 Years","stdAges":["ADULT","OLDER_ADULT"],"studyPopulation":"Patients with recent (≤ 1 week from index) ischemic stroke or TIA and with confirmed non-valvular AF (documented by 12 lead ECG, ECG rhythm strip, pacemaker/ICD electrocardiogram, or Holter ECG) will be included.","samplingMethod":"NON_PROBABILITY_SAMPLE"},"contactsLocationsModule":{"overallOfficials":[{"name":"Hans Diener, Prof. Dr.","affiliation":"University Hospital, Essen","role":"STUDY_DIRECTOR"}],"locations":[{"facility":"Klinikum Altenburger Land GmbH","city":"Altenburg","zip":"04600","country":"Germany","geoPoint":{"lat":50.98763,"lon":12.43684}},{"facility":"Kreisklinik Altötting","city":"Altötting","zip":"84503","country":"Germany","geoPoint":{"lat":48.22533,"lon":12.67665}},{"facility":"Schön Klinik Bad Aibling","city":"Bad Aibling","zip":"83043","country":"Germany","geoPoint":{"lat":47.8638,"lon":12.01055}},{"facility":"Hochtaunus-Kliniken gGmbH, Krankenhaus Bad Homburg","city":"Bad Homburg","zip":"61352","country":"Germany","geoPoint":{"lat":50.22683,"lon":8.61816}},{"facility":"Neurologische Klinik Bad Neustadt a. d. Saale","city":"Bad Neustadt an der Saale","zip":"97616","country":"Germany","geoPoint":{"lat":50.32174,"lon":10.20673}},{"facility":"Klinikum Bayreuth","city":"Bayreuth","zip":"95445","country":"Germany","geoPoint":{"lat":49.94782,"lon":11.57893}},{"facility":"Vivantes Auguste-Viktoria Klinikum","city":"Berlin","zip":"12157","country":"Germany","geoPoint":{"lat":52.52437,"lon":13.41053}},{"facility":"Vivantes Klinikum Neukölln","city":"Berlin","zip":"12351","country":"Germany","geoPoint":{"lat":52.52437,"lon":13.41053}},{"facility":"Unfallkrankenhaus Berlin","city":"Berlin","zip":"12683","country":"Germany","geoPoint":{"lat":52.52437,"lon":13.41053}},{"facility":"Vivantes Humboldt Klinikum GmbH","city":"Berlin","zip":"13509","country":"Germany","geoPoint":{"lat":52.52437,"lon":13.41053}},{"facility":"Evangelisches Krankenhaus Bielefeld gGmbH","city":"Bielefeld","zip":"33611","country":"Germany","geoPoint":{"lat":52.03333,"lon":8.53333}},{"facility":"Berufsgenossenschaftliches Universitätsklinikum Bergmannsheil GmbH","city":"Bochum","zip":"44789","country":"Germany","geoPoint":{"lat":51.48165,"lon":7.21648}},{"facility":"St. Josef Hospital Ruhr University Bochum","city":"Bochum","zip":"44791","country":"Germany","geoPoint":{"lat":51.48165,"lon":7.21648}},{"facility":"Universitätsklinikum Bonn","city":"Bonn","zip":"53127","country":"Germany","geoPoint":{"lat":50.73438,"lon":7.09549}},{"facility":"Knappschaftskrankenhaus Bottrop GmbH","city":"Bottrop","zip":"46242","country":"Germany","geoPoint":{"lat":51.52392,"lon":6.9285}},{"facility":"Klinikum Bremerhaven-Reinkenheide gGmbH","city":"Bremerhaven","zip":"27574","country":"Germany","geoPoint":{"lat":53.55021,"lon":8.57673}},{"facility":"Krankenhaus Buchholz und Winsen gGmbH","city":"Buchholz","zip":"21244","country":"Germany","geoPoint":{"lat":53.00884,"lon":9.56287}},{"facility":"Evangelisches Krankenhaus Castrop-Rauxel","city":"Castrop-Rauxel","zip":"44577","country":"Germany","geoPoint":{"lat":51.55657,"lon":7.31155}},{"facility":"Allgemeines Krankenhaus Celle","city":"Celle","zip":"29223","country":"Germany","geoPoint":{"lat":52.62264,"lon":10.08047}},{"facility":"REGIOMED-Kliniken - Klinikum Coburg","city":"Coburg","zip":"96450","country":"Germany","geoPoint":{"lat":50.25937,"lon":10.96384}},{"facility":"Krankenhaus St. Elisabeth gGmbH","city":"Damme","zip":"49401","country":"Germany","geoPoint":{"lat":52.52157,"lon":8.19793}},{"facility":"Klinikum Dortmund gGmbH","city":"Dortmund","zip":"44137","country":"Germany","geoPoint":{"lat":51.51494,"lon":7.466}},{"facility":"Städtisches Klinikum Dresden-Neustadt","city":"Dresden","zip":"01129","country":"Germany","geoPoint":{"lat":51.05089,"lon":13.73832}},{"facility":"Universitätsklinikum Carl Gustav Carus Dresden","city":"Dresden","zip":"01304","country":"Germany","geoPoint":{"lat":51.05089,"lon":13.73832}},{"facility":"Evangelisches Klinikum Niederrhein gGmbH","city":"Duisburg","zip":"47169","country":"Germany","geoPoint":{"lat":51.43247,"lon":6.76516}},{"facility":"Klinikum Emden, Hans-Susemihl Krankenhaus","city":"Emden","zip":"26721","country":"Germany","geoPoint":{"lat":53.36745,"lon":7.20778}},{"facility":"Alfried Krupp Krankenhaus Rüttenscheid","city":"Essen","zip":"45131","country":"Germany","geoPoint":{"lat":51.45657,"lon":7.01228}},{"facility":"University Hospital Essen, Department of Neurology","city":"Essen","zip":"45147","country":"Germany","geoPoint":{"lat":51.45657,"lon":7.01228}},{"facility":"Klinikum der Johann Wolfgang Goethe-Universität","city":"Frankfurt am Main","zip":"60528","country":"Germany","geoPoint":{"lat":50.11552,"lon":8.68417}},{"facility":"Klinikum Frankfurt Höchst GmbH","city":"Frankfurt","zip":"65929","country":"Germany","geoPoint":{"lat":50.11552,"lon":8.68417}},{"facility":"Universitätsklinikum Freiburg","city":"Freiburg","zip":"79106","country":"Germany","geoPoint":{"lat":47.9959,"lon":7.85222}},{"facility":"Klinikum Fulda gAG","city":"Fulda","zip":"36043","country":"Germany","geoPoint":{"lat":50.55162,"lon":9.67518}},{"facility":"Evangelische Kliniken Gelsenkirchen gGmbH","city":"Gelsenkirchen","zip":"45879","country":"Germany","geoPoint":{"lat":51.50508,"lon":7.09655}},{"facility":"SRH Wald-Klinikum Gera GmbH","city":"Gera","zip":"07548","country":"Germany","geoPoint":{"lat":50.88029,"lon":12.08187}},{"facility":"Klinikum Oberberg - Kreiskrankenhaus Gummersbach GmbH","city":"Gummersbach","zip":"51643","country":"Germany","geoPoint":{"lat":51.02608,"lon":7.56473}},{"facility":"Universitätsmedizin Göttingen, Georg-August-Universität","city":"Göttingen","zip":"37075","country":"Germany","geoPoint":{"lat":51.53443,"lon":9.93228}},{"facility":"Krankenhaus Martha-Maria Halle-Dölau","city":"Halle (Saale)","zip":"06056","country":"Germany","geoPoint":{"lat":51.48159,"lon":11.97948}},{"facility":"UKH Universitätsklinikum Halle (Saale)","city":"Halle","zip":"06120","country":"Germany","geoPoint":{"lat":51.48159,"lon":11.97948}},{"facility":"Universitätsklinikum Hamburg-Eppendorf","city":"Hamburg","zip":"20246","country":"Germany","geoPoint":{"lat":53.57532,"lon":10.01534}},{"facility":"Asklepios Klinik Wandsbek","city":"Hamburg","zip":"22043","country":"Germany","geoPoint":{"lat":53.57532,"lon":10.01534}},{"facility":"Asklepios Klinik Barmbek","city":"Hamburg","zip":"22291","country":"Germany","geoPoint":{"lat":53.57532,"lon":10.01534}},{"facility":"Medizinische Hochschule Hannover","city":"Hannover","zip":"30625","country":"Germany","geoPoint":{"lat":52.37052,"lon":9.73322}},{"facility":"Evangelisches Krankenhaus Hattingen gGmbH","city":"Hattingen","zip":"45525","country":"Germany","geoPoint":{"lat":51.39894,"lon":7.18557}},{"facility":"Krankenhaus Agatharied GmbH","city":"Hausham","zip":"83734","country":"Germany","geoPoint":{"lat":47.7466,"lon":11.84069}},{"facility":"Universitätsklinikum Heidelberg","city":"Heidelberg","zip":"69120","country":"Germany","geoPoint":{"lat":49.40768,"lon":8.69079}},{"facility":"Evangelisches Krankenhaus Herne","city":"Herne","zip":"44623","country":"Germany","geoPoint":{"lat":51.5388,"lon":7.22572}},{"facility":"BDH-Klinik Hessisch-Oldendorf GmbH","city":"Hessisch Oldendorf","zip":"31840","country":"Germany","geoPoint":{"lat":52.17269,"lon":9.24913}},{"facility":"Klinikum Ibbenbüren GmbH","city":"Ibbenbüren","zip":"49477","country":"Germany","geoPoint":{"lat":52.27964,"lon":7.71457}},{"facility":"Klinikum Idar-Oberstein GmbH","city":"Idar-Oberstein","zip":"55743","country":"Germany","geoPoint":{"lat":49.71443,"lon":7.30776}},{"facility":"SHR Klinikum Karlsbad-Langensteinbach GmbH","city":"Karlsbad","zip":"76307","country":"Germany"},{"facility":"Universitätsklinikum Schleswig-Holstein, Campus Kiel","city":"Kiel","zip":"24105","country":"Germany","geoPoint":{"lat":54.32133,"lon":10.13489}},{"facility":"Alexianer Krefeld GmbH, Krankenhaus Maria-Hilf","city":"Krefeld","zip":"47805","country":"Germany","geoPoint":{"lat":51.33645,"lon":6.55382}},{"facility":"Universitätsklinikum Köln","city":"Köln","zip":"50924","country":"Germany","geoPoint":{"lat":50.93333,"lon":6.95}},{"facility":"Universitätsklinikum Leipzig AöR","city":"Leipzig","zip":"04103","country":"Germany","geoPoint":{"lat":51.33962,"lon":12.37129}},{"facility":"Klinikum Main-Spessart, Krankenhaus Lohr","city":"Lohr","zip":"97816","country":"Germany"},{"facility":"Klinikum der Stadt Ludwigshafen gGmbH","city":"Ludwigshafen","zip":"67063","country":"Germany","geoPoint":{"lat":49.48121,"lon":8.44641}},{"facility":"Universitätsklinikum Schleswig-Holstein Campus Lübeck","city":"Lübeck","zip":"23538","country":"Germany","geoPoint":{"lat":53.86893,"lon":10.68729}},{"facility":"Sana Kliniken Luebeck GmbH","city":"Lübeck","zip":"23560","country":"Germany","geoPoint":{"lat":53.86893,"lon":10.68729}},{"facility":"Städtisches Klinikum Lüneburg gGmbH","city":"Lüneburg","zip":"21339","country":"Germany","geoPoint":{"lat":53.2509,"lon":10.41409}},{"facility":"St.-Marien-Hospital GmbH","city":"Lünen","zip":"44534","country":"Germany","geoPoint":{"lat":51.61634,"lon":7.52872}},{"facility":"Universitätsklinikum Magdeburg","city":"Magdeburg","zip":"39120","country":"Germany","geoPoint":{"lat":52.12773,"lon":11.62916}},{"facility":"Universitätsmedizin der Johannes Gutenberg-Universität Mainz","city":"Mainz","zip":"55131","country":"Germany","geoPoint":{"lat":49.98419,"lon":8.2791}},{"facility":"Universitätsmedizin Mannheim","city":"Mannheim","zip":"68167","country":"Germany","geoPoint":{"lat":49.4891,"lon":8.46694}},{"facility":"Klinikum Merzig","city":"Merzig","zip":"66663","country":"Germany","geoPoint":{"lat":49.44331,"lon":6.63874}},{"facility":"Mühlenkreiskliniken AöR, Johannes Wesling Klinikum Minden","city":"Minden","zip":"32492","country":"Germany","geoPoint":{"lat":52.28953,"lon":8.91455}},{"facility":"St. Josef Krankenhaus GmbH Moers","city":"Moers","zip":"47441","country":"Germany","geoPoint":{"lat":51.45342,"lon":6.6326}},{"facility":"Kliniken Maria Hilf GmbH","city":"Mönchengladbach","zip":"41063","country":"Germany","geoPoint":{"lat":51.18539,"lon":6.44172}},{"facility":"UKM Universitätsklinikum Münster","city":"Münster","zip":"48149","country":"Germany","geoPoint":{"lat":51.96236,"lon":7.62571}},{"facility":"Dietrich-Bonhoeffer-Klinikum Neubrandenburg","city":"Neubrandenburg","zip":"17036","country":"Germany","geoPoint":{"lat":53.56414,"lon":13.27532}},{"facility":"Klinikum Osnabrück GmbH","city":"Osnabrück","zip":"49076","country":"Germany","geoPoint":{"lat":52.27264,"lon":8.0498}},{"facility":"Klinikum Vest GmbH, Behandlungszentrum Knappschaftskrankenhaus Recklinghausen","city":"Recklinghausen","zip":"45657","country":"Germany","geoPoint":{"lat":51.61379,"lon":7.19738}},{"facility":"Imland Klinik Rendsburg","city":"Rendsburg","zip":"24768","country":"Germany","geoPoint":{"lat":54.30663,"lon":9.66313}},{"facility":"Klinikum Saarbrücken gGmbH","city":"Saarbrücken","zip":"66119","country":"Germany","geoPoint":{"lat":49.23262,"lon":7.0098}},{"facility":"Nordwest-Krankenhaus Sanderbusch","city":"Sande","zip":"26452","country":"Germany","geoPoint":{"lat":53.50489,"lon":8.01418}},{"facility":"Diakonie-Klinikum Schwäbisch Hall gGmbH","city":"Schwäbisch Hall","zip":"74523","country":"Germany","geoPoint":{"lat":49.11127,"lon":9.73908}},{"facility":"ASKLEPIOS Kliniken Schildautal Seesen","city":"Seesen","zip":"38723","country":"Germany","geoPoint":{"lat":51.89095,"lon":10.17847}},{"facility":"Kreisklinikum Siegen","city":"Siegen","zip":"57076","country":"Germany","geoPoint":{"lat":50.87481,"lon":8.02431}},{"facility":"Medinos Kliniken Sonneberg","city":"Sonneberg","zip":"96515","country":"Germany","geoPoint":{"lat":50.3592,"lon":11.17463}},{"facility":"Klinikum Stuttgart - Katharinenhospital","city":"Stuttgart","zip":"70174","country":"Germany","geoPoint":{"lat":48.78232,"lon":9.17702}},{"facility":"SRH Zentralklinikum Suhl GmbH","city":"Suhl","zip":"98527","country":"Germany","geoPoint":{"lat":50.60911,"lon":10.69401}},{"facility":"Asklepios Fachklinikum Teupitz","city":"Teupitz","zip":"15755","country":"Germany","geoPoint":{"lat":52.12967,"lon":13.6196}},{"facility":"Universitätsklinikum Tübingen","city":"Tübingen","zip":"72076","country":"Germany","geoPoint":{"lat":48.52266,"lon":9.05222}},{"facility":"RKU - Universitäts- und Rehabilitationskliniken Ulm gGmbH","city":"Ulm","zip":"89081","country":"Germany","geoPoint":{"lat":48.39841,"lon":9.99155}},{"facility":"Ammerland Klinik GmbH","city":"Westerstede","zip":"26655","country":"Germany","geoPoint":{"lat":53.25682,"lon":7.92737}},{"facility":"HELIOS Dr. Horst Schmidt Kliniken Wiesbaden","city":"Wiesbaden","zip":"65199","country":"Germany","geoPoint":{"lat":50.08258,"lon":8.24932}},{"facility":"Rems-Murr-Klinikum Winnenden","city":"Winnenden","zip":"71364","country":"Germany","geoPoint":{"lat":48.87563,"lon":9.39819}},{"facility":"Sana HANSE-Klinikum Wismar","city":"Wismar","zip":"23966","country":"Germany","geoPoint":{"lat":53.89314,"lon":11.45286}},{"facility":"Klinikum Wolfsburg","city":"Wolfsburg","zip":"38440","country":"Germany","geoPoint":{"lat":52.42452,"lon":10.7815}},{"facility":"Rhein-Maas-Klinikum GmbH","city":"Würselen","zip":"52146","country":"Germany","geoPoint":{"lat":50.81809,"lon":6.1347}},{"facility":"Universitätsklinikum Würzburg AöR","city":"Würzburg","zip":"97080","country":"Germany","geoPoint":{"lat":49.79391,"lon":9.95121}}]}},"documentSection":{"largeDocumentModule":{"largeDocs":[{"typeAbbrev":"Prot","hasProtocol":true,"hasSap":false,"hasIcf":false,"label":"Study Protocol","date":"2018-09-24","uploadDate":"2018-11-27T04:55","filename":"Prot_001.pdf","size":2117996}]}},"derivedSection":{"miscInfoModule":{"versionHolder":"2024-02-14"},"conditionBrowseModule":{"meshes":[{"id":"D000020521","term":"Stroke"},{"id":"D000002546","term":"Ischemic Attack, Transient"},{"id":"D000002545","term":"Brain Ischemia"},{"id":"D000001281","term":"Atrial Fibrillation"},{"id":"D000007511","term":"Ischemia"}],"ancestors":[{"id":"D000001145","term":"Arrhythmias, Cardiac"},{"id":"D000006331","term":"Heart Diseases"},{"id":"D000002318","term":"Cardiovascular Diseases"},{"id":"D000010335","term":"Pathologic Processes"},{"id":"D000002561","term":"Cerebrovascular Disorders"},{"id":"D000001927","term":"Brain Diseases"},{"id":"D000002493","term":"Central Nervous System Diseases"},{"id":"D000009422","term":"Nervous System Diseases"},{"id":"D000014652","term":"Vascular Diseases"}],"browseLeaves":[{"id":"M21996","name":"Stroke","asFound":"Acute Stroke","relevance":"HIGH"},{"id":"M10233","name":"Ischemia","asFound":"Ischemia","relevance":"HIGH"},{"id":"M5485","name":"Ischemic Attack, Transient","asFound":"Transient Ischemic Attack","relevance":"HIGH"},{"id":"M4276","name":"Atrial Fibrillation","asFound":"Atrial Fibrillation","relevance":"HIGH"},{"id":"M5484","name":"Brain Ischemia","asFound":"Brain Ischemia","relevance":"HIGH"},{"id":"M4143","name":"Arrhythmias, Cardiac","relevance":"LOW"},{"id":"M9109","name":"Heart Diseases","relevance":"LOW"},{"id":"M5500","name":"Cerebrovascular Disorders","relevance":"LOW"},{"id":"M4894","name":"Brain Diseases","relevance":"LOW"},{"id":"M5432","name":"Central Nervous System Diseases","relevance":"LOW"},{"id":"M17090","name":"Vascular Diseases","relevance":"LOW"},{"id":"T170","name":"Acute Graft Versus Host Disease","relevance":"LOW"}],"browseBranches":[{"abbrev":"BC10","name":"Nervous System Diseases"},{"abbrev":"BC14","name":"Heart and Blood Diseases"},{"abbrev":"All","name":"All Conditions"},{"abbrev":"BC23","name":"Symptoms and General Pathology"},{"abbrev":"Rare","name":"Rare Diseases"}]},"interventionBrowseModule":{"browseLeaves":[{"id":"M17245","name":"Vitamin K","relevance":"LOW"},{"id":"M17248","name":"Vitamins","relevance":"LOW"},{"id":"M490","name":"Dabigatran","relevance":"LOW"},{"id":"T481","name":"Vitamin K","relevance":"LOW"},{"id":"T450","name":"Menaquinone","relevance":"LOW"},{"id":"T449","name":"Menadione","relevance":"LOW"},{"id":"T452","name":"Naphthoquinone","relevance":"LOW"},{"id":"T458","name":"Phylloquinone","relevance":"LOW"}],"browseBranches":[{"abbrev":"Micro","name":"Micronutrients"},{"abbrev":"Coag","name":"Coagulants"},{"abbrev":"All","name":"All Drugs and Chemicals"},{"abbrev":"AnCoag","name":"Anticoagulants"},{"abbrev":"Vi","name":"Vitamins"}]}},"hasResults":false}