{"protocolSection":{"identificationModule":{"nctId":"NCT04149535","orgStudyIdInfo":{"id":"S2453"},"organization":{"fullName":"Boston Scientific Corporation","class":"INDUSTRY"},"briefTitle":"PROTECTED TAVR: Stroke PROTECTion With SEntinel During Transcatheter Aortic Valve Replacement","officialTitle":"PROTECTED TAVR: Stroke PROTECTion With SEntinel During Transcatheter","acronym":"PROTECTED TAVR"},"statusModule":{"statusVerifiedDate":"2023-01","overallStatus":"COMPLETED","expandedAccessInfo":{"hasExpandedAccess":false},"startDateStruct":{"date":"2020-02-07","type":"ACTUAL"},"primaryCompletionDateStruct":{"date":"2022-02-01","type":"ACTUAL"},"completionDateStruct":{"date":"2022-02-01","type":"ACTUAL"},"studyFirstSubmitDate":"2019-10-31","studyFirstSubmitQcDate":"2019-10-31","studyFirstPostDateStruct":{"date":"2019-11-04","type":"ACTUAL"},"resultsFirstSubmitDate":"2022-11-18","resultsFirstSubmitQcDate":"2023-01-17","resultsFirstPostDateStruct":{"date":"2023-02-02","type":"ACTUAL"},"lastUpdateSubmitDate":"2023-01-17","lastUpdatePostDateStruct":{"date":"2023-02-02","type":"ACTUAL"}},"sponsorCollaboratorsModule":{"responsibleParty":{"type":"SPONSOR"},"leadSponsor":{"name":"Boston Scientific Corporation","class":"INDUSTRY"}},"oversightModule":{"oversightHasDmc":false,"isFdaRegulatedDrug":false,"isFdaRegulatedDevice":true,"isUsExport":true},"descriptionModule":{"briefSummary":"To demonstrate that use of the Sentinel® Cerebral Protection System significantly reduces the risk of peri-procedural stroke (≤72 hours) after transcatheter aortic valve replacement (TAVR)."},"conditionsModule":{"conditions":["Stroke"]},"designModule":{"studyType":"INTERVENTIONAL","phases":["NA"],"designInfo":{"allocation":"RANDOMIZED","interventionModel":"PARALLEL","primaryPurpose":"TREATMENT","maskingInfo":{"masking":"NONE"}},"enrollmentInfo":{"count":3000,"type":"ACTUAL"}},"armsInterventionsModule":{"armGroups":[{"label":"TAVR with Sentinel","type":"EXPERIMENTAL","description":"Patients assigned to this group will undergo TAVR with the Sentinel® Cerebral Protection System.","interventionNames":["Device: Sentinel® Cerebral Protection System"]},{"label":"TAVR without Sentinel","type":"NO_INTERVENTION","description":"Patients assigned to this group will undergo TAVR without the Sentinel® Cerebral Protection System."}],"interventions":[{"type":"DEVICE","name":"Sentinel® Cerebral Protection System","description":"cerebral embolic protection system","armGroupLabels":["TAVR with Sentinel"]}]},"outcomesModule":{"primaryOutcomes":[{"measure":"The Rate of Stroke Through 72 Hours Post TAVR Procedure or Discharge (Whichever Comes First)","description":"All stroke (hemorrhagic, ischemic, or undetermined status; disabling or nondisabling) through 72 hours post TAVR procedure or discharge (whichever comes first), as adjudicated by an independent Clinical Events Committee (CEC) and using Neurologic Academic Research Consortium (NeuroARC) definitions.","timeFrame":"<=72 hours"}]},"eligibilityModule":{"eligibilityCriteria":"Inclusion Criteria:\n\n* Subject has documented aortic valve stenosis and is treated with an approved TAVR device via transfemoral access\n* Subject has the recommended artery diameter at the site of filter placement per the Sentinel® Cerebral Protection System Instructions For Use: 9-15 mm for the brachiocephalic artery and 6.5-10 mm in the left common carotid artery.\n* Subject (or legal representative) provides written informed consent.\n\nExclusion Criteria:\n\n* Subject has arterial stenosis \\>70% in either the left common carotid artery or the brachiocephalic artery.\n* Subject's brachiocephalic or left carotid artery reveals significant stenosis, ectasia, dissection, or aneurysm at the aortic ostium or within 3 cm of the aortic ostium.\n* Subject has compromised blood flow to the right upper extremity.\n* Subject has access vessels with excessive tortuosity.\n* Subject has uncorrected bleeding disorders.\n* Subject is contraindicated for anticoagulant and antiplatelet therapy.","healthyVolunteers":false,"sex":"ALL","stdAges":["CHILD","ADULT","OLDER_ADULT"]},"contactsLocationsModule":{"overallOfficials":[{"name":"Samir Kapadia, MD","affiliation":"The Cleveland Clinic","role":"PRINCIPAL_INVESTIGATOR"}],"locations":[{"facility":"Tucson Medical Center","city":"Tucson","state":"Arizona","zip":"85712","country":"United States","geoPoint":{"lat":32.22174,"lon":-110.92648}},{"facility":"Cedars Sinai Medical Center","city":"Los Angeles","state":"California","zip":"90048","country":"United States","geoPoint":{"lat":34.05223,"lon":-118.24368}},{"facility":"University of California, Davis Medical Center","city":"Sacramento","state":"California","zip":"95817","country":"United States","geoPoint":{"lat":38.58157,"lon":-121.4944}},{"facility":"Kaiser Foundation Hospital - San Francisco","city":"San Francisco","state":"California","zip":"94118","country":"United States","geoPoint":{"lat":37.77493,"lon":-122.41942}},{"facility":"Los Robles Regional Medical Center","city":"Thousand Oaks","state":"California","zip":"91360","country":"United States","geoPoint":{"lat":34.17056,"lon":-118.83759}},{"facility":"South Denver Cardiology Associates PC and Swedish medical center","city":"Littleton","state":"Colorado","zip":"80120","country":"United States","geoPoint":{"lat":39.61332,"lon":-105.01665}},{"facility":"Hartford Hospital","city":"Hartford","state":"Connecticut","zip":"06102","country":"United States","geoPoint":{"lat":41.76371,"lon":-72.68509}},{"facility":"Medstar Washington Hospital Center","city":"Washington","state":"District of Columbia","zip":"20010","country":"United States","geoPoint":{"lat":38.89511,"lon":-77.03637}},{"facility":"Intercoastal Medical Group","city":"Sarasota","state":"Florida","zip":"34239","country":"United States","geoPoint":{"lat":27.33643,"lon":-82.53065}},{"facility":"Tampa General Hospital","city":"Tampa","state":"Florida","zip":"33606","country":"United States","geoPoint":{"lat":27.94752,"lon":-82.45843}},{"facility":"Piedmont Hosptial","city":"Atlanta","state":"Georgia","zip":"30309","country":"United States","geoPoint":{"lat":33.749,"lon":-84.38798}},{"facility":"Wellstar","city":"Marietta","state":"Georgia","zip":"30060","country":"United States","geoPoint":{"lat":33.9526,"lon":-84.54993}},{"facility":"St. Johns Hospital","city":"Springfield","state":"Illinois","zip":"62701","country":"United States","geoPoint":{"lat":39.80172,"lon":-89.64371}},{"facility":"Community Munster","city":"Munster","state":"Indiana","zip":"46321","country":"United States","geoPoint":{"lat":41.56448,"lon":-87.51254}},{"facility":"Mercy Hospital Medical Center","city":"Des Moines","state":"Iowa","zip":"50314","country":"United States","geoPoint":{"lat":41.60054,"lon":-93.60911}},{"facility":"University of Iowa Hospitals and Clinics","city":"Iowa City","state":"Iowa","zip":"52242","country":"United States","geoPoint":{"lat":41.66113,"lon":-91.53017}},{"facility":"Massachusetts General Hospital","city":"Boston","state":"Massachusetts","zip":"02114","country":"United States","geoPoint":{"lat":42.35843,"lon":-71.05977}},{"facility":"Lahey Clinic Hospital","city":"Burlington","state":"Massachusetts","zip":"01805","country":"United States","geoPoint":{"lat":42.50482,"lon":-71.19561}},{"facility":"Sparrow Hospital","city":"Lansing","state":"Michigan","zip":"48912","country":"United States","geoPoint":{"lat":42.73253,"lon":-84.55553}},{"facility":"Abbott Northwestern Hospital","city":"Minneapolis","state":"Minnesota","zip":"55407","country":"United States","geoPoint":{"lat":44.97997,"lon":-93.26384}},{"facility":"Research Medical Center","city":"Kansas City","state":"Missouri","zip":"64132","country":"United States","geoPoint":{"lat":39.09973,"lon":-94.57857}},{"facility":"Creighton - Bergan Cardiology","city":"Omaha","state":"Nebraska","zip":"68124","country":"United States","geoPoint":{"lat":41.25626,"lon":-95.94043}},{"facility":"Englewood Medical Center","city":"Englewood","state":"New Jersey","zip":"07631","country":"United States","geoPoint":{"lat":40.89288,"lon":-73.97264}},{"facility":"Jersey Shore University Medical Center","city":"Neptune","state":"New Jersey","zip":"98374","country":"United States","geoPoint":{"lat":40.20011,"lon":-74.02792}},{"facility":"Kaleida Health","city":"Buffalo","state":"New York","zip":"14213","country":"United States","geoPoint":{"lat":42.88645,"lon":-78.87837}},{"facility":"North Shore University Hospital","city":"Manhasset","state":"New York","zip":"11030","country":"United States","geoPoint":{"lat":40.79788,"lon":-73.69957}},{"facility":"NYU Winthrop","city":"Mineola","state":"New York","zip":"11501","country":"United States","geoPoint":{"lat":40.74927,"lon":-73.64068}},{"facility":"Wake Forest University School of Medicine","city":"Winston-Salem","state":"North Carolina","zip":"27157","country":"United States","geoPoint":{"lat":36.09986,"lon":-80.24422}},{"facility":"Cleveland Clinic Foundation","city":"Cleveland","state":"Ohio","zip":"44195","country":"United States","geoPoint":{"lat":41.4995,"lon":-81.69541}},{"facility":"Oregon Health Sciences University","city":"Portland","state":"Oregon","zip":"97239","country":"United States","geoPoint":{"lat":45.52345,"lon":-122.67621}},{"facility":"Lankenau","city":"Wynnewood","state":"Pennsylvania","zip":"19096","country":"United States","geoPoint":{"lat":40.00289,"lon":-75.27074}},{"facility":"Baptist Memorial","city":"Memphis","state":"Tennessee","zip":"38120","country":"United States","geoPoint":{"lat":35.14953,"lon":-90.04898}},{"facility":"Centennial Medical Center","city":"Nashville","state":"Tennessee","zip":"37203","country":"United States","geoPoint":{"lat":36.16589,"lon":-86.78444}},{"facility":"Vanderbilt","city":"Nashville","state":"Tennessee","zip":"37323","country":"United States","geoPoint":{"lat":36.16589,"lon":-86.78444}},{"facility":"Heart Hospital of Austin","city":"Austin","state":"Texas","zip":"78705","country":"United States","geoPoint":{"lat":30.26715,"lon":-97.74306}},{"facility":"Baylor Heart and Vascular","city":"Dallas","state":"Texas","zip":"75226","country":"United States","geoPoint":{"lat":32.78306,"lon":-96.80667}},{"facility":"The Methodist Hospital","city":"Houston","state":"Texas","zip":"77030","country":"United States","geoPoint":{"lat":29.76328,"lon":-95.36327}},{"facility":"The Heart Hospital Baylor Plano","city":"Plano","state":"Texas","zip":"75093","country":"United States","geoPoint":{"lat":33.01984,"lon":-96.69889}},{"facility":"Baylor Scott and White","city":"Round Rock","state":"Texas","zip":"78665","country":"United States","geoPoint":{"lat":30.50826,"lon":-97.6789}},{"facility":"Methodist Healthcare System of San Antonio dba Methodist Hospital","city":"San Antonio","state":"Texas","zip":"78229","country":"United States","geoPoint":{"lat":29.42412,"lon":-98.49363}},{"facility":"Aurora St. Luke's Medical Center","city":"Milwaukee","state":"Wisconsin","zip":"53215","country":"United States","geoPoint":{"lat":43.0389,"lon":-87.90647}},{"facility":"Monash Medical Center","city":"Clayton","state":"Victoria","zip":"3168","country":"Australia","geoPoint":{"lat":-37.91667,"lon":145.11667}},{"facility":"The Prince Charles Hospital","city":"Chermside","zip":"4032","country":"Australia","geoPoint":{"lat":-27.38472,"lon":153.03062}},{"facility":"Aarhus University Hospital","city":"Aarhus","zip":"8200","country":"Denmark","geoPoint":{"lat":56.15674,"lon":10.21076}},{"facility":"Aarhus University Hospital","city":"Aarhus","zip":"DK-8200","country":"Denmark","geoPoint":{"lat":56.15674,"lon":10.21076}},{"facility":"Rigshospitalet","city":"København","zip":"2100","country":"Denmark","geoPoint":{"lat":55.67594,"lon":12.56553}},{"facility":"CHU La Timone Hospital","city":"Marseille","zip":"13005","country":"France","geoPoint":{"lat":43.29551,"lon":5.38958}},{"facility":"Clinique Pasteur","city":"Toulouse","zip":"31076","country":"France","geoPoint":{"lat":43.60426,"lon":1.44367}},{"facility":"Heart Center Leipzig","city":"Bad Segeberg","zip":"23795","country":"Germany","geoPoint":{"lat":53.94313,"lon":10.30215}},{"facility":"Herzzentrum Dresden GmbH","city":"Dresden","zip":"D-01307","country":"Germany","geoPoint":{"lat":51.05089,"lon":13.73832}},{"facility":"University Hospital Frankfurt","city":"Frankfurt","zip":"60590","country":"Germany","geoPoint":{"lat":50.11552,"lon":8.68417}},{"facility":"Universitaetsklinikum Schleswig-Holstein","city":"Lübeck","zip":"D-23538","country":"Germany","geoPoint":{"lat":53.86893,"lon":10.68729}},{"facility":"LMU Klinikum der Universität München","city":"Münich","zip":"81377","country":"Germany","geoPoint":{"lat":48.13743,"lon":11.57549}},{"facility":"Universitaetsklinikum Ulm","city":"Ulm","zip":"89081","country":"Germany","geoPoint":{"lat":48.39841,"lon":9.99155}},{"facility":"Policlinico San Donato","city":"San Donato","state":"Milanese","zip":"20097","country":"Italy","geoPoint":{"lat":43.70298,"lon":10.78754}},{"facility":"Maria Cecilia Hospital SPA","city":"Cotignola","zip":"48010","country":"Italy","geoPoint":{"lat":44.38572,"lon":11.93852}},{"facility":"Fondazione Centro San Raffaele","city":"Milan","zip":"20132","country":"Italy","geoPoint":{"lat":45.46427,"lon":9.18951}}]},"referencesModule":{"references":[{"pmid":"36121045","type":"DERIVED","citation":"Kapadia SR, Makkar R, Leon M, Abdel-Wahab M, Waggoner T, Massberg S, Rottbauer W, Horr S, Sondergaard L, Karha J, Gooley R, Satler L, Stoler RC, Messe SR, Baron SJ, Seeger J, Kodali S, Krishnaswamy A, Thourani VH, Harrington K, Pocock S, Modolo R, Allocco DJ, Meredith IT, Linke A; PROTECTED TAVR Investigators. Cerebral Embolic Protection during Transcatheter Aortic-Valve Replacement. N Engl J Med. 2022 Oct 6;387(14):1253-1263. doi: 10.1056/NEJMoa2204961. Epub 2022 Sep 17."}]},"ipdSharingStatementModule":{"ipdSharing":"UNDECIDED","description":"The data and study protocol for this clinical trial may be made available to other researchers in accordance with the Boston Scientific Data Sharing Policy (http://www.bostonscientific.com/en-US/data-sharing-requests.html)"}},"resultsSection":{"participantFlowModule":{"groups":[{"id":"FG000","title":"TAVR With Sentinel","description":"Patients assigned to this group will undergo TAVR with the Sentinel® Cerebral Protection System.\n\nSentinel® Cerebral Protection System: cerebral embolic protection system"},{"id":"FG001","title":"TAVR Without Sentinel","description":"Patients assigned to this group will undergo TAVR without the Sentinel® Cerebral Protection System."}],"periods":[{"title":"Overall Study","milestones":[{"type":"STARTED","achievements":[{"groupId":"FG000","numSubjects":"1501"},{"groupId":"FG001","numSubjects":"1499"}]},{"type":"COMPLETED","achievements":[{"groupId":"FG000","numSubjects":"1472"},{"groupId":"FG001","numSubjects":"1481"}]},{"type":"NOT COMPLETED","achievements":[{"groupId":"FG000","numSubjects":"29"},{"groupId":"FG001","numSubjects":"18"}]}],"dropWithdraws":[{"type":"Death","reasons":[{"groupId":"FG000","numSubjects":"11"},{"groupId":"FG001","numSubjects":"7"}]},{"type":"Physician Decision","reasons":[{"groupId":"FG000","numSubjects":"10"},{"groupId":"FG001","numSubjects":"4"}]},{"type":"Withdrawal by Subject","reasons":[{"groupId":"FG000","numSubjects":"6"},{"groupId":"FG001","numSubjects":"7"}]},{"type":"Not described","reasons":[{"groupId":"FG000","numSubjects":"2"},{"groupId":"FG001","numSubjects":"0"}]}]}]},"baselineCharacteristicsModule":{"groups":[{"id":"BG000","title":"TAVR With Sentinel","description":"Patients assigned to this group will undergo TAVR with the Sentinel® Cerebral Protection System.\n\nSentinel® Cerebral Protection System: cerebral embolic protection system"},{"id":"BG001","title":"TAVR Without Sentinel","description":"Patients assigned to this group will undergo TAVR without the Sentinel® Cerebral Protection System."},{"id":"BG002","title":"Total","description":"Total of all reporting groups"}],"denoms":[{"units":"Participants","counts":[{"groupId":"BG000","value":"1501"},{"groupId":"BG001","value":"1499"},{"groupId":"BG002","value":"3000"}]}],"measures":[{"title":"Age, Continuous","paramType":"MEAN","dispersionType":"STANDARD_DEVIATION","unitOfMeasure":"years","classes":[{"denoms":[{"units":"Participants","counts":[{"groupId":"BG000","value":"1501"},{"groupId":"BG001","value":"1499"},{"groupId":"BG002","value":"3000"}]}],"categories":[{"measurements":[{"groupId":"BG000","value":"78.9","spread":"8.0"},{"groupId":"BG001","value":"78.9","spread":"7.8"},{"groupId":"BG002","value":"78.9","spread":"7.9"}]}]}]},{"title":"Sex: Female, Male","paramType":"COUNT_OF_PARTICIPANTS","unitOfMeasure":"Participants","calculatePct":false,"classes":[{"denoms":[{"units":"Participants","counts":[{"groupId":"BG000","value":"1501"},{"groupId":"BG001","value":"1499"},{"groupId":"BG002","value":"3000"}]}],"categories":[{"title":"Female","measurements":[{"groupId":"BG000","value":"631"},{"groupId":"BG001","value":"566"},{"groupId":"BG002","value":"1197"}]},{"title":"Male","measurements":[{"groupId":"BG000","value":"870"},{"groupId":"BG001","value":"933"},{"groupId":"BG002","value":"1803"}]}]}]},{"title":"Race/Ethnicity, Customized","populationDescription":"Data not collected on patients from EU.","paramType":"COUNT_OF_PARTICIPANTS","unitOfMeasure":"Participants","classes":[{"title":"American Indian or Alaska Native","denoms":[{"units":"Participants","counts":[{"groupId":"BG000","value":"961"},{"groupId":"BG001","value":"963"},{"groupId":"BG002","value":"1924"}]}],"categories":[{"measurements":[{"groupId":"BG000","value":"5"},{"groupId":"BG001","value":"3"},{"groupId":"BG002","value":"8"}]}]},{"title":"Asian","denoms":[{"units":"Participants","counts":[{"groupId":"BG000","value":"961"},{"groupId":"BG001","value":"963"},{"groupId":"BG002","value":"1924"}]}],"categories":[{"measurements":[{"groupId":"BG000","value":"14"},{"groupId":"BG001","value":"16"},{"groupId":"BG002","value":"30"}]}]},{"title":"Black or African Heritage","denoms":[{"units":"Participants","counts":[{"groupId":"BG000","value":"961"},{"groupId":"BG001","value":"963"},{"groupId":"BG002","value":"1924"}]}],"categories":[{"measurements":[{"groupId":"BG000","value":"31"},{"groupId":"BG001","value":"25"},{"groupId":"BG002","value":"56"}]}]},{"title":"Caucasian","denoms":[{"units":"Participants","counts":[{"groupId":"BG000","value":"961"},{"groupId":"BG001","value":"963"},{"groupId":"BG002","value":"1924"}]}],"categories":[{"measurements":[{"groupId":"BG000","value":"852"},{"groupId":"BG001","value":"872"},{"groupId":"BG002","value":"1724"}]}]},{"title":"Hispanic or Latino","denoms":[{"units":"Participants","counts":[{"groupId":"BG000","value":"961"},{"groupId":"BG001","value":"963"},{"groupId":"BG002","value":"1924"}]}],"categories":[{"measurements":[{"groupId":"BG000","value":"53"},{"groupId":"BG001","value":"35"},{"groupId":"BG002","value":"88"}]}]},{"title":"Native Hawaiian or Other Pacific Islander","denoms":[{"units":"Participants","counts":[{"groupId":"BG000","value":"961"},{"groupId":"BG001","value":"963"},{"groupId":"BG002","value":"1924"}]}],"categories":[{"measurements":[{"groupId":"BG000","value":"1"},{"groupId":"BG001","value":"0"},{"groupId":"BG002","value":"1"}]}]},{"title":"Other","denoms":[{"units":"Participants","counts":[{"groupId":"BG000","value":"961"},{"groupId":"BG001","value":"963"},{"groupId":"BG002","value":"1924"}]}],"categories":[{"measurements":[{"groupId":"BG000","value":"12"},{"groupId":"BG001","value":"13"},{"groupId":"BG002","value":"25"}]}]},{"title":"Not Disclosed","denoms":[{"units":"Participants","counts":[{"groupId":"BG000","value":"961"},{"groupId":"BG001","value":"963"},{"groupId":"BG002","value":"1924"}]}],"categories":[{"measurements":[{"groupId":"BG000","value":"11"},{"groupId":"BG001","value":"11"},{"groupId":"BG002","value":"22"}]}]}]},{"title":"Surgical Risk (Per Heart Team): Extreme/High Risk","description":"Risk of Mortality based on site specific Heart Team evaluation. There is not a defined scale.","paramType":"COUNT_OF_PARTICIPANTS","unitOfMeasure":"Participants","classes":[{"denoms":[{"units":"Participants","counts":[{"groupId":"BG000","value":"1501"},{"groupId":"BG001","value":"1499"},{"groupId":"BG002","value":"3000"}]}],"categories":[{"measurements":[{"groupId":"BG000","value":"457"},{"groupId":"BG001","value":"456"},{"groupId":"BG002","value":"913"}]}]}]},{"title":"Surgical Risk (Per Heart Team): Intermediate Risk","description":"Risk of Mortality based on site specific Heart Team evaluation. There is not a defined scale.","paramType":"COUNT_OF_PARTICIPANTS","unitOfMeasure":"Participants","classes":[{"denoms":[{"units":"Participants","counts":[{"groupId":"BG000","value":"1501"},{"groupId":"BG001","value":"1499"},{"groupId":"BG002","value":"3000"}]}],"categories":[{"measurements":[{"groupId":"BG000","value":"499"},{"groupId":"BG001","value":"512"},{"groupId":"BG002","value":"1011"}]}]}]},{"title":"Surgical Risk (Per Heart Team): Low Risk","description":"Risk of Mortality based on site specific Heart Team evaluation. There is not a defined scale.","paramType":"COUNT_OF_PARTICIPANTS","unitOfMeasure":"Participants","classes":[{"denoms":[{"units":"Participants","counts":[{"groupId":"BG000","value":"1501"},{"groupId":"BG001","value":"1499"},{"groupId":"BG002","value":"3000"}]}],"categories":[{"measurements":[{"groupId":"BG000","value":"545"},{"groupId":"BG001","value":"531"},{"groupId":"BG002","value":"1076"}]}]}]},{"title":"Native/Non-Native Valve Calcification Severity (site reported): None/Mild","paramType":"COUNT_OF_PARTICIPANTS","unitOfMeasure":"Participants","classes":[{"denoms":[{"units":"Participants","counts":[{"groupId":"BG000","value":"1501"},{"groupId":"BG001","value":"1499"},{"groupId":"BG002","value":"3000"}]}],"categories":[{"measurements":[{"groupId":"BG000","value":"241"},{"groupId":"BG001","value":"223"},{"groupId":"BG002","value":"464"}]}]}]},{"title":"Native/Non-Native Valve Calcification Severity (site reported): Moderate","paramType":"COUNT_OF_PARTICIPANTS","unitOfMeasure":"Participants","classes":[{"denoms":[{"units":"Participants","counts":[{"groupId":"BG000","value":"1501"},{"groupId":"BG001","value":"1499"},{"groupId":"BG002","value":"3000"}]}],"categories":[{"measurements":[{"groupId":"BG000","value":"418"},{"groupId":"BG001","value":"426"},{"groupId":"BG002","value":"844"}]}]}]},{"title":"Native/Non-Native Calcification Severity (site reported): Severe/Extreme","paramType":"COUNT_OF_PARTICIPANTS","unitOfMeasure":"Participants","classes":[{"denoms":[{"units":"Participants","counts":[{"groupId":"BG000","value":"1501"},{"groupId":"BG001","value":"1499"},{"groupId":"BG002","value":"3000"}]}],"categories":[{"measurements":[{"groupId":"BG000","value":"773"},{"groupId":"BG001","value":"792"},{"groupId":"BG002","value":"1565"}]}]}]}]},"outcomeMeasuresModule":{"outcomeMeasures":[{"type":"PRIMARY","title":"The Rate of Stroke Through 72 Hours Post TAVR Procedure or Discharge (Whichever Comes First)","description":"All stroke (hemorrhagic, ischemic, or undetermined status; disabling or nondisabling) through 72 hours post TAVR procedure or discharge (whichever comes first), as adjudicated by an independent Clinical Events Committee (CEC) and using Neurologic Academic Research Consortium (NeuroARC) definitions.","populationDescription":"Intent-to-Treat","reportingStatus":"POSTED","paramType":"COUNT_OF_PARTICIPANTS","unitOfMeasure":"Participants","timeFrame":"<=72 hours","groups":[{"id":"OG000","title":"TAVR With Sentinel","description":"Patients assigned to this group will undergo TAVR with the Sentinel® Cerebral Protection System.\n\nSentinel® Cerebral Protection System: cerebral embolic protection system"},{"id":"OG001","title":"TAVR Without Sentinel","description":"Patients assigned to this group will undergo TAVR without the Sentinel® Cerebral Protection System."}],"denoms":[{"units":"Participants","counts":[{"groupId":"OG000","value":"1501"},{"groupId":"OG001","value":"1499"}]}],"classes":[{"categories":[{"measurements":[{"groupId":"OG000","value":"34"},{"groupId":"OG001","value":"43"}]}]}]}]},"adverseEventsModule":{"frequencyThreshold":"0","timeFrame":"Events were reported to BSC from the time of enrollment through 72 hours or subject discharge (whichever comes first) for all patients. For patients with stroke within 72hrs/discharge, events were reported to BSC from the time of enrollment through 30+/-7 days post stroke. All-Cause Mortality includes all patients through 72 hours or subject discharge (whichever comes first), plus mortality through 30+/-7 days for patients that had stroke.","description":"All SAE, ADE, SADE, UADE, USADE, device deficiencies, and CEC events were reported to BSC.","eventGroups":[{"id":"EG000","title":"TAVR With Sentinel","description":"Patients assigned to this group will undergo TAVR with the Sentinel® Cerebral Protection System.\n\nSentinel® Cerebral Protection System: cerebral embolic protection system","deathsNumAffected":11,"deathsNumAtRisk":1501,"seriousNumAffected":285,"seriousNumAtRisk":1501,"otherNumAffected":0,"otherNumAtRisk":1501},{"id":"EG001","title":"TAVR Without Sentinel","description":"Patients assigned to this group will undergo TAVR without the Sentinel® Cerebral Protection System.","deathsNumAffected":7,"deathsNumAtRisk":1499,"seriousNumAffected":315,"seriousNumAtRisk":1499,"otherNumAffected":0,"otherNumAtRisk":1499}],"seriousEvents":[{"term":"Atrioventricular block complete","organSystem":"Cardiac disorders","sourceVocabulary":"MedDRA 21.1","assessmentType":"SYSTEMATIC_ASSESSMENT","stats":[{"groupId":"EG000","numAffected":86,"numAtRisk":1501},{"groupId":"EG001","numAffected":92,"numAtRisk":1499}]},{"term":"Bundle branch block left","organSystem":"Cardiac disorders","sourceVocabulary":"MedDRA 21.1","assessmentType":"SYSTEMATIC_ASSESSMENT","stats":[{"groupId":"EG000","numAffected":41,"numAtRisk":1501},{"groupId":"EG001","numAffected":29,"numAtRisk":1499}]},{"term":"Atrial fibrillation","organSystem":"Cardiac disorders","sourceVocabulary":"MedDRA 21.1","assessmentType":"SYSTEMATIC_ASSESSMENT","stats":[{"groupId":"EG000","numAffected":15,"numAtRisk":1501},{"groupId":"EG001","numAffected":14,"numAtRisk":1499}]},{"term":"Pericardial effusion","organSystem":"Cardiac disorders","sourceVocabulary":"MedDRA 21.1","assessmentType":"SYSTEMATIC_ASSESSMENT","stats":[{"groupId":"EG000","numAffected":8,"numAtRisk":1501},{"groupId":"EG001","numAffected":6,"numAtRisk":1499}]},{"term":"Atrioventricular block second degree","organSystem":"Cardiac disorders","sourceVocabulary":"MedDRA 21.1","assessmentType":"SYSTEMATIC_ASSESSMENT","stats":[{"groupId":"EG000","numAffected":7,"numAtRisk":1501},{"groupId":"EG001","numAffected":6,"numAtRisk":1499}]},{"term":"Atrioventricular block first degree","organSystem":"Cardiac disorders","sourceVocabulary":"MedDRA 21.1","assessmentType":"SYSTEMATIC_ASSESSMENT","stats":[{"groupId":"EG000","numAffected":6,"numAtRisk":1501},{"groupId":"EG001","numAffected":6,"numAtRisk":1499}]},{"term":"Bradycardia","organSystem":"Cardiac disorders","sourceVocabulary":"MedDRA 21.1","assessmentType":"SYSTEMATIC_ASSESSMENT","stats":[{"groupId":"EG000","numAffected":5,"numAtRisk":1501},{"groupId":"EG001","numAffected":7,"numAtRisk":1499}]},{"term":"Cardiac arrest","organSystem":"Cardiac disorders","sourceVocabulary":"MedDRA 21.1","assessmentType":"SYSTEMATIC_ASSESSMENT","stats":[{"groupId":"EG000","numAffected":8,"numAtRisk":1501},{"groupId":"EG001","numAffected":3,"numAtRisk":1499}]},{"term":"Atrioventricular block","organSystem":"Cardiac disorders","sourceVocabulary":"MedDRA 21.1","assessmentType":"SYSTEMATIC_ASSESSMENT","stats":[{"groupId":"EG000","numAffected":4,"numAtRisk":1501},{"groupId":"EG001","numAffected":5,"numAtRisk":1499}]},{"term":"Cardiac tamponade","organSystem":"Cardiac disorders","sourceVocabulary":"MedDRA 21.1","assessmentType":"SYSTEMATIC_ASSESSMENT","stats":[{"groupId":"EG000","numAffected":6,"numAtRisk":1501},{"groupId":"EG001","numAffected":3,"numAtRisk":1499}]},{"term":"Cardiogenic shock","organSystem":"Cardiac disorders","sourceVocabulary":"MedDRA 21.1","assessmentType":"SYSTEMATIC_ASSESSMENT","stats":[{"groupId":"EG000","numAffected":5,"numAtRisk":1501},{"groupId":"EG001","numAffected":4,"numAtRisk":1499}]},{"term":"Cardiac failure","organSystem":"Cardiac disorders","sourceVocabulary":"MedDRA 21.1","assessmentType":"SYSTEMATIC_ASSESSMENT","stats":[{"groupId":"EG000","numAffected":5,"numAtRisk":1501},{"groupId":"EG001","numAffected":3,"numAtRisk":1499}]},{"term":"Ventricular tachycardia","organSystem":"Cardiac disorders","sourceVocabulary":"MedDRA 21.1","assessmentType":"SYSTEMATIC_ASSESSMENT","stats":[{"groupId":"EG000","numAffected":2,"numAtRisk":1501},{"groupId":"EG001","numAffected":6,"numAtRisk":1499}]},{"term":"Bundle branch block right","organSystem":"Cardiac disorders","sourceVocabulary":"MedDRA 21.1","assessmentType":"SYSTEMATIC_ASSESSMENT","stats":[{"groupId":"EG000","numAffected":4,"numAtRisk":1501},{"groupId":"EG001","numAffected":2,"numAtRisk":1499}]},{"term":"Aortic valve incompetence","organSystem":"Cardiac disorders","sourceVocabulary":"MedDRA 21.1","assessmentType":"SYSTEMATIC_ASSESSMENT","stats":[{"groupId":"EG000","numAffected":3,"numAtRisk":1501},{"groupId":"EG001","numAffected":2,"numAtRisk":1499}]},{"term":"Ventricular fibrillation","organSystem":"Cardiac disorders","sourceVocabulary":"MedDRA 21.1","assessmentType":"SYSTEMATIC_ASSESSMENT","stats":[{"groupId":"EG000","numAffected":4,"numAtRisk":1501},{"groupId":"EG001","numAffected":1,"numAtRisk":1499}]},{"term":"Bradyarrhythmia","organSystem":"Cardiac disorders","sourceVocabulary":"MedDRA 21.1","assessmentType":"SYSTEMATIC_ASSESSMENT","stats":[{"groupId":"EG000","numAffected":1,"numAtRisk":1501},{"groupId":"EG001","numAffected":3,"numAtRisk":1499}]},{"term":"Cardiac failure congestive","organSystem":"Cardiac disorders","sourceVocabulary":"MedDRA 21.1","assessmentType":"SYSTEMATIC_ASSESSMENT","stats":[{"groupId":"EG000","numAffected":2,"numAtRisk":1501},{"groupId":"EG001","numAffected":2,"numAtRisk":1499}]},{"term":"Mitral valve incompetence","organSystem":"Cardiac disorders","sourceVocabulary":"MedDRA 21.1","assessmentType":"SYSTEMATIC_ASSESSMENT","stats":[{"groupId":"EG000","numAffected":3,"numAtRisk":1501},{"groupId":"EG001","numAffected":1,"numAtRisk":1499}]},{"term":"Sinus node dysfunction","organSystem":"Cardiac disorders","sourceVocabulary":"MedDRA 21.1","assessmentType":"SYSTEMATIC_ASSESSMENT","stats":[{"groupId":"EG000","numAffected":3,"numAtRisk":1501},{"groupId":"EG001","numAffected":1,"numAtRisk":1499}]},{"term":"Acute myocardial infarction","organSystem":"Cardiac disorders","sourceVocabulary":"MedDRA 21.1","assessmentType":"SYSTEMATIC_ASSESSMENT","stats":[{"groupId":"EG000","numAffected":2,"numAtRisk":1501},{"groupId":"EG001","numAffected":1,"numAtRisk":1499}]},{"term":"Coronary artery occlusion","organSystem":"Cardiac disorders","sourceVocabulary":"MedDRA 21.1","assessmentType":"SYSTEMATIC_ASSESSMENT","stats":[{"groupId":"EG000","numAffected":2,"numAtRisk":1501},{"groupId":"EG001","numAffected":1,"numAtRisk":1499}]},{"term":"Coronary artery stenosis","organSystem":"Cardiac disorders","sourceVocabulary":"MedDRA 21.1","assessmentType":"SYSTEMATIC_ASSESSMENT","stats":[{"groupId":"EG000","numAffected":1,"numAtRisk":1501},{"groupId":"EG001","numAffected":1,"numAtRisk":1499}]},{"term":"Nodal arrhythmia","organSystem":"Cardiac disorders","sourceVocabulary":"MedDRA 21.1","assessmentType":"SYSTEMATIC_ASSESSMENT","stats":[{"groupId":"EG000","numAffected":1,"numAtRisk":1501},{"groupId":"EG001","numAffected":1,"numAtRisk":1499}]},{"term":"Nodal rhythm","organSystem":"Cardiac disorders","sourceVocabulary":"MedDRA 21.1","assessmentType":"SYSTEMATIC_ASSESSMENT","stats":[{"groupId":"EG000","numAffected":2,"numAtRisk":1501},{"groupId":"EG001","numAffected":0,"numAtRisk":1499}]},{"term":"Pericardial haemorrhage","organSystem":"Cardiac disorders","sourceVocabulary":"MedDRA 21.1","assessmentType":"SYSTEMATIC_ASSESSMENT","stats":[{"groupId":"EG000","numAffected":1,"numAtRisk":1501},{"groupId":"EG001","numAffected":1,"numAtRisk":1499}]},{"term":"Prosthetic cardiac valve thrombosis","organSystem":"Cardiac disorders","sourceVocabulary":"MedDRA 21.1","assessmentType":"SYSTEMATIC_ASSESSMENT","stats":[{"groupId":"EG000","numAffected":1,"numAtRisk":1501},{"groupId":"EG001","numAffected":1,"numAtRisk":1499}]},{"term":"Right ventricular failure","organSystem":"Cardiac disorders","sourceVocabulary":"MedDRA 21.1","assessmentType":"SYSTEMATIC_ASSESSMENT","stats":[{"groupId":"EG000","numAffected":0,"numAtRisk":1501},{"groupId":"EG001","numAffected":2,"numAtRisk":1499}]},{"term":"Tachycardia","organSystem":"Cardiac disorders","sourceVocabulary":"MedDRA 21.1","assessmentType":"SYSTEMATIC_ASSESSMENT","stats":[{"groupId":"EG000","numAffected":1,"numAtRisk":1501},{"groupId":"EG001","numAffected":1,"numAtRisk":1499}]},{"term":"Angina pectoris","organSystem":"Cardiac disorders","sourceVocabulary":"MedDRA 21.1","assessmentType":"SYSTEMATIC_ASSESSMENT","stats":[{"groupId":"EG000","numAffected":1,"numAtRisk":1501},{"groupId":"EG001","numAffected":0,"numAtRisk":1499}]},{"term":"Atrial flutter","organSystem":"Cardiac disorders","sourceVocabulary":"MedDRA 21.1","assessmentType":"SYSTEMATIC_ASSESSMENT","stats":[{"groupId":"EG000","numAffected":1,"numAtRisk":1501},{"groupId":"EG001","numAffected":0,"numAtRisk":1499}]},{"term":"Atrial thrombosis","organSystem":"Cardiac disorders","sourceVocabulary":"MedDRA 21.1","assessmentType":"SYSTEMATIC_ASSESSMENT","stats":[{"groupId":"EG000","numAffected":0,"numAtRisk":1501},{"groupId":"EG001","numAffected":1,"numAtRisk":1499}]},{"term":"Bundle branch block","organSystem":"Cardiac disorders","sourceVocabulary":"MedDRA 21.1","assessmentType":"SYSTEMATIC_ASSESSMENT","stats":[{"groupId":"EG000","numAffected":1,"numAtRisk":1501},{"groupId":"EG001","numAffected":0,"numAtRisk":1499}]},{"term":"Cardiac failure acute","organSystem":"Cardiac disorders","sourceVocabulary":"MedDRA 21.1","assessmentType":"SYSTEMATIC_ASSESSMENT","stats":[{"groupId":"EG000","numAffected":0,"numAtRisk":1501},{"groupId":"EG001","numAffected":1,"numAtRisk":1499}]},{"term":"Chronic left ventricular failure","organSystem":"Cardiac disorders","sourceVocabulary":"MedDRA 21.1","assessmentType":"SYSTEMATIC_ASSESSMENT","stats":[{"groupId":"EG000","numAffected":1,"numAtRisk":1501},{"groupId":"EG001","numAffected":0,"numAtRisk":1499}]},{"term":"Coronary artery disease","organSystem":"Cardiac disorders","sourceVocabulary":"MedDRA 21.1","assessmentType":"SYSTEMATIC_ASSESSMENT","stats":[{"groupId":"EG000","numAffected":0,"numAtRisk":1501},{"groupId":"EG001","numAffected":1,"numAtRisk":1499}]},{"term":"Coronary artery insufficiency","organSystem":"Cardiac disorders","sourceVocabulary":"MedDRA 21.1","assessmentType":"SYSTEMATIC_ASSESSMENT","stats":[{"groupId":"EG000","numAffected":0,"numAtRisk":1501},{"groupId":"EG001","numAffected":1,"numAtRisk":1499}]},{"term":"Defect conduction intraventricular","organSystem":"Cardiac disorders","sourceVocabulary":"MedDRA 21.1","assessmentType":"SYSTEMATIC_ASSESSMENT","stats":[{"groupId":"EG000","numAffected":1,"numAtRisk":1501},{"groupId":"EG001","numAffected":0,"numAtRisk":1499}]},{"term":"Myocardial haemorrhage","organSystem":"Cardiac disorders","sourceVocabulary":"MedDRA 21.1","assessmentType":"SYSTEMATIC_ASSESSMENT","stats":[{"groupId":"EG000","numAffected":0,"numAtRisk":1501},{"groupId":"EG001","numAffected":1,"numAtRisk":1499}]},{"term":"Myocardial infarction","organSystem":"Cardiac disorders","sourceVocabulary":"MedDRA 21.1","assessmentType":"SYSTEMATIC_ASSESSMENT","stats":[{"groupId":"EG000","numAffected":0,"numAtRisk":1501},{"groupId":"EG001","numAffected":1,"numAtRisk":1499}]},{"term":"Myocardial rupture","organSystem":"Cardiac disorders","sourceVocabulary":"MedDRA 21.1","assessmentType":"SYSTEMATIC_ASSESSMENT","stats":[{"groupId":"EG000","numAffected":0,"numAtRisk":1501},{"groupId":"EG001","numAffected":1,"numAtRisk":1499}]},{"term":"Pulseless electrical activity","organSystem":"Cardiac disorders","sourceVocabulary":"MedDRA 21.1","assessmentType":"SYSTEMATIC_ASSESSMENT","stats":[{"groupId":"EG000","numAffected":1,"numAtRisk":1501},{"groupId":"EG001","numAffected":0,"numAtRisk":1499}]},{"term":"Right ventricular dysfunction","organSystem":"Cardiac disorders","sourceVocabulary":"MedDRA 21.1","assessmentType":"SYSTEMATIC_ASSESSMENT","stats":[{"groupId":"EG000","numAffected":0,"numAtRisk":1501},{"groupId":"EG001","numAffected":1,"numAtRisk":1499}]},{"term":"Tachyarrhythmia","organSystem":"Cardiac disorders","sourceVocabulary":"MedDRA 21.1","assessmentType":"SYSTEMATIC_ASSESSMENT","stats":[{"groupId":"EG000","numAffected":1,"numAtRisk":1501},{"groupId":"EG001","numAffected":0,"numAtRisk":1499}]},{"term":"Torsade de pointes","organSystem":"Cardiac disorders","sourceVocabulary":"MedDRA 21.1","assessmentType":"SYSTEMATIC_ASSESSMENT","stats":[{"groupId":"EG000","numAffected":0,"numAtRisk":1501},{"groupId":"EG001","numAffected":1,"numAtRisk":1499}]},{"term":"Cerebrovascular accident","organSystem":"Nervous system disorders","sourceVocabulary":"MedDRA 21.1","assessmentType":"SYSTEMATIC_ASSESSMENT","stats":[{"groupId":"EG000","numAffected":9,"numAtRisk":1501},{"groupId":"EG001","numAffected":18,"numAtRisk":1499}]},{"term":"Ischaemic stroke","organSystem":"Nervous system disorders","sourceVocabulary":"MedDRA 21.1","assessmentType":"SYSTEMATIC_ASSESSMENT","stats":[{"groupId":"EG000","numAffected":9,"numAtRisk":1501},{"groupId":"EG001","numAffected":13,"numAtRisk":1499}]},{"term":"Transient ischaemic attack","organSystem":"Nervous system disorders","sourceVocabulary":"MedDRA 21.1","assessmentType":"SYSTEMATIC_ASSESSMENT","stats":[{"groupId":"EG000","numAffected":3,"numAtRisk":1501},{"groupId":"EG001","numAffected":4,"numAtRisk":1499}]},{"term":"Cerebral infarction","organSystem":"Nervous system disorders","sourceVocabulary":"MedDRA 21.1","assessmentType":"SYSTEMATIC_ASSESSMENT","stats":[{"groupId":"EG000","numAffected":5,"numAtRisk":1501},{"groupId":"EG001","numAffected":1,"numAtRisk":1499}]},{"term":"Embolic stroke","organSystem":"Nervous system disorders","sourceVocabulary":"MedDRA 21.1","assessmentType":"SYSTEMATIC_ASSESSMENT","stats":[{"groupId":"EG000","numAffected":2,"numAtRisk":1501},{"groupId":"EG001","numAffected":1,"numAtRisk":1499}]},{"term":"Cerebral haemorrhage","organSystem":"Nervous system disorders","sourceVocabulary":"MedDRA 21.1","assessmentType":"SYSTEMATIC_ASSESSMENT","stats":[{"groupId":"EG000","numAffected":2,"numAtRisk":1501},{"groupId":"EG001","numAffected":0,"numAtRisk":1499}]},{"term":"Syncope","organSystem":"Nervous system disorders","sourceVocabulary":"MedDRA 21.1","assessmentType":"SYSTEMATIC_ASSESSMENT","stats":[{"groupId":"EG000","numAffected":1,"numAtRisk":1501},{"groupId":"EG001","numAffected":1,"numAtRisk":1499}]},{"term":"Cerebellar infarction","organSystem":"Nervous system disorders","sourceVocabulary":"MedDRA 21.1","assessmentType":"SYSTEMATIC_ASSESSMENT","stats":[{"groupId":"EG000","numAffected":0,"numAtRisk":1501},{"groupId":"EG001","numAffected":1,"numAtRisk":1499}]},{"term":"Cerebellar stroke","organSystem":"Nervous system disorders","sourceVocabulary":"MedDRA 21.1","assessmentType":"SYSTEMATIC_ASSESSMENT","stats":[{"groupId":"EG000","numAffected":1,"numAtRisk":1501},{"groupId":"EG001","numAffected":0,"numAtRisk":1499}]},{"term":"Dementia","organSystem":"Nervous system disorders","sourceVocabulary":"MedDRA 21.1","assessmentType":"SYSTEMATIC_ASSESSMENT","stats":[{"groupId":"EG000","numAffected":1,"numAtRisk":1501},{"groupId":"EG001","numAffected":0,"numAtRisk":1499}]},{"term":"Disturbance in attention","organSystem":"Nervous system disorders","sourceVocabulary":"MedDRA 21.1","assessmentType":"SYSTEMATIC_ASSESSMENT","stats":[{"groupId":"EG000","numAffected":1,"numAtRisk":1501},{"groupId":"EG001","numAffected":0,"numAtRisk":1499}]},{"term":"Encephalopathy","organSystem":"Nervous system disorders","sourceVocabulary":"MedDRA 21.1","assessmentType":"SYSTEMATIC_ASSESSMENT","stats":[{"groupId":"EG000","numAffected":0,"numAtRisk":1501},{"groupId":"EG001","numAffected":1,"numAtRisk":1499}]},{"term":"Haemorrhage intracranial","organSystem":"Nervous system disorders","sourceVocabulary":"MedDRA 21.1","assessmentType":"SYSTEMATIC_ASSESSMENT","stats":[{"groupId":"EG000","numAffected":0,"numAtRisk":1501},{"groupId":"EG001","numAffected":1,"numAtRisk":1499}]},{"term":"Haemorrhagic stroke","organSystem":"Nervous system disorders","sourceVocabulary":"MedDRA 21.1","assessmentType":"SYSTEMATIC_ASSESSMENT","stats":[{"groupId":"EG000","numAffected":0,"numAtRisk":1501},{"groupId":"EG001","numAffected":1,"numAtRisk":1499}]},{"term":"Headache","organSystem":"Nervous system disorders","sourceVocabulary":"MedDRA 21.1","assessmentType":"SYSTEMATIC_ASSESSMENT","stats":[{"groupId":"EG000","numAffected":1,"numAtRisk":1501},{"groupId":"EG001","numAffected":0,"numAtRisk":1499}]},{"term":"Lacunar infarction","organSystem":"Nervous system disorders","sourceVocabulary":"MedDRA 21.1","assessmentType":"SYSTEMATIC_ASSESSMENT","stats":[{"groupId":"EG000","numAffected":0,"numAtRisk":1501},{"groupId":"EG001","numAffected":1,"numAtRisk":1499}]},{"term":"Lumbar radiculopathy","organSystem":"Nervous system disorders","sourceVocabulary":"MedDRA 21.1","assessmentType":"SYSTEMATIC_ASSESSMENT","stats":[{"groupId":"EG000","numAffected":1,"numAtRisk":1501},{"groupId":"EG001","numAffected":0,"numAtRisk":1499}]},{"term":"Presyncope","organSystem":"Nervous system disorders","sourceVocabulary":"MedDRA 21.1","assessmentType":"SYSTEMATIC_ASSESSMENT","stats":[{"groupId":"EG000","numAffected":1,"numAtRisk":1501},{"groupId":"EG001","numAffected":0,"numAtRisk":1499}]},{"term":"Subarachnoid haemorrhage","organSystem":"Nervous system disorders","sourceVocabulary":"MedDRA 21.1","assessmentType":"SYSTEMATIC_ASSESSMENT","stats":[{"groupId":"EG000","numAffected":0,"numAtRisk":1501},{"groupId":"EG001","numAffected":1,"numAtRisk":1499}]},{"term":"Vascular procedure complication","organSystem":"Injury, poisoning and procedural complications","sourceVocabulary":"MedDRA 21.1","assessmentType":"SYSTEMATIC_ASSESSMENT","stats":[{"groupId":"EG000","numAffected":9,"numAtRisk":1501},{"groupId":"EG001","numAffected":15,"numAtRisk":1499}]},{"term":"Vascular pseudoaneurysm","organSystem":"Injury, poisoning and procedural complications","sourceVocabulary":"MedDRA 21.1","assessmentType":"SYSTEMATIC_ASSESSMENT","stats":[{"groupId":"EG000","numAffected":6,"numAtRisk":1501},{"groupId":"EG001","numAffected":11,"numAtRisk":1499}]},{"term":"Postoperative delirium","organSystem":"Injury, poisoning and procedural complications","sourceVocabulary":"MedDRA 21.1","assessmentType":"SYSTEMATIC_ASSESSMENT","stats":[{"groupId":"EG000","numAffected":2,"numAtRisk":1501},{"groupId":"EG001","numAffected":2,"numAtRisk":1499}]},{"term":"Procedural haemorrhage","organSystem":"Injury, poisoning and procedural complications","sourceVocabulary":"MedDRA 21.1","assessmentType":"SYSTEMATIC_ASSESSMENT","stats":[{"groupId":"EG000","numAffected":1,"numAtRisk":1501},{"groupId":"EG001","numAffected":3,"numAtRisk":1499}]},{"term":"Vascular access site haemorrhage","organSystem":"Injury, poisoning and procedural complications","sourceVocabulary":"MedDRA 21.1","assessmentType":"SYSTEMATIC_ASSESSMENT","stats":[{"groupId":"EG000","numAffected":2,"numAtRisk":1501},{"groupId":"EG001","numAffected":1,"numAtRisk":1499}]},{"term":"Aortic annulus rupture","organSystem":"Injury, poisoning and procedural complications","sourceVocabulary":"MedDRA 21.1","assessmentType":"SYSTEMATIC_ASSESSMENT","stats":[{"groupId":"EG000","numAffected":1,"numAtRisk":1501},{"groupId":"EG001","numAffected":1,"numAtRisk":1499}]},{"term":"Cardiac valve replacement complication","organSystem":"Injury, poisoning and procedural complications","sourceVocabulary":"MedDRA 21.1","assessmentType":"SYSTEMATIC_ASSESSMENT","stats":[{"groupId":"EG000","numAffected":1,"numAtRisk":1501},{"groupId":"EG001","numAffected":1,"numAtRisk":1499}]},{"term":"Aortic pseudoaneurysm","organSystem":"Injury, poisoning and procedural complications","sourceVocabulary":"MedDRA 21.1","assessmentType":"SYSTEMATIC_ASSESSMENT","stats":[{"groupId":"EG000","numAffected":0,"numAtRisk":1501},{"groupId":"EG001","numAffected":1,"numAtRisk":1499}]},{"term":"Arterial injury","organSystem":"Injury, poisoning and procedural complications","sourceVocabulary":"MedDRA 21.1","assessmentType":"SYSTEMATIC_ASSESSMENT","stats":[{"groupId":"EG000","numAffected":0,"numAtRisk":1501},{"groupId":"EG001","numAffected":1,"numAtRisk":1499}]},{"term":"Cardiac procedure complication","organSystem":"Injury, poisoning and procedural complications","sourceVocabulary":"MedDRA 21.1","assessmentType":"SYSTEMATIC_ASSESSMENT","stats":[{"groupId":"EG000","numAffected":1,"numAtRisk":1501},{"groupId":"EG001","numAffected":0,"numAtRisk":1499}]},{"term":"Device deployment issue","organSystem":"Injury, poisoning and procedural complications","sourceVocabulary":"MedDRA 21.1","assessmentType":"SYSTEMATIC_ASSESSMENT","stats":[{"groupId":"EG000","numAffected":1,"numAtRisk":1501},{"groupId":"EG001","numAffected":0,"numAtRisk":1499}]},{"term":"Femoral nerve injury","organSystem":"Injury, poisoning and procedural complications","sourceVocabulary":"MedDRA 21.1","assessmentType":"SYSTEMATIC_ASSESSMENT","stats":[{"groupId":"EG000","numAffected":0,"numAtRisk":1501},{"groupId":"EG001","numAffected":1,"numAtRisk":1499}]},{"term":"Iatrogenic injury","organSystem":"Injury, poisoning and procedural complications","sourceVocabulary":"MedDRA 21.1","assessmentType":"SYSTEMATIC_ASSESSMENT","stats":[{"groupId":"EG000","numAffected":0,"numAtRisk":1501},{"groupId":"EG001","numAffected":1,"numAtRisk":1499}]},{"term":"Post procedural fever","organSystem":"Injury, poisoning and procedural complications","sourceVocabulary":"MedDRA 21.1","assessmentType":"SYSTEMATIC_ASSESSMENT","stats":[{"groupId":"EG000","numAffected":0,"numAtRisk":1501},{"groupId":"EG001","numAffected":1,"numAtRisk":1499}]},{"term":"Post procedural haemorrhage","organSystem":"Injury, poisoning and procedural complications","sourceVocabulary":"MedDRA 21.1","assessmentType":"SYSTEMATIC_ASSESSMENT","stats":[{"groupId":"EG000","numAffected":0,"numAtRisk":1501},{"groupId":"EG001","numAffected":1,"numAtRisk":1499}]},{"term":"Postoperative ileus","organSystem":"Injury, poisoning and procedural complications","sourceVocabulary":"MedDRA 21.1","assessmentType":"SYSTEMATIC_ASSESSMENT","stats":[{"groupId":"EG000","numAffected":0,"numAtRisk":1501},{"groupId":"EG001","numAffected":1,"numAtRisk":1499}]},{"term":"Postoperative respiratory failure","organSystem":"Injury, poisoning and procedural complications","sourceVocabulary":"MedDRA 21.1","assessmentType":"SYSTEMATIC_ASSESSMENT","stats":[{"groupId":"EG000","numAffected":1,"numAtRisk":1501},{"groupId":"EG001","numAffected":0,"numAtRisk":1499}]},{"term":"Spinal fracture","organSystem":"Injury, poisoning and procedural complications","sourceVocabulary":"MedDRA 21.1","assessmentType":"SYSTEMATIC_ASSESSMENT","stats":[{"groupId":"EG000","numAffected":1,"numAtRisk":1501},{"groupId":"EG001","numAffected":0,"numAtRisk":1499}]},{"term":"Subdural haematoma","organSystem":"Injury, poisoning and procedural complications","sourceVocabulary":"MedDRA 21.1","assessmentType":"SYSTEMATIC_ASSESSMENT","stats":[{"groupId":"EG000","numAffected":1,"numAtRisk":1501},{"groupId":"EG001","numAffected":0,"numAtRisk":1499}]},{"term":"Traumatic haemothorax","organSystem":"Injury, poisoning and procedural complications","sourceVocabulary":"MedDRA 21.1","assessmentType":"SYSTEMATIC_ASSESSMENT","stats":[{"groupId":"EG000","numAffected":1,"numAtRisk":1501},{"groupId":"EG001","numAffected":0,"numAtRisk":1499}]},{"term":"Hypotension","organSystem":"Vascular disorders","sourceVocabulary":"MedDRA 21.1","assessmentType":"SYSTEMATIC_ASSESSMENT","stats":[{"groupId":"EG000","numAffected":6,"numAtRisk":1501},{"groupId":"EG001","numAffected":8,"numAtRisk":1499}]},{"term":"Arterial haemorrhage","organSystem":"Vascular disorders","sourceVocabulary":"MedDRA 21.1","assessmentType":"SYSTEMATIC_ASSESSMENT","stats":[{"groupId":"EG000","numAffected":4,"numAtRisk":1501},{"groupId":"EG001","numAffected":3,"numAtRisk":1499}]},{"term":"Peripheral artery occlusion","organSystem":"Vascular disorders","sourceVocabulary":"MedDRA 21.1","assessmentType":"SYSTEMATIC_ASSESSMENT","stats":[{"groupId":"EG000","numAffected":2,"numAtRisk":1501},{"groupId":"EG001","numAffected":4,"numAtRisk":1499}]},{"term":"Peripheral artery stenosis","organSystem":"Vascular disorders","sourceVocabulary":"MedDRA 21.1","assessmentType":"SYSTEMATIC_ASSESSMENT","stats":[{"groupId":"EG000","numAffected":3,"numAtRisk":1501},{"groupId":"EG001","numAffected":1,"numAtRisk":1499}]},{"term":"Peripheral ischaemia","organSystem":"Vascular disorders","sourceVocabulary":"MedDRA 21.1","assessmentType":"SYSTEMATIC_ASSESSMENT","stats":[{"groupId":"EG000","numAffected":0,"numAtRisk":1501},{"groupId":"EG001","numAffected":4,"numAtRisk":1499}]},{"term":"Shock haemorrhagic","organSystem":"Vascular disorders","sourceVocabulary":"MedDRA 21.1","assessmentType":"SYSTEMATIC_ASSESSMENT","stats":[{"groupId":"EG000","numAffected":1,"numAtRisk":1501},{"groupId":"EG001","numAffected":2,"numAtRisk":1499}]},{"term":"Aortic aneurysm","organSystem":"Vascular disorders","sourceVocabulary":"MedDRA 21.1","assessmentType":"SYSTEMATIC_ASSESSMENT","stats":[{"groupId":"EG000","numAffected":2,"numAtRisk":1501},{"groupId":"EG001","numAffected":0,"numAtRisk":1499}]},{"term":"Aortic intramural haematoma","organSystem":"Vascular disorders","sourceVocabulary":"MedDRA 21.1","assessmentType":"SYSTEMATIC_ASSESSMENT","stats":[{"groupId":"EG000","numAffected":1,"numAtRisk":1501},{"groupId":"EG001","numAffected":1,"numAtRisk":1499}]},{"term":"Aortic rupture","organSystem":"Vascular disorders","sourceVocabulary":"MedDRA 21.1","assessmentType":"SYSTEMATIC_ASSESSMENT","stats":[{"groupId":"EG000","numAffected":1,"numAtRisk":1501},{"groupId":"EG001","numAffected":1,"numAtRisk":1499}]},{"term":"Deep vein thrombosis","organSystem":"Vascular disorders","sourceVocabulary":"MedDRA 21.1","assessmentType":"SYSTEMATIC_ASSESSMENT","stats":[{"groupId":"EG000","numAffected":2,"numAtRisk":1501},{"groupId":"EG001","numAffected":0,"numAtRisk":1499}]},{"term":"Hypertensive emergency","organSystem":"Vascular disorders","sourceVocabulary":"MedDRA 21.1","assessmentType":"SYSTEMATIC_ASSESSMENT","stats":[{"groupId":"EG000","numAffected":1,"numAtRisk":1501},{"groupId":"EG001","numAffected":1,"numAtRisk":1499}]},{"term":"Iliac artery occlusion","organSystem":"Vascular disorders","sourceVocabulary":"MedDRA 21.1","assessmentType":"SYSTEMATIC_ASSESSMENT","stats":[{"groupId":"EG000","numAffected":0,"numAtRisk":1501},{"groupId":"EG001","numAffected":2,"numAtRisk":1499}]},{"term":"Orthostatic hypotension","organSystem":"Vascular disorders","sourceVocabulary":"MedDRA 21.1","assessmentType":"SYSTEMATIC_ASSESSMENT","stats":[{"groupId":"EG000","numAffected":1,"numAtRisk":1501},{"groupId":"EG001","numAffected":1,"numAtRisk":1499}]},{"term":"Shock","organSystem":"Vascular disorders","sourceVocabulary":"MedDRA 21.1","assessmentType":"SYSTEMATIC_ASSESSMENT","stats":[{"groupId":"EG000","numAffected":1,"numAtRisk":1501},{"groupId":"EG001","numAffected":1,"numAtRisk":1499}]},{"term":"Aortic arteriosclerosis","organSystem":"Vascular disorders","sourceVocabulary":"MedDRA 21.1","assessmentType":"SYSTEMATIC_ASSESSMENT","stats":[{"groupId":"EG000","numAffected":1,"numAtRisk":1501},{"groupId":"EG001","numAffected":0,"numAtRisk":1499}]},{"term":"Arteriovenous fistula","organSystem":"Vascular disorders","sourceVocabulary":"MedDRA 21.1","assessmentType":"SYSTEMATIC_ASSESSMENT","stats":[{"groupId":"EG000","numAffected":0,"numAtRisk":1501},{"groupId":"EG001","numAffected":1,"numAtRisk":1499}]},{"term":"Circulatory collapse","organSystem":"Vascular disorders","sourceVocabulary":"MedDRA 21.1","assessmentType":"SYSTEMATIC_ASSESSMENT","stats":[{"groupId":"EG000","numAffected":1,"numAtRisk":1501},{"groupId":"EG001","numAffected":0,"numAtRisk":1499}]},{"term":"Haematoma","organSystem":"Vascular disorders","sourceVocabulary":"MedDRA 21.1","assessmentType":"SYSTEMATIC_ASSESSMENT","stats":[{"groupId":"EG000","numAffected":1,"numAtRisk":1501},{"groupId":"EG001","numAffected":0,"numAtRisk":1499}]},{"term":"Haemodynamic instability","organSystem":"Vascular disorders","sourceVocabulary":"MedDRA 21.1","assessmentType":"SYSTEMATIC_ASSESSMENT","stats":[{"groupId":"EG000","numAffected":1,"numAtRisk":1501},{"groupId":"EG001","numAffected":0,"numAtRisk":1499}]},{"term":"Haemorrhage","organSystem":"Vascular disorders","sourceVocabulary":"MedDRA 21.1","assessmentType":"SYSTEMATIC_ASSESSMENT","stats":[{"groupId":"EG000","numAffected":0,"numAtRisk":1501},{"groupId":"EG001","numAffected":1,"numAtRisk":1499}]},{"term":"Hypertension","organSystem":"Vascular disorders","sourceVocabulary":"MedDRA 21.1","assessmentType":"SYSTEMATIC_ASSESSMENT","stats":[{"groupId":"EG000","numAffected":0,"numAtRisk":1501},{"groupId":"EG001","numAffected":1,"numAtRisk":1499}]},{"term":"Hypertensive urgency","organSystem":"Vascular disorders","sourceVocabulary":"MedDRA 21.1","assessmentType":"SYSTEMATIC_ASSESSMENT","stats":[{"groupId":"EG000","numAffected":1,"numAtRisk":1501},{"groupId":"EG001","numAffected":0,"numAtRisk":1499}]},{"term":"Hypoperfusion","organSystem":"Vascular disorders","sourceVocabulary":"MedDRA 21.1","assessmentType":"SYSTEMATIC_ASSESSMENT","stats":[{"groupId":"EG000","numAffected":0,"numAtRisk":1501},{"groupId":"EG001","numAffected":1,"numAtRisk":1499}]},{"term":"Peripheral arterial occlusive disease","organSystem":"Vascular disorders","sourceVocabulary":"MedDRA 21.1","assessmentType":"SYSTEMATIC_ASSESSMENT","stats":[{"groupId":"EG000","numAffected":1,"numAtRisk":1501},{"groupId":"EG001","numAffected":0,"numAtRisk":1499}]},{"term":"Peripheral artery thrombosis","organSystem":"Vascular disorders","sourceVocabulary":"MedDRA 21.1","assessmentType":"SYSTEMATIC_ASSESSMENT","stats":[{"groupId":"EG000","numAffected":0,"numAtRisk":1501},{"groupId":"EG001","numAffected":1,"numAtRisk":1499}]},{"term":"Thrombophlebitis","organSystem":"Vascular disorders","sourceVocabulary":"MedDRA 21.1","assessmentType":"SYSTEMATIC_ASSESSMENT","stats":[{"groupId":"EG000","numAffected":1,"numAtRisk":1501},{"groupId":"EG001","numAffected":0,"numAtRisk":1499}]},{"term":"Catheter site haemorrhage","organSystem":"General disorders","sourceVocabulary":"MedDRA 21.1","assessmentType":"SYSTEMATIC_ASSESSMENT","stats":[{"groupId":"EG000","numAffected":8,"numAtRisk":1501},{"groupId":"EG001","numAffected":6,"numAtRisk":1499}]},{"term":"Pyrexia","organSystem":"General disorders","sourceVocabulary":"MedDRA 21.1","assessmentType":"SYSTEMATIC_ASSESSMENT","stats":[{"groupId":"EG000","numAffected":2,"numAtRisk":1501},{"groupId":"EG001","numAffected":4,"numAtRisk":1499}]},{"term":"Catheter site haematoma","organSystem":"General disorders","sourceVocabulary":"MedDRA 21.1","assessmentType":"SYSTEMATIC_ASSESSMENT","stats":[{"groupId":"EG000","numAffected":1,"numAtRisk":1501},{"groupId":"EG001","numAffected":4,"numAtRisk":1499}]},{"term":"Device embolisation","organSystem":"General disorders","sourceVocabulary":"MedDRA 21.1","assessmentType":"SYSTEMATIC_ASSESSMENT","stats":[{"groupId":"EG000","numAffected":3,"numAtRisk":1501},{"groupId":"EG001","numAffected":1,"numAtRisk":1499}]},{"term":"Multiple organ dysfunction syndrome","organSystem":"General disorders","sourceVocabulary":"MedDRA 21.1","assessmentType":"SYSTEMATIC_ASSESSMENT","stats":[{"groupId":"EG000","numAffected":2,"numAtRisk":1501},{"groupId":"EG001","numAffected":2,"numAtRisk":1499}]},{"term":"Calcinosis","organSystem":"General disorders","sourceVocabulary":"MedDRA 21.1","assessmentType":"SYSTEMATIC_ASSESSMENT","stats":[{"groupId":"EG000","numAffected":0,"numAtRisk":1501},{"groupId":"EG001","numAffected":1,"numAtRisk":1499}]},{"term":"Extravasation","organSystem":"General disorders","sourceVocabulary":"MedDRA 21.1","assessmentType":"SYSTEMATIC_ASSESSMENT","stats":[{"groupId":"EG000","numAffected":0,"numAtRisk":1501},{"groupId":"EG001","numAffected":1,"numAtRisk":1499}]},{"term":"Acute kidney injury","organSystem":"Renal and urinary disorders","sourceVocabulary":"MedDRA 21.1","assessmentType":"SYSTEMATIC_ASSESSMENT","stats":[{"groupId":"EG000","numAffected":12,"numAtRisk":1501},{"groupId":"EG001","numAffected":10,"numAtRisk":1499}]},{"term":"Haematuria","organSystem":"Renal and urinary disorders","sourceVocabulary":"MedDRA 21.1","assessmentType":"SYSTEMATIC_ASSESSMENT","stats":[{"groupId":"EG000","numAffected":2,"numAtRisk":1501},{"groupId":"EG001","numAffected":2,"numAtRisk":1499}]},{"term":"Urinary retention","organSystem":"Renal and urinary disorders","sourceVocabulary":"MedDRA 21.1","assessmentType":"SYSTEMATIC_ASSESSMENT","stats":[{"groupId":"EG000","numAffected":1,"numAtRisk":1501},{"groupId":"EG001","numAffected":2,"numAtRisk":1499}]},{"term":"Renal failure","organSystem":"Renal and urinary disorders","sourceVocabulary":"MedDRA 21.1","assessmentType":"SYSTEMATIC_ASSESSMENT","stats":[{"groupId":"EG000","numAffected":1,"numAtRisk":1501},{"groupId":"EG001","numAffected":0,"numAtRisk":1499}]},{"term":"Respiratory failure","organSystem":"Respiratory, thoracic and mediastinal disorders","sourceVocabulary":"MedDRA 21.1","assessmentType":"SYSTEMATIC_ASSESSMENT","stats":[{"groupId":"EG000","numAffected":9,"numAtRisk":1501},{"groupId":"EG001","numAffected":7,"numAtRisk":1499}]},{"term":"Pulmonary oedema","organSystem":"Respiratory, thoracic and mediastinal disorders","sourceVocabulary":"MedDRA 21.1","assessmentType":"SYSTEMATIC_ASSESSMENT","stats":[{"groupId":"EG000","numAffected":3,"numAtRisk":1501},{"groupId":"EG001","numAffected":1,"numAtRisk":1499}]},{"term":"Acute respiratory failure","organSystem":"Respiratory, thoracic and mediastinal disorders","sourceVocabulary":"MedDRA 21.1","assessmentType":"SYSTEMATIC_ASSESSMENT","stats":[{"groupId":"EG000","numAffected":2,"numAtRisk":1501},{"groupId":"EG001","numAffected":0,"numAtRisk":1499}]},{"term":"Pleural effusion","organSystem":"Respiratory, thoracic and mediastinal disorders","sourceVocabulary":"MedDRA 21.1","assessmentType":"SYSTEMATIC_ASSESSMENT","stats":[{"groupId":"EG000","numAffected":0,"numAtRisk":1501},{"groupId":"EG001","numAffected":2,"numAtRisk":1499}]},{"term":"Pneumothorax","organSystem":"Respiratory, thoracic and mediastinal disorders","sourceVocabulary":"MedDRA 21.1","assessmentType":"SYSTEMATIC_ASSESSMENT","stats":[{"groupId":"EG000","numAffected":1,"numAtRisk":1501},{"groupId":"EG001","numAffected":1,"numAtRisk":1499}]},{"term":"Acute pulmonary oedema","organSystem":"Respiratory, thoracic and mediastinal disorders","sourceVocabulary":"MedDRA 21.1","assessmentType":"SYSTEMATIC_ASSESSMENT","stats":[{"groupId":"EG000","numAffected":0,"numAtRisk":1501},{"groupId":"EG001","numAffected":1,"numAtRisk":1499}]},{"term":"Dyspnoea","organSystem":"Respiratory, thoracic and mediastinal disorders","sourceVocabulary":"MedDRA 21.1","assessmentType":"SYSTEMATIC_ASSESSMENT","stats":[{"groupId":"EG000","numAffected":0,"numAtRisk":1501},{"groupId":"EG001","numAffected":1,"numAtRisk":1499}]},{"term":"Haemothorax","organSystem":"Respiratory, thoracic and mediastinal disorders","sourceVocabulary":"MedDRA 21.1","assessmentType":"SYSTEMATIC_ASSESSMENT","stats":[{"groupId":"EG000","numAffected":0,"numAtRisk":1501},{"groupId":"EG001","numAffected":1,"numAtRisk":1499}]},{"term":"Hypoxia","organSystem":"Respiratory, thoracic and mediastinal disorders","sourceVocabulary":"MedDRA 21.1","assessmentType":"SYSTEMATIC_ASSESSMENT","stats":[{"groupId":"EG000","numAffected":0,"numAtRisk":1501},{"groupId":"EG001","numAffected":1,"numAtRisk":1499}]},{"term":"Pneumonia aspiration","organSystem":"Respiratory, thoracic and mediastinal disorders","sourceVocabulary":"MedDRA 21.1","assessmentType":"SYSTEMATIC_ASSESSMENT","stats":[{"groupId":"EG000","numAffected":0,"numAtRisk":1501},{"groupId":"EG001","numAffected":1,"numAtRisk":1499}]},{"term":"Pulmonary congestion","organSystem":"Respiratory, thoracic and mediastinal disorders","sourceVocabulary":"MedDRA 21.1","assessmentType":"SYSTEMATIC_ASSESSMENT","stats":[{"groupId":"EG000","numAffected":1,"numAtRisk":1501},{"groupId":"EG001","numAffected":0,"numAtRisk":1499}]},{"term":"Anaemia","organSystem":"Blood and lymphatic system disorders","sourceVocabulary":"MedDRA 21.1","assessmentType":"SYSTEMATIC_ASSESSMENT","stats":[{"groupId":"EG000","numAffected":7,"numAtRisk":1501},{"groupId":"EG001","numAffected":6,"numAtRisk":1499}]},{"term":"Blood loss anaemia","organSystem":"Blood and lymphatic system disorders","sourceVocabulary":"MedDRA 21.1","assessmentType":"SYSTEMATIC_ASSESSMENT","stats":[{"groupId":"EG000","numAffected":4,"numAtRisk":1501},{"groupId":"EG001","numAffected":5,"numAtRisk":1499}]},{"term":"Thrombocytopenia","organSystem":"Blood and lymphatic system disorders","sourceVocabulary":"MedDRA 21.1","assessmentType":"SYSTEMATIC_ASSESSMENT","stats":[{"groupId":"EG000","numAffected":1,"numAtRisk":1501},{"groupId":"EG001","numAffected":2,"numAtRisk":1499}]},{"term":"Leukocytosis","organSystem":"Blood and lymphatic system disorders","sourceVocabulary":"MedDRA 21.1","assessmentType":"SYSTEMATIC_ASSESSMENT","stats":[{"groupId":"EG000","numAffected":0,"numAtRisk":1501},{"groupId":"EG001","numAffected":2,"numAtRisk":1499}]},{"term":"Microcytic anaemia","organSystem":"Blood and lymphatic system disorders","sourceVocabulary":"MedDRA 21.1","assessmentType":"SYSTEMATIC_ASSESSMENT","stats":[{"groupId":"EG000","numAffected":0,"numAtRisk":1501},{"groupId":"EG001","numAffected":1,"numAtRisk":1499}]},{"term":"Delirium","organSystem":"Psychiatric disorders","sourceVocabulary":"MedDRA 21.1","assessmentType":"SYSTEMATIC_ASSESSMENT","stats":[{"groupId":"EG000","numAffected":10,"numAtRisk":1501},{"groupId":"EG001","numAffected":10,"numAtRisk":1499}]},{"term":"Mental status changes","organSystem":"Psychiatric disorders","sourceVocabulary":"MedDRA 21.1","assessmentType":"SYSTEMATIC_ASSESSMENT","stats":[{"groupId":"EG000","numAffected":1,"numAtRisk":1501},{"groupId":"EG001","numAffected":1,"numAtRisk":1499}]},{"term":"Device dislocation","organSystem":"Product Issues","sourceVocabulary":"MedDRA 21.1","assessmentType":"SYSTEMATIC_ASSESSMENT","stats":[{"groupId":"EG000","numAffected":3,"numAtRisk":1501},{"groupId":"EG001","numAffected":3,"numAtRisk":1499}]},{"term":"Device failure","organSystem":"Product Issues","sourceVocabulary":"MedDRA 21.1","assessmentType":"SYSTEMATIC_ASSESSMENT","stats":[{"groupId":"EG000","numAffected":3,"numAtRisk":1501},{"groupId":"EG001","numAffected":2,"numAtRisk":1499}]},{"term":"Device leakage","organSystem":"Product Issues","sourceVocabulary":"MedDRA 21.1","assessmentType":"SYSTEMATIC_ASSESSMENT","stats":[{"groupId":"EG000","numAffected":0,"numAtRisk":1501},{"groupId":"EG001","numAffected":2,"numAtRisk":1499}]},{"term":"Device malfunction","organSystem":"Product Issues","sourceVocabulary":"MedDRA 21.1","assessmentType":"SYSTEMATIC_ASSESSMENT","stats":[{"groupId":"EG000","numAffected":2,"numAtRisk":1501},{"groupId":"EG001","numAffected":0,"numAtRisk":1499}]},{"term":"Lead dislodgement","organSystem":"Product Issues","sourceVocabulary":"MedDRA 21.1","assessmentType":"SYSTEMATIC_ASSESSMENT","stats":[{"groupId":"EG000","numAffected":1,"numAtRisk":1501},{"groupId":"EG001","numAffected":0,"numAtRisk":1499}]},{"term":"Urinary tract infection","organSystem":"Infections and infestations","sourceVocabulary":"MedDRA 21.1","assessmentType":"SYSTEMATIC_ASSESSMENT","stats":[{"groupId":"EG000","numAffected":2,"numAtRisk":1501},{"groupId":"EG001","numAffected":2,"numAtRisk":1499}]},{"term":"Corona virus infection","organSystem":"Infections and infestations","sourceVocabulary":"MedDRA 21.1","assessmentType":"SYSTEMATIC_ASSESSMENT","stats":[{"groupId":"EG000","numAffected":2,"numAtRisk":1501},{"groupId":"EG001","numAffected":1,"numAtRisk":1499}]},{"term":"Pneumonia","organSystem":"Infections and infestations","sourceVocabulary":"MedDRA 21.1","assessmentType":"SYSTEMATIC_ASSESSMENT","stats":[{"groupId":"EG000","numAffected":0,"numAtRisk":1501},{"groupId":"EG001","numAffected":2,"numAtRisk":1499}]},{"term":"Sepsis","organSystem":"Infections and infestations","sourceVocabulary":"MedDRA 21.1","assessmentType":"SYSTEMATIC_ASSESSMENT","stats":[{"groupId":"EG000","numAffected":0,"numAtRisk":1501},{"groupId":"EG001","numAffected":2,"numAtRisk":1499}]},{"term":"Infection","organSystem":"Infections and infestations","sourceVocabulary":"MedDRA 21.1","assessmentType":"SYSTEMATIC_ASSESSMENT","stats":[{"groupId":"EG000","numAffected":0,"numAtRisk":1501},{"groupId":"EG001","numAffected":1,"numAtRisk":1499}]},{"term":"Urinary tract infection enterococcal","organSystem":"Infections and infestations","sourceVocabulary":"MedDRA 21.1","assessmentType":"SYSTEMATIC_ASSESSMENT","stats":[{"groupId":"EG000","numAffected":1,"numAtRisk":1501},{"groupId":"EG001","numAffected":0,"numAtRisk":1499}]},{"term":"Retroperitoneal haemorrhage","organSystem":"Gastrointestinal disorders","sourceVocabulary":"MedDRA 21.1","assessmentType":"SYSTEMATIC_ASSESSMENT","stats":[{"groupId":"EG000","numAffected":2,"numAtRisk":1501},{"groupId":"EG001","numAffected":1,"numAtRisk":1499}]},{"term":"Abdominal pain upper","organSystem":"Gastrointestinal disorders","sourceVocabulary":"MedDRA 21.1","assessmentType":"SYSTEMATIC_ASSESSMENT","stats":[{"groupId":"EG000","numAffected":0,"numAtRisk":1501},{"groupId":"EG001","numAffected":1,"numAtRisk":1499}]},{"term":"Gastrointestinal haemorrhage","organSystem":"Gastrointestinal disorders","sourceVocabulary":"MedDRA 21.1","assessmentType":"SYSTEMATIC_ASSESSMENT","stats":[{"groupId":"EG000","numAffected":1,"numAtRisk":1501},{"groupId":"EG001","numAffected":0,"numAtRisk":1499}]},{"term":"Diabetic ketoacidosis","organSystem":"Metabolism and nutrition disorders","sourceVocabulary":"MedDRA 21.1","assessmentType":"SYSTEMATIC_ASSESSMENT","stats":[{"groupId":"EG000","numAffected":0,"numAtRisk":1501},{"groupId":"EG001","numAffected":1,"numAtRisk":1499}]},{"term":"Fluid overload","organSystem":"Metabolism and nutrition disorders","sourceVocabulary":"MedDRA 21.1","assessmentType":"SYSTEMATIC_ASSESSMENT","stats":[{"groupId":"EG000","numAffected":0,"numAtRisk":1501},{"groupId":"EG001","numAffected":1,"numAtRisk":1499}]},{"term":"Hyperkalaemia","organSystem":"Metabolism and nutrition disorders","sourceVocabulary":"MedDRA 21.1","assessmentType":"SYSTEMATIC_ASSESSMENT","stats":[{"groupId":"EG000","numAffected":1,"numAtRisk":1501},{"groupId":"EG001","numAffected":0,"numAtRisk":1499}]},{"term":"Iron deficiency","organSystem":"Metabolism and nutrition disorders","sourceVocabulary":"MedDRA 21.1","assessmentType":"SYSTEMATIC_ASSESSMENT","stats":[{"groupId":"EG000","numAffected":0,"numAtRisk":1501},{"groupId":"EG001","numAffected":1,"numAtRisk":1499}]},{"term":"Cardiovascular function test abnormal","organSystem":"Investigations","sourceVocabulary":"MedDRA 21.1","assessmentType":"SYSTEMATIC_ASSESSMENT","stats":[{"groupId":"EG000","numAffected":0,"numAtRisk":1501},{"groupId":"EG001","numAffected":1,"numAtRisk":1499}]},{"term":"Electrocardiogram QRS complex prolonged","organSystem":"Investigations","sourceVocabulary":"MedDRA 21.1","assessmentType":"SYSTEMATIC_ASSESSMENT","stats":[{"groupId":"EG000","numAffected":1,"numAtRisk":1501},{"groupId":"EG001","numAffected":0,"numAtRisk":1499}]},{"term":"Troponin increased","organSystem":"Investigations","sourceVocabulary":"MedDRA 21.1","assessmentType":"SYSTEMATIC_ASSESSMENT","stats":[{"groupId":"EG000","numAffected":1,"numAtRisk":1501},{"groupId":"EG001","numAffected":0,"numAtRisk":1499}]},{"term":"Diplopia","organSystem":"Eye disorders","sourceVocabulary":"MedDRA 21.1","assessmentType":"SYSTEMATIC_ASSESSMENT","stats":[{"groupId":"EG000","numAffected":1,"numAtRisk":1501},{"groupId":"EG001","numAffected":0,"numAtRisk":1499}]},{"term":"Retinal artery occlusion","organSystem":"Eye disorders","sourceVocabulary":"MedDRA 21.1","assessmentType":"SYSTEMATIC_ASSESSMENT","stats":[{"groupId":"EG000","numAffected":1,"numAtRisk":1501},{"groupId":"EG001","numAffected":0,"numAtRisk":1499}]},{"term":"Hepatic function abnormal","organSystem":"Hepatobiliary disorders","sourceVocabulary":"MedDRA 21.1","assessmentType":"SYSTEMATIC_ASSESSMENT","stats":[{"groupId":"EG000","numAffected":1,"numAtRisk":1501},{"groupId":"EG001","numAffected":0,"numAtRisk":1499}]},{"term":"Liver disorder","organSystem":"Hepatobiliary disorders","sourceVocabulary":"MedDRA 21.1","assessmentType":"SYSTEMATIC_ASSESSMENT","stats":[{"groupId":"EG000","numAffected":1,"numAtRisk":1501},{"groupId":"EG001","numAffected":0,"numAtRisk":1499}]},{"term":"Adrenal insufficiency","organSystem":"Endocrine disorders","sourceVocabulary":"MedDRA 21.1","assessmentType":"SYSTEMATIC_ASSESSMENT","stats":[{"groupId":"EG000","numAffected":0,"numAtRisk":1501},{"groupId":"EG001","numAffected":1,"numAtRisk":1499}]},{"term":"Hypersensitivity","organSystem":"Immune system disorders","sourceVocabulary":"MedDRA 21.1","assessmentType":"SYSTEMATIC_ASSESSMENT","stats":[{"groupId":"EG000","numAffected":1,"numAtRisk":1501},{"groupId":"EG001","numAffected":0,"numAtRisk":1499}]},{"term":"Compartment syndrome","organSystem":"Musculoskeletal and connective tissue disorders","sourceVocabulary":"MedDRA 21.1","assessmentType":"SYSTEMATIC_ASSESSMENT","stats":[{"groupId":"EG000","numAffected":0,"numAtRisk":1501},{"groupId":"EG001","numAffected":1,"numAtRisk":1499}]}]},"moreInfoModule":{"certainAgreement":{"piSponsorEmployee":false,"restrictiveAgreement":false},"pointOfContact":{"title":"Sarah Zanon - Director Clinical Trials, Interventional Cardiology","organization":"Boston Scientific","email":"sarah.zanon@bsci.com","phone":"+41798407006"}}},"documentSection":{"largeDocumentModule":{"largeDocs":[{"typeAbbrev":"Prot_SAP","hasProtocol":true,"hasSap":true,"hasIcf":false,"label":"Study Protocol and Statistical Analysis Plan","date":"2019-11-06","uploadDate":"2022-10-26T16:51","filename":"Prot_SAP_000.pdf","size":1185649}]}},"derivedSection":{"miscInfoModule":{"versionHolder":"2024-02-14","submissionTracking":{"firstMcpInfo":{"postDateStruct":{"date":"2022-12-16","type":"ACTUAL"}}}},"conditionBrowseModule":{"meshes":[{"id":"D000020521","term":"Stroke"}],"ancestors":[{"id":"D000002561","term":"Cerebrovascular Disorders"},{"id":"D000001927","term":"Brain Diseases"},{"id":"D000002493","term":"Central Nervous System Diseases"},{"id":"D000009422","term":"Nervous System Diseases"},{"id":"D000014652","term":"Vascular Diseases"},{"id":"D000002318","term":"Cardiovascular Diseases"}],"browseLeaves":[{"id":"M21996","name":"Stroke","asFound":"Stroke","relevance":"HIGH"},{"id":"M5500","name":"Cerebrovascular Disorders","relevance":"LOW"},{"id":"M4894","name":"Brain Diseases","relevance":"LOW"},{"id":"M5432","name":"Central Nervous System Diseases","relevance":"LOW"},{"id":"M17090","name":"Vascular Diseases","relevance":"LOW"}],"browseBranches":[{"abbrev":"BC10","name":"Nervous System Diseases"},{"abbrev":"BC14","name":"Heart and Blood Diseases"},{"abbrev":"All","name":"All Conditions"}]}},"hasResults":true}