{"protocolSection":{"identificationModule":{"nctId":"NCT00664846","orgStudyIdInfo":{"id":"2006BAI01A10-1"},"organization":{"fullName":"Peking Union Medical College Hospital","class":"OTHER"},"briefTitle":"Standard Medical Management in Secondary Prevention of Ischemic Stroke in China","officialTitle":"Standard Medical Management in Secondary Prevention of Ischemic Stroke in China.","acronym":"SMART"},"statusModule":{"statusVerifiedDate":"2011-02","overallStatus":"COMPLETED","expandedAccessInfo":{"hasExpandedAccess":false},"startDateStruct":{"date":"2008-04"},"primaryCompletionDateStruct":{"date":"2010-12","type":"ACTUAL"},"completionDateStruct":{"date":"2011-04","type":"ACTUAL"},"studyFirstSubmitDate":"2008-04-12","studyFirstSubmitQcDate":"2008-04-22","studyFirstPostDateStruct":{"date":"2008-04-23","type":"ESTIMATED"},"lastUpdateSubmitDate":"2011-04-08","lastUpdatePostDateStruct":{"date":"2011-04-11","type":"ESTIMATED"}},"sponsorCollaboratorsModule":{"responsibleParty":{"oldNameTitle":"Liying Cui","oldOrganization":"Peking Union Medical College Hospital"},"leadSponsor":{"name":"Peking Union Medical College Hospital","class":"OTHER"}},"oversightModule":{"oversightHasDmc":false},"descriptionModule":{"briefSummary":"The purposes of the study are to analyse the cross-section data of secondary stroke prevention in China and to carry out a standard medical management including medicine and interactive education program,and to evaluate the efficacy and safety of the standard medical management in secondary stroke prevention."},"conditionsModule":{"conditions":["Stroke"],"keywords":["Stroke","Prevention Therapy"]},"designModule":{"studyType":"INTERVENTIONAL","phases":["NA"],"designInfo":{"allocation":"RANDOMIZED","interventionModel":"PARALLEL","primaryPurpose":"PREVENTION","maskingInfo":{"masking":"NONE"}},"enrollmentInfo":{"count":4000,"type":"ESTIMATED"}},"armsInterventionsModule":{"armGroups":[{"label":"1","type":"EXPERIMENTAL","interventionNames":["Drug: Aspirin / Clopidogrel, Atorvastatin / Simvastatin"]},{"label":"2","type":"ACTIVE_COMPARATOR","interventionNames":["Drug: Asprin / Clopidogrel, Atorvastatin / Simvastatin"]}],"interventions":[{"type":"DRUG","name":"Aspirin / Clopidogrel, Atorvastatin / Simvastatin","description":"Standard Medical Management,including antiplatelet agents(Aspirin 75\\~150mg/day or Clopidogrel 75mg/day),statins(Atorvastatin 20mg/day or Simvastatin 20mg/day),risk factor lowering agents (antihypertension agents:Amlodipine 5mg/day or Benazepril 10mg/day or Valsartan 80mg/day or Nifedipine 30mg/day or Indapamide 2.5mg/day,antidiabetic agents: Metformin 0.5 tid or Glipizide 5mg tid or Acarbose 50mg tid )if necessary,interactive education program (Online medical education program, health behavior guide) .","armGroupLabels":["1"]},{"type":"DRUG","name":"Asprin / Clopidogrel, Atorvastatin / Simvastatin","description":"Antiplatelet agents(Aspirin 75\\~150mg/day or Clopidogrel 75mg/day),statins(Atorvastatin 20mg/day or Simvastatin 20mg/day),risk factor lowering agents (antihypertension agents:Amlodipine 5mg/day or Benazepril 10mg/day or Valsartan 80mg/day or Nifedipine 30mg/day or Indapamide 2.5mg/day,antidiabetic agents: Metformin 0.5 tid or Glipizide 5mg tid or Acarbose 50mg tid )if necessary","armGroupLabels":["2"]}]},"outcomesModule":{"primaryOutcomes":[{"measure":"Success Rate of standard medical management","timeFrame":"1 year after enrolled"}],"secondaryOutcomes":[{"measure":"Ischemic stroke","timeFrame":"1 year after enrolled"},{"measure":"Non-fatal acute coronary syndrome","timeFrame":"1 year after enrolled"},{"measure":"Transient Ischemic Attack","timeFrame":"1 year after enrolled"},{"measure":"Hemorrhagic Stroke","timeFrame":"1 year after enrolled"},{"measure":"All-cause Death","timeFrame":"1 year after enrolled"}]},"eligibilityModule":{"eligibilityCriteria":"Inclusion Criteria:\n\n1. Ischemic cerebral infarction or TIA within 30 days.\n2. Aged above 18 years old.\n3. Hospitalized.\n4. Cranial CT or MRI scan exclude intracranial hemorrhagic diseases\n5. Stable clinical and neurological conditions.\n6. A Modified Rankin score less than 4 at enrollment\n7. Informed consent is obtained.\n\nExclusion Criteria:\n\nPatients will be excluded from entry if any of the criteria listed below are met\n\n1. Documented stroke caused by conditions other than atherosclerosis, ie, surgical or vascular intervention procedure.\n2. Severe co-morbid or unstable medical condition, ie, heart failure, respiratory failure and renal failure, severe liver dysfunction, malignancy with likelihood of death within the next 2 years\n3. Significant memory or behavioural disorder, ie, Alzheimer disease, etc, daily care needed.\n4. A Modified Rankin score is more than 4\n5. Concurrent participation in another clinical trial\n6. Pregnant\n7. Unable to give informed consent.","healthyVolunteers":false,"sex":"ALL","minimumAge":"18 Years","stdAges":["ADULT","OLDER_ADULT"]},"contactsLocationsModule":{"overallOfficials":[{"name":"Liying Cui","affiliation":"Peking Union Medical College Hospital","role":"PRINCIPAL_INVESTIGATOR"}],"locations":[{"facility":"Peking Union Medical College Hosptial","city":"Beijing","state":"Beijing","zip":"100730","country":"China","geoPoint":{"lat":39.9075,"lon":116.39723}},{"facility":"China Pla General Hospital","city":"Beijing","state":"Beijing","zip":"100853","country":"China","geoPoint":{"lat":39.9075,"lon":116.39723}},{"facility":"Beijing Daxing District Hospital","city":"Beijing","state":"Beijing","country":"China","geoPoint":{"lat":39.9075,"lon":116.39723}},{"facility":"Beijing Ji Shui Tan Hospital,the 4Th Medical College of Peking University","city":"Beijing","state":"Beijing","country":"China","geoPoint":{"lat":39.9075,"lon":116.39723}},{"facility":"Beijing Shijitan Hospital","city":"Beijing","state":"Beijing","country":"China","geoPoint":{"lat":39.9075,"lon":116.39723}},{"facility":"Beijing Tiantan Hospital","city":"Beijing","state":"Beijing","country":"China","geoPoint":{"lat":39.9075,"lon":116.39723}},{"facility":"China Rehabilition Research Center","city":"Beijing","state":"Beijing","country":"China","geoPoint":{"lat":39.9075,"lon":116.39723}},{"facility":"General Hospital of Navy","city":"Beijing","state":"Beijing","country":"China","geoPoint":{"lat":39.9075,"lon":116.39723}},{"facility":"Luhe Hospital of Tongzhou Distict Beijing","city":"Beijing","state":"Beijing","country":"China","geoPoint":{"lat":39.9075,"lon":116.39723}},{"facility":"No 263 Hospital of Pla","city":"Beijing","state":"Beijing","country":"China","geoPoint":{"lat":39.9075,"lon":116.39723}},{"facility":"No 309 Hospital of Pla","city":"Beijing","state":"Beijing","country":"China","geoPoint":{"lat":39.9075,"lon":116.39723}},{"facility":"Peking University Third Hospital","city":"Beijing","state":"Beijing","country":"China","geoPoint":{"lat":39.9075,"lon":116.39723}},{"facility":"Pinggu County Hospital Beijing","city":"Beijing","state":"Beijing","country":"China","geoPoint":{"lat":39.9075,"lon":116.39723}},{"facility":"Xuanwu Hospital Capital Medical University","city":"Beijing","state":"Beijing","country":"China","geoPoint":{"lat":39.9075,"lon":116.39723}},{"facility":"Daping Hospital","city":"Chongqing","state":"Chongqing","country":"China","geoPoint":{"lat":29.56278,"lon":106.55278}},{"facility":"Southwest Hospital","city":"Chongqing","state":"Chongqing","country":"China","geoPoint":{"lat":29.56278,"lon":106.55278}},{"facility":"Guangzhou First Municipal People'S Hospital","city":"Guangzhou","state":"Guangdong","country":"China","geoPoint":{"lat":23.11667,"lon":113.25}},{"facility":"The First Affiliated Hospital,Sun Yat-Sen Unversity","city":"Guangzhou","state":"Guangdong","country":"China","geoPoint":{"lat":23.11667,"lon":113.25}},{"facility":"The First Hospital of Hebei Medical University","city":"Shijiazhuang","state":"Hebei","country":"China","geoPoint":{"lat":38.04139,"lon":114.47861}},{"facility":"The Second Hospital of Hebei Medical University","city":"Shijiazhuang","state":"Hebei","country":"China","geoPoint":{"lat":38.04139,"lon":114.47861}},{"facility":"The Third Hospital of Hebei Medical University","city":"Shijiazhuang","state":"Hebei","country":"China","geoPoint":{"lat":38.04139,"lon":114.47861}},{"facility":"Yutian County Hospital","city":"Yutian","state":"Hebei","country":"China"},{"facility":"Hebei North University","city":"Zhangjiakou","state":"Hebei","country":"China","geoPoint":{"lat":40.81,"lon":114.87944}},{"facility":"The First Hospital of Harbin Medical University","city":"Harbin","state":"Helongjiang","country":"China","geoPoint":{"lat":45.75,"lon":126.65}},{"facility":"The Second Hospital of Harbin Medical University","city":"Harbin","state":"Helongjiang","country":"China","geoPoint":{"lat":45.75,"lon":126.65}},{"facility":"Henan Provincial People'S Hospital","city":"Zhengzhou","state":"Henan","country":"China","geoPoint":{"lat":34.75778,"lon":113.64861}},{"facility":"The Zhongnan Hospital of Wuhan University","city":"Wuhan","state":"Hubei","country":"China","geoPoint":{"lat":30.58333,"lon":114.26667}},{"facility":"Xiangya Hospital of Centre-South University","city":"Changsha","state":"Hunan","country":"China","geoPoint":{"lat":28.19874,"lon":112.97087}},{"facility":"Inner Mongolia Baotou City Central Hospital","city":"Baotou","state":"Inner Mongolia","country":"China","geoPoint":{"lat":40.65222,"lon":109.82222}},{"facility":"The Appurtenant Hospital of Chifeng University","city":"Chifeng","state":"Inner Mongolia","country":"China","geoPoint":{"lat":42.26833,"lon":118.96361}},{"facility":"Jiangsu Province Hospital","city":"Nanjing","state":"Jiangsu","country":"China","geoPoint":{"lat":32.06167,"lon":118.77778}},{"facility":"Nanjing General Hospital of Nanjing Military Command","city":"Nanjing","state":"Jiangsu","country":"China","geoPoint":{"lat":32.06167,"lon":118.77778}},{"facility":"The Affiliated Drumtower Hospital of Nanjing University Medical School","city":"Nanjing","state":"Jiangsu","country":"China","geoPoint":{"lat":32.06167,"lon":118.77778}},{"facility":"Jilin University","city":"Changchun","state":"Jilin","country":"China","geoPoint":{"lat":43.88,"lon":125.32278}},{"facility":"The Third People'S Hospital of Dalian","city":"Dalian","state":"Liaoning","country":"China","geoPoint":{"lat":38.91222,"lon":121.60222}},{"facility":"The First Affiliated Hospital of China Medical Sciences University","city":"Shenyang","state":"Liaoning","country":"China","geoPoint":{"lat":41.79222,"lon":123.43278}},{"facility":"Qinghai Provincial People'S Hospital","city":"Xining","state":"Qinghai","country":"China","geoPoint":{"lat":36.62554,"lon":101.75739}},{"facility":"Qilu Hospital of Shangdong University","city":"Jinan","state":"Shandong","country":"China","geoPoint":{"lat":36.66833,"lon":116.99722}},{"facility":"The Second Hospitalof Shangdong University","city":"Jinan","state":"Shandong","country":"China","geoPoint":{"lat":36.66833,"lon":116.99722}},{"facility":"Huashan Hospital Fudan University","city":"Shanghai","state":"Shanghai","country":"China","geoPoint":{"lat":31.22222,"lon":121.45806}},{"facility":"Shanghai Changzheng Hospital","city":"Shanghai","state":"Shanghai","country":"China","geoPoint":{"lat":31.22222,"lon":121.45806}},{"facility":"West China Center of Medical Sciences","city":"Chengdu","state":"Sichuan","country":"China","geoPoint":{"lat":30.66667,"lon":104.06667}},{"facility":"The General Hospital Under Tianjin Medical Sciences University","city":"Tianjin","state":"Tianjin","country":"China","geoPoint":{"lat":39.14222,"lon":117.17667}},{"facility":"Tianjin Third Central Hospital","city":"Tianjin","state":"Tianjin","country":"China","geoPoint":{"lat":39.14222,"lon":117.17667}},{"facility":"First Affiliated Hospital of Xinjiang Medical University","city":"Uramuqi","state":"Xinjiang uygur autonomous region","country":"China"},{"facility":"The First Affiliated Hospital of College of Medicine, Zhejiang University","city":"Hangzhou","state":"Zhejiang","country":"China","geoPoint":{"lat":30.29365,"lon":120.16142}}]},"referencesModule":{"references":[{"pmid":"31024430","type":"DERIVED","citation":"Cao Y, Zhang M, Zhou L, Yao M, Peng B, Zhu Y, Ni J, Cui L. Consecutive Slides on Axial View Is More Effective Than Transversal Diameter to Differentiate Mechanisms of Single Subcortical Infarctions in the Lenticulostriate Artery Territory. Front Neurol. 2019 Apr 9;10:336. doi: 10.3389/fneur.2019.00336. eCollection 2019."},{"pmid":"27494527","type":"DERIVED","citation":"Yao M, Ni J, Zhou L, Peng B, Zhu Y, Cui L; SMART investigators. Elevated Fasting Blood Glucose Is Predictive of Poor Outcome in Non-Diabetic Stroke Patients: A Sub-Group Analysis of SMART. PLoS One. 2016 Aug 5;11(8):e0160674. doi: 10.1371/journal.pone.0160674. eCollection 2016."},{"pmid":"26780948","type":"DERIVED","citation":"Ni J, Yao M, Zhou L, Zhu Y, Peng B, Cui L; SMART Investigators. A guideline-based program may improve the outcome of stroke among illiterate patients. Int J Stroke. 2016 Apr;11(3):332-7. doi: 10.1177/1747493015626151. Epub 2016 Jan 18."},{"pmid":"24385269","type":"DERIVED","citation":"Peng B, Ni J, Anderson CS, Zhu Y, Wang Y, Pu C, Wu J, Wang J, Zhou L, Yao M, He J, Shan G, Gao S, Xu W, Cui L; SMART Investigators. Implementation of a structured guideline-based program for the secondary prevention of ischemic stroke in China. Stroke. 2014 Feb;45(2):515-9. doi: 10.1161/STROKEAHA.113.001424. Epub 2014 Jan 2."},{"pmid":"21951412","type":"DERIVED","citation":"Peng B, Zhu Y, Cui L, Ni J, Xu W, Zhou L, Yao M, Chen L, Wang J, Wang Y, Pu C; SMART Study Group. Standard medical management in secondary prevention of ischemic stroke in China (SMART). Int J Stroke. 2011 Oct;6(5):461-5. doi: 10.1111/j.1747-4949.2011.00648.x."}]}},"derivedSection":{"miscInfoModule":{"versionHolder":"2024-02-14"},"conditionBrowseModule":{"meshes":[{"id":"D000020521","term":"Stroke"},{"id":"D000083242","term":"Ischemic Stroke"}],"ancestors":[{"id":"D000002561","term":"Cerebrovascular Disorders"},{"id":"D000001927","term":"Brain Diseases"},{"id":"D000002493","term":"Central Nervous System Diseases"},{"id":"D000009422","term":"Nervous System Diseases"},{"id":"D000014652","term":"Vascular Diseases"},{"id":"D000002318","term":"Cardiovascular Diseases"}],"browseLeaves":[{"id":"M21996","name":"Stroke","asFound":"Stroke","relevance":"HIGH"},{"id":"M11997","name":"Neoplasm Metastasis","relevance":"LOW"},{"id":"M10233","name":"Ischemia","relevance":"LOW"},{"id":"M2401","name":"Ischemic Stroke","asFound":"Ischemic Stroke","relevance":"HIGH"},{"id":"M5500","name":"Cerebrovascular Disorders","relevance":"LOW"},{"id":"M4894","name":"Brain Diseases","relevance":"LOW"},{"id":"M5432","name":"Central Nervous System Diseases","relevance":"LOW"},{"id":"M17090","name":"Vascular Diseases","relevance":"LOW"}],"browseBranches":[{"abbrev":"BC10","name":"Nervous System Diseases"},{"abbrev":"BC14","name":"Heart and Blood Diseases"},{"abbrev":"All","name":"All Conditions"},{"abbrev":"BC04","name":"Neoplasms"},{"abbrev":"BC23","name":"Symptoms and General Pathology"}]},"interventionBrowseModule":{"meshes":[{"id":"D000001241","term":"Aspirin"},{"id":"D000077144","term":"Clopidogrel"},{"id":"D000069059","term":"Atorvastatin"},{"id":"D000019821","term":"Simvastatin"}],"ancestors":[{"id":"D000000894","term":"Anti-Inflammatory Agents, Non-Steroidal"},{"id":"D000018712","term":"Analgesics, Non-Narcotic"},{"id":"D000000700","term":"Analgesics"},{"id":"D000018689","term":"Sensory System Agents"},{"id":"D000018373","term":"Peripheral Nervous System Agents"},{"id":"D000045505","term":"Physiological Effects of Drugs"},{"id":"D000000893","term":"Anti-Inflammatory Agents"},{"id":"D000018501","term":"Antirheumatic Agents"},{"id":"D000005343","term":"Fibrinolytic Agents"},{"id":"D000050299","term":"Fibrin Modulating Agents"},{"id":"D000045504","term":"Molecular Mechanisms of Pharmacological Action"},{"id":"D000010975","term":"Platelet Aggregation Inhibitors"},{"id":"D000016861","term":"Cyclooxygenase Inhibitors"},{"id":"D000004791","term":"Enzyme Inhibitors"},{"id":"D000058633","term":"Antipyretics"},{"id":"D000000924","term":"Anticholesteremic Agents"},{"id":"D000000960","term":"Hypolipidemic Agents"},{"id":"D000000963","term":"Antimetabolites"},{"id":"D000057847","term":"Lipid Regulating Agents"},{"id":"D000019161","term":"Hydroxymethylglutaryl-CoA Reductase Inhibitors"},{"id":"D000058921","term":"Purinergic P2Y Receptor Antagonists"},{"id":"D000058919","term":"Purinergic P2 Receptor Antagonists"},{"id":"D000058914","term":"Purinergic Antagonists"},{"id":"D000058905","term":"Purinergic Agents"},{"id":"D000018377","term":"Neurotransmitter Agents"}],"browseLeaves":[{"id":"M19290","name":"Amlodipine","relevance":"LOW"},{"id":"M9924","name":"Indapamide","relevance":"LOW"},{"id":"M11357","name":"Metformin","relevance":"LOW"},{"id":"M4238","name":"Aspirin","asFound":"Knee","relevance":"HIGH"},{"id":"M351","name":"Atorvastatin","asFound":"Functional","relevance":"HIGH"},{"id":"M301","name":"Valsartan","relevance":"LOW"},{"id":"M1669","name":"Clopidogrel","asFound":"Results","relevance":"HIGH"},{"id":"M12173","name":"Nifedipine","relevance":"LOW"},{"id":"M21403","name":"Simvastatin","asFound":"Elderly","relevance":"HIGH"},{"id":"M9744","name":"Hypoglycemic Agents","relevance":"LOW"},{"id":"M13555","name":"Platelet Aggregation Inhibitors","relevance":"LOW"},{"id":"M8713","name":"Glipizide","relevance":"LOW"},{"id":"M20845","name":"Hydroxymethylglutaryl-CoA Reductase Inhibitors","relevance":"LOW"},{"id":"M22334","name":"Acarbose","relevance":"LOW"},{"id":"M223524","name":"Benazepril","relevance":"LOW"},{"id":"M3907","name":"Anti-Inflammatory Agents","relevance":"LOW"},{"id":"M3908","name":"Anti-Inflammatory Agents, Non-Steroidal","relevance":"LOW"},{"id":"M3722","name":"Analgesics","relevance":"LOW"},{"id":"M20476","name":"Analgesics, Non-Narcotic","relevance":"LOW"},{"id":"M20294","name":"Antirheumatic Agents","relevance":"LOW"},{"id":"M8163","name":"Fibrinolytic Agents","relevance":"LOW"},{"id":"M18899","name":"Cyclooxygenase Inhibitors","relevance":"LOW"},{"id":"M7641","name":"Enzyme Inhibitors","relevance":"LOW"},{"id":"M28866","name":"Antipyretics","relevance":"LOW"},{"id":"M3933","name":"Anticholesteremic Agents","relevance":"LOW"},{"id":"M3968","name":"Hypolipidemic Agents","relevance":"LOW"},{"id":"M3971","name":"Antimetabolites","relevance":"LOW"},{"id":"M28573","name":"Lipid Regulating Agents","relevance":"LOW"},{"id":"M28984","name":"Purinergic P2Y Receptor Antagonists","relevance":"LOW"},{"id":"M20194","name":"Neurotransmitter Agents","relevance":"LOW"}],"browseBranches":[{"abbrev":"AnAg","name":"Antihypertensive Agents"},{"abbrev":"ChanBlk","name":"Channel Blockers"},{"abbrev":"VaDiAg","name":"Vasodilator Agents"},{"abbrev":"All","name":"All Drugs and Chemicals"},{"abbrev":"NaAg","name":"Natriuretic Agents"},{"abbrev":"Hypo","name":"Hypoglycemic Agents"},{"abbrev":"Antipy","name":"Antipyretics"},{"abbrev":"Infl","name":"Anti-Inflammatory Agents"},{"abbrev":"ARhu","name":"Antirheumatic Agents"},{"abbrev":"FiAg","name":"Fibrinolytic Agents"},{"abbrev":"Analg","name":"Analgesics"},{"abbrev":"PlAggInh","name":"Platelet Aggregation Inhibitors"},{"abbrev":"Lipd","name":"Lipid Regulating Agents"},{"abbrev":"Repr","name":"Reproductive Control Agents"}]}},"hasResults":false}