{"protocolSection":{"identificationModule":{"nctId":"NCT05686070","orgStudyIdInfo":{"id":"20604"},"secondaryIdInfos":[{"id":"2023-503793-20-00","type":"OTHER","domain":"CTIS (EU)"},{"id":"2022-001067-27","type":"EUDRACT_NUMBER"}],"organization":{"fullName":"Bayer","class":"INDUSTRY"},"briefTitle":"A Study to Test Asundexian to Prevent a Clot-related Stroke in Participants After an Acute Ischemic Stroke or High-risk TIA/Mini-stroke (Transient Ischemic Attack)","officialTitle":"A Multicenter, International, Randomized, Placebo Controlled, Double-blind, Parallel Group and Event Driven Phase 3 Study of the Oral FXIa Inhibitor Asundexian (BAY 2433334) for the Prevention of Ischemic Stroke in Male and Female Participants Aged 18 Years and Older After an Acute Non-cardioembolic Ischemic Stroke or High-risk TIA","acronym":"OCEANIC-STROKE"},"statusModule":{"statusVerifiedDate":"2023-11","overallStatus":"RECRUITING","expandedAccessInfo":{"hasExpandedAccess":false},"startDateStruct":{"date":"2023-01-26","type":"ACTUAL"},"primaryCompletionDateStruct":{"date":"2025-10-10","type":"ESTIMATED"},"completionDateStruct":{"date":"2025-10-10","type":"ESTIMATED"},"studyFirstSubmitDate":"2023-01-06","studyFirstSubmitQcDate":"2023-01-06","studyFirstPostDateStruct":{"date":"2023-01-17","type":"ACTUAL"},"lastUpdateSubmitDate":"2024-02-01","lastUpdatePostDateStruct":{"date":"2024-02-02","type":"ACTUAL"}},"sponsorCollaboratorsModule":{"responsibleParty":{"type":"SPONSOR"},"leadSponsor":{"name":"Bayer","class":"INDUSTRY"}},"oversightModule":{"oversightHasDmc":true,"isFdaRegulatedDrug":true,"isFdaRegulatedDevice":false},"descriptionModule":{"briefSummary":"Researchers are looking for a better way to prevent an ischemic stroke which occurs when a blood clot travelled to the brain in people who within the last 72 hours had:\n\n* an acute stroke due to a blood clot that formed outside the heart (acute non-cardioembolic ischemic stroke), or\n* TIA/mini-stroke with a high risk of turning into a stroke (high-risk transient ischemic attack), and who are planned to receive standard of care therapy. Acute ischemic strokes or TIA/mini-stroke result from a blocked or reduced blood flow to a part of the brain. They are caused by blood clots that travel to the brain and block the vessels that supply it. If these blood clots form elsewhere than in the heart, the stroke is called non-cardioembolic. People who already had a non-cardioembolic stroke are more likely to have another stroke. This is why they are treated preventively with an antiplatelet therapy, the current standard of care. Antiplatelet medicines prevent platelets, components of blood clotting, from clumping together.\n\nAnticoagulants are another type of medicine that prevents blood clots from forming by interfering with a process known as coagulation (or blood clotting).\n\nThe study treatment asundexian is a new type of anticoagulant currently under development to provide further treatment options. Asundexian aims to further improve the standard of care without increasing the risk of bleeding.\n\nThe main purpose of this study is to learn whether asundexian works better than placebo at reducing ischemic strokes in participants who recently had a non-cardioembolic ischemic stroke or TIA/mini-stroke when given in addition to standard antiplatelet therapy. A placebo is a treatment that looks like a medicine but does not have any medicine in it.\n\nAnother aim is to compare the occurrence of major bleeding events during the study between the asundexian and the placebo group. Major bleedings have a serious or even life-threatening impact on a person's health.\n\nDependent on the treatment group, the participants will either take asundexian or placebo as tablets once a day for at least 3 months up to 31 months.\n\nApproximately every 3 months during the treatment period, either a phone call or a visit to the study site is scheduled on an alternating basis. In addition, one visit before and up to two visits after the treatment period are planned.\n\nDuring the study, the study team will:\n\n* Check vital signs such as blood pressure and heart rate\n* Examine the participants' heart health using an electrocardiogram (ECG)\n* Take blood samples\n* Ask the participants questions about how they are feeling and what adverse events they are having.\n\nAn adverse event is any medical problem that a participant has during a study. Doctors keep track of all adverse events that happen in studies, even if they do not think the adverse events might be related to the study treatments. In addition, the participants will be asked to complete a questionnaire on quality of life at certain time points during the study."},"conditionsModule":{"conditions":["Prevention of Ischemic Stroke","Acute Non-cardioembolic Ischemic Stroke","High-risk Transient Ischemic Attack"]},"designModule":{"studyType":"INTERVENTIONAL","phases":["PHASE3"],"designInfo":{"allocation":"RANDOMIZED","interventionModel":"PARALLEL","primaryPurpose":"TREATMENT","maskingInfo":{"masking":"QUADRUPLE","whoMasked":["PARTICIPANT","CARE_PROVIDER","INVESTIGATOR","OUTCOMES_ASSESSOR"]}},"enrollmentInfo":{"count":9300,"type":"ESTIMATED"}},"armsInterventionsModule":{"armGroups":[{"label":"Asundexian","type":"EXPERIMENTAL","description":"Participants will receive asundexian.","interventionNames":["Drug: Asundexian (BAY2433334)"]},{"label":"Placebo","type":"PLACEBO_COMPARATOR","description":"Participants will receive placebo.","interventionNames":["Drug: Placebo"]}],"interventions":[{"type":"DRUG","name":"Asundexian (BAY2433334)","description":"Once daily, oral","armGroupLabels":["Asundexian"]},{"type":"DRUG","name":"Placebo","description":"Placebo to asundexian, once daily, oral","armGroupLabels":["Placebo"]}]},"outcomesModule":{"primaryOutcomes":[{"measure":"Time to first occurrence of ischemic stroke","timeFrame":"Up to 31 months"},{"measure":"Time to first occurrence of ISTH major bleeding","description":"ISTH=International Society on Thrombosis and Hemostasis","timeFrame":"Up to 31 months"}],"secondaryOutcomes":[{"measure":"Time to first occurrence of all strokes (ischemic and hemorrhagic)","timeFrame":"Up to 31 months"},{"measure":"Time to first occurrence of composite of CV death, MI or stroke","description":"CV=Cardiovascular, MI=Myocardial infarction","timeFrame":"Up to 31 months"},{"measure":"Time to first occurrence of composite of all-cause mortality, MI or stroke","timeFrame":"Up to 31 months"},{"measure":"Time to first occurrence of disabling stroke (mRS ≥3 at 90 days)","description":"mRS=Modified Rankin Scale","timeFrame":"Up to 31 months"},{"measure":"Time to first occurrence of all-cause mortality","timeFrame":"Up to 31 months"},{"measure":"Time to first occurrence of transient ischemic attack (TIA)","timeFrame":"Up to 31 months"},{"measure":"Time to first occurrence of composite of ISTH major or clinically relevant non-major bleeding","timeFrame":"Up to 31 months"},{"measure":"Time to first occurrence of ISTH clinically relevant non-major bleeding","timeFrame":"Up to 31 months"},{"measure":"Time to first occurrence of symptomatic intracranial hemorrhage","timeFrame":"Up to 31 months"},{"measure":"Time to first occurrence of hemorrhagic stroke","timeFrame":"Up to 31 months"},{"measure":"Time to first occurrence of fatal bleeding","timeFrame":"Up to 31 months"},{"measure":"Time to first occurrence of minor bleeding","timeFrame":"Up to 31 months"},{"measure":"Time to first occurrence of composite of ischemic stroke or ISTH major bleeding","timeFrame":"Up to 31 months"},{"measure":"Time to first occurrence of composite of CV death, all stroke, MI or ISTH major bleeding","timeFrame":"Up to 31 months"},{"measure":"Time to first occurrence of composite of all-cause mortality, disabling stroke, fatal bleeding, symptomatic intracranial hemorrhage","timeFrame":"Up to 31 months"}]},"eligibilityModule":{"eligibilityCriteria":"Inclusion Criteria:\n\n* Participants must be ≥ 18 years of age\n* Acute non-cardioembolic stroke or high-risk TIA\n* Systemic or cerebrovascular atherosclerosis or acute non-lacunar infarct\n\nExclusion Criteria:\n\n* Ischemic stroke ≤ 7 days before the index stroke event\n* Index stroke following procedures or strokes due to other rare causes\n* History of atrial fibrillation/flutter, left ventricular thrombus, mechanic valve or other cardioembolic source of stroke requiring anticoagulation","healthyVolunteers":false,"sex":"ALL","minimumAge":"18 Years","stdAges":["ADULT","OLDER_ADULT"]},"contactsLocationsModule":{"centralContacts":[{"name":"Bayer Clinical Trials Contact","role":"CONTACT","phone":"(+)1-888-84 22937","email":"clinical-trials-contact@bayer.com"}],"locations":[{"facility":"Eastern Shore Research Institute, LLC | Fairhope, AL","status":"RECRUITING","city":"Fairhope","state":"Alabama","zip":"36532","country":"United States","geoPoint":{"lat":30.52297,"lon":-87.90333}},{"facility":"St. Joseph's Hosp | Barrow Neuro Institute","status":"RECRUITING","city":"Phoenix","state":"Arizona","zip":"85013","country":"United States","geoPoint":{"lat":33.44838,"lon":-112.07404}},{"facility":"HonorHealth","status":"WITHDRAWN","city":"Scottsdale","state":"Arizona","zip":"85258","country":"United States","geoPoint":{"lat":33.50921,"lon":-111.89903}},{"facility":"Banner - University Medical Center Tucson","status":"NOT_YET_RECRUITING","city":"Tucson","state":"Arizona","zip":"85719","country":"United States","geoPoint":{"lat":32.22174,"lon":-110.92648}},{"facility":"University of Arkansas for Medical Sciences","status":"NOT_YET_RECRUITING","city":"Little Rock","state":"Arkansas","zip":"72205","country":"United States","geoPoint":{"lat":34.74648,"lon":-92.28959}},{"facility":"Kaiser Permanente Fontana Medical Center","status":"NOT_YET_RECRUITING","city":"Fontana","state":"California","zip":"92335","country":"United States","geoPoint":{"lat":34.09223,"lon":-117.43505}},{"facility":"MemorialCare Health System","status":"RECRUITING","city":"Long Beach","state":"California","zip":"90801","country":"United States","geoPoint":{"lat":33.76696,"lon":-118.18923}},{"facility":"Kaiser Permanente Los Angeles Medical Center","status":"RECRUITING","city":"Los Angeles","state":"California","zip":"90027","country":"United States","geoPoint":{"lat":34.05223,"lon":-118.24368}},{"facility":"University of Southern California Keck School of Medicine","status":"RECRUITING","city":"Los Angeles","state":"California","zip":"90089","country":"United States","geoPoint":{"lat":34.05223,"lon":-118.24368}},{"facility":"Ronald Reagan UCLA Medical Center","status":"RECRUITING","city":"Los Angeles","state":"California","zip":"90095","country":"United States","geoPoint":{"lat":34.05223,"lon":-118.24368}},{"facility":"Hoag Memorial Hospital - Center for Research & Education","status":"NOT_YET_RECRUITING","city":"Newport Beach","state":"California","zip":"92663","country":"United States","geoPoint":{"lat":33.61891,"lon":-117.92895}},{"facility":"UC Irvine Medical Center","status":"RECRUITING","city":"Orange","state":"California","zip":"92868","country":"United States","geoPoint":{"lat":33.78779,"lon":-117.85311}},{"facility":"University of California Davis Medical Center","status":"WITHDRAWN","city":"Sacramento","state":"California","zip":"95817","country":"United States","geoPoint":{"lat":38.58157,"lon":-121.4944}},{"facility":"San Francisco VA Health Care System","status":"NOT_YET_RECRUITING","city":"San Francisco","state":"California","zip":"94121","country":"United States","geoPoint":{"lat":37.77493,"lon":-122.41942}},{"facility":"Cottage Health I Santa Barbara Cottage Hospital - Research Department","status":"NOT_YET_RECRUITING","city":"Santa Barbara","state":"California","zip":"93105","country":"United States","geoPoint":{"lat":34.42083,"lon":-119.69819}},{"facility":"Stanford University Medical Center","status":"WITHDRAWN","city":"Stanford","state":"California","zip":"94305","country":"United States","geoPoint":{"lat":37.42411,"lon":-122.16608}},{"facility":"Harbor - UCLA Medical Center","status":"NOT_YET_RECRUITING","city":"Torrance","state":"California","zip":"90502","country":"United States","geoPoint":{"lat":33.83585,"lon":-118.34063}},{"facility":"Nuvance Health","status":"NOT_YET_RECRUITING","city":"Danbury","state":"Connecticut","zip":"06810","country":"United States","geoPoint":{"lat":41.39482,"lon":-73.45401}},{"facility":"Yale University | School of Medicine - Department of Neurology","status":"RECRUITING","city":"New Haven","state":"Connecticut","zip":"06510","country":"United States","geoPoint":{"lat":41.30815,"lon":-72.92816}},{"facility":"Cardiology Associates of Fairfield County, PC - Trumbull","status":"RECRUITING","city":"Trumbull","state":"Connecticut","zip":"06611","country":"United States","geoPoint":{"lat":41.24287,"lon":-73.20067}},{"facility":"Christiana Care Health System","status":"RECRUITING","city":"Newark","state":"Delaware","zip":"19713","country":"United States","geoPoint":{"lat":39.68372,"lon":-75.74966}},{"facility":"HCA Florida JFK Hospital","status":"RECRUITING","city":"Atlantis","state":"Florida","zip":"33462","country":"United States","geoPoint":{"lat":26.5909,"lon":-80.10088}},{"facility":"Delray Medical Center","status":"RECRUITING","city":"Boynton Beach","state":"Florida","zip":"33472","country":"United States","geoPoint":{"lat":26.52535,"lon":-80.06643}},{"facility":"Nova Clinical Research | Manatee Memorial Hospital","status":"NOT_YET_RECRUITING","city":"Bradenton","state":"Florida","zip":"34208","country":"United States","geoPoint":{"lat":27.49893,"lon":-82.57482}},{"facility":"Nova Clinical Research | Blake Medical Center Center","status":"RECRUITING","city":"Bradenton","state":"Florida","zip":"34243","country":"United States","geoPoint":{"lat":27.49893,"lon":-82.57482}},{"facility":"BayCare Health System | Morton Plant Hospital, Neuroscience Research department","status":"RECRUITING","city":"Clearwater","state":"Florida","zip":"33756","country":"United States","geoPoint":{"lat":27.96585,"lon":-82.8001}},{"facility":"University of Florida Health Sciences Center","status":"RECRUITING","city":"Gainesville","state":"Florida","zip":"32608","country":"United States","geoPoint":{"lat":29.65163,"lon":-82.32483}},{"facility":"Baptist Health Research Institute","status":"NOT_YET_RECRUITING","city":"Jacksonville","state":"Florida","zip":"32207","country":"United States","geoPoint":{"lat":30.33218,"lon":-81.65565}},{"facility":"Intercoastal Medical Group | Clinical Research","status":"RECRUITING","city":"Sarasota","state":"Florida","zip":"34239","country":"United States","geoPoint":{"lat":27.33643,"lon":-82.53065}},{"facility":"University of South Florida","status":"RECRUITING","city":"Tampa","state":"Florida","zip":"33606","country":"United States","geoPoint":{"lat":27.94752,"lon":-82.45843}},{"facility":"BayCare Health System - Tampa","status":"WITHDRAWN","city":"Tampa","state":"Florida","zip":"33607","country":"United States","geoPoint":{"lat":27.94752,"lon":-82.45843}},{"facility":"University of Illinois at Chicago | Department of Neurology","status":"RECRUITING","city":"Chicago","state":"Illinois","zip":"60612","country":"United States","geoPoint":{"lat":41.85003,"lon":-87.65005}},{"facility":"The University of Chicago","status":"NOT_YET_RECRUITING","city":"Chicago","state":"Illinois","zip":"60637","country":"United States","geoPoint":{"lat":41.85003,"lon":-87.65005}},{"facility":"Loyola University Medical Center","status":"NOT_YET_RECRUITING","city":"Maywood","state":"Illinois","zip":"60153","country":"United States","geoPoint":{"lat":41.8792,"lon":-87.84312}},{"facility":"Mercyhealth Javon Bea Hospital - Riverside | Neurology Research Department","status":"RECRUITING","city":"Rockford","state":"Illinois","zip":"61114","country":"United States","geoPoint":{"lat":42.27113,"lon":-89.094}},{"facility":"HSHS Medical Group","status":"RECRUITING","city":"Springfield","state":"Illinois","zip":"62769","country":"United States","geoPoint":{"lat":39.80172,"lon":-89.64371}},{"facility":"Baptist Health Lexington","status":"NOT_YET_RECRUITING","city":"Lexington","state":"Kentucky","zip":"40503","country":"United States","geoPoint":{"lat":37.98869,"lon":-84.47772}},{"facility":"Ochsner Health System | Ochsner Clinic Foundation - Neuroscience Research Department","status":"NOT_YET_RECRUITING","city":"New Orleans","state":"Louisiana","zip":"70121-2429","country":"United States","geoPoint":{"lat":29.95465,"lon":-90.07507}},{"facility":"Ochsner LSU Health Shreveport","status":"NOT_YET_RECRUITING","city":"Shreveport","state":"Louisiana","zip":"71103","country":"United States","geoPoint":{"lat":32.52515,"lon":-93.75018}},{"facility":"University of Maryland","status":"NOT_YET_RECRUITING","city":"Baltimore","state":"Maryland","zip":"21201","country":"United States","geoPoint":{"lat":39.29038,"lon":-76.61219}},{"facility":"Mid-Atlantic Epilepsy and Sleep Center","status":"NOT_YET_RECRUITING","city":"Bethesda","state":"Maryland","zip":"20817","country":"United States","geoPoint":{"lat":38.98067,"lon":-77.10026}},{"facility":"Tufts Medical Center - Boston","status":"RECRUITING","city":"Boston","state":"Massachusetts","zip":"02111","country":"United States","geoPoint":{"lat":42.35843,"lon":-71.05977}},{"facility":"Henry Ford Hospital","status":"RECRUITING","city":"Detroit","state":"Michigan","zip":"48202","country":"United States","geoPoint":{"lat":42.33143,"lon":-83.04575}},{"facility":"Michigan State University","status":"NOT_YET_RECRUITING","city":"East Lansing","state":"Michigan","zip":"48824","country":"United States","geoPoint":{"lat":42.73698,"lon":-84.48387}},{"facility":"Trinity Health | Oakland Hospital - Clinical Research Department","status":"RECRUITING","city":"Pontiac","state":"Michigan","zip":"48341","country":"United States","geoPoint":{"lat":42.63892,"lon":-83.29105}},{"facility":"Minneapolis Clinic of Neurology | Golden Valley, MN","status":"RECRUITING","city":"Golden Valley","state":"Minnesota","zip":"55422","country":"United States","geoPoint":{"lat":45.00969,"lon":-93.34912}},{"facility":"Mayo Clinic - Rochester","status":"NOT_YET_RECRUITING","city":"Rochester","state":"Minnesota","zip":"55905","country":"United States","geoPoint":{"lat":44.02163,"lon":-92.4699}},{"facility":"University of Mississippi Medical Center | Shafi Group","status":"WITHDRAWN","city":"Jackson","state":"Mississippi","zip":"39216","country":"United States","geoPoint":{"lat":32.29876,"lon":-90.18481}},{"facility":"University of Missouri Health Care","status":"NOT_YET_RECRUITING","city":"Columbia","state":"Missouri","zip":"65212","country":"United States","geoPoint":{"lat":38.95171,"lon":-92.33407}},{"facility":"St. Luke's Hospital of Kansas City","status":"NOT_YET_RECRUITING","city":"Kansas City","state":"Missouri","zip":"64111","country":"United States","geoPoint":{"lat":39.09973,"lon":-94.57857}},{"facility":"Kansas City VA Medical Center","status":"RECRUITING","city":"Kansas City","state":"Missouri","zip":"64128","country":"United States","geoPoint":{"lat":39.09973,"lon":-94.57857}},{"facility":"Barnes-Jewish Hospital","status":"RECRUITING","city":"Saint Louis","state":"Missouri","zip":"63110","country":"United States","geoPoint":{"lat":38.62727,"lon":-90.19789}},{"facility":"Mercy Hospital South","status":"NOT_YET_RECRUITING","city":"Saint Louis","state":"Missouri","zip":"63128","country":"United States","geoPoint":{"lat":38.62727,"lon":-90.19789}},{"facility":"Mercy Hospital","status":"RECRUITING","city":"Saint Louis","state":"Missouri","zip":"63141","country":"United States","geoPoint":{"lat":38.62727,"lon":-90.19789}},{"facility":"Dartmouth Hitchcock Medical Center","status":"NOT_YET_RECRUITING","city":"Lebanon","state":"New Hampshire","zip":"03756","country":"United States","geoPoint":{"lat":43.64229,"lon":-72.25176}},{"facility":"Hackensack University Medical Center","status":"WITHDRAWN","city":"Hackensack","state":"New Jersey","zip":"07601-1914","country":"United States","geoPoint":{"lat":40.88593,"lon":-74.04347}},{"facility":"Inspira Medical Centers | Clinical Research Office","status":"NOT_YET_RECRUITING","city":"Mullica Hill","state":"New Jersey","zip":"08062","country":"United States","geoPoint":{"lat":39.73928,"lon":-75.22407}},{"facility":"Albany Medical Center","status":"RECRUITING","city":"Albany","state":"New York","zip":"12208-3478","country":"United States","geoPoint":{"lat":42.65258,"lon":-73.75623}},{"facility":"SUNY Downstate Medical Center","status":"NOT_YET_RECRUITING","city":"Brooklyn","state":"New York","zip":"11203","country":"United States","geoPoint":{"lat":40.6501,"lon":-73.94958}},{"facility":"Trinity Medical Western New York | Trinity Vascular & Endovascular Center - Research Department","status":"NOT_YET_RECRUITING","city":"Buffalo","state":"New York","zip":"14220","country":"United States","geoPoint":{"lat":42.88645,"lon":-78.87837}},{"facility":"Northwell Health Neuroscience Institute","status":"RECRUITING","city":"Great Neck","state":"New York","zip":"11021-5209","country":"United States","geoPoint":{"lat":40.80066,"lon":-73.72846}},{"facility":"Westchester Medical Center","status":"NOT_YET_RECRUITING","city":"Hawthorne","state":"New York","zip":"10532","country":"United States","geoPoint":{"lat":41.10732,"lon":-73.79597}},{"facility":"NYU Langone Medical Center","status":"RECRUITING","city":"New York","state":"New York","zip":"10016-6402","country":"United States","geoPoint":{"lat":40.71427,"lon":-74.00597}},{"facility":"Icahn School of Medicine at Mount Sinai","status":"NOT_YET_RECRUITING","city":"New York","state":"New York","zip":"10029-6500","country":"United States","geoPoint":{"lat":40.71427,"lon":-74.00597}},{"facility":"Columbia University","status":"NOT_YET_RECRUITING","city":"New York","state":"New York","zip":"10032","country":"United States","geoPoint":{"lat":40.71427,"lon":-74.00597}},{"facility":"Mount Sinai Hospital - Stroke Center","status":"NOT_YET_RECRUITING","city":"New York","state":"New York","zip":"33756","country":"United States","geoPoint":{"lat":40.71427,"lon":-74.00597}},{"facility":"Vassar Brothers Medical Center","status":"RECRUITING","city":"Poughkeepsie","state":"New York","zip":"12601","country":"United States","geoPoint":{"lat":41.70037,"lon":-73.92097}},{"facility":"Long Island Jewish Medical Center","status":"WITHDRAWN","city":"Queens","state":"New York","zip":"11040","country":"United States","geoPoint":{"lat":40.68149,"lon":-73.83652}},{"facility":"Rochester General Hospital","status":"NOT_YET_RECRUITING","city":"Rochester","state":"New York","zip":"14621","country":"United States","geoPoint":{"lat":43.15478,"lon":-77.61556}},{"facility":"Mission Hospital | Neurology","status":"NOT_YET_RECRUITING","city":"Asheville","state":"North Carolina","zip":"28801","country":"United States","geoPoint":{"lat":35.60095,"lon":-82.55402}},{"facility":"University of North Carolina","status":"NOT_YET_RECRUITING","city":"Chapel Hill","state":"North Carolina","zip":"27599-7025","country":"United States","geoPoint":{"lat":35.9132,"lon":-79.05584}},{"facility":"Duke Univ. Medical Center","status":"NOT_YET_RECRUITING","city":"Durham","state":"North Carolina","zip":"27708","country":"United States","geoPoint":{"lat":35.99403,"lon":-78.89862}},{"facility":"Guilford Neurologic Associates","status":"RECRUITING","city":"Greensboro","state":"North Carolina","zip":"27405","country":"United States","geoPoint":{"lat":36.07264,"lon":-79.79198}},{"facility":"ECU Health Medical Center","status":"NOT_YET_RECRUITING","city":"Greenville","state":"North Carolina","zip":"27834","country":"United States","geoPoint":{"lat":35.61266,"lon":-77.36635}},{"facility":"NC Heart & Vascular Research","status":"NOT_YET_RECRUITING","city":"Raleigh","state":"North Carolina","zip":"27607","country":"United States","geoPoint":{"lat":35.7721,"lon":-78.63861}},{"facility":"Wake Forest University School of Medicine","status":"RECRUITING","city":"Winston-Salem","state":"North Carolina","zip":"27101-4135","country":"United States","geoPoint":{"lat":36.09986,"lon":-80.24422}},{"facility":"Novant Health Forsyth Medical Center","status":"NOT_YET_RECRUITING","city":"Winston-Salem","state":"North Carolina","zip":"27103","country":"United States","geoPoint":{"lat":36.09986,"lon":-80.24422}},{"facility":"Cleveland Clinic Foundation","status":"RECRUITING","city":"Cleveland","state":"Ohio","zip":"44195","country":"United States","geoPoint":{"lat":41.4995,"lon":-81.69541}},{"facility":"Ohio State University Wexner Medical Center","status":"RECRUITING","city":"Columbus","state":"Ohio","zip":"43210","country":"United States","geoPoint":{"lat":39.96118,"lon":-82.99879}},{"facility":"OhioHealth Research Institute","status":"NOT_YET_RECRUITING","city":"Columbus","state":"Ohio","zip":"43302-6225","country":"United States","geoPoint":{"lat":39.96118,"lon":-82.99879}},{"facility":"Wright State University | Boonshoft School of Medicine - WSU and Premier Health Clinical Trials Research Alliance","status":"RECRUITING","city":"Fairborn","state":"Ohio","zip":"45324","country":"United States","geoPoint":{"lat":39.82089,"lon":-84.01938}},{"facility":"Kettering Health Network | Research Institute","status":"RECRUITING","city":"Kettering","state":"Ohio","zip":"45429","country":"United States","geoPoint":{"lat":39.6895,"lon":-84.16883}},{"facility":"Bon Secours Mercy Health","status":"WITHDRAWN","city":"Lima","state":"Ohio","zip":"45801","country":"United States","geoPoint":{"lat":40.74255,"lon":-84.10523}},{"facility":"ProMedica | ProMedica Toledo Hospital - Neuro/Stroke Research Department","status":"RECRUITING","city":"Toledo","state":"Ohio","zip":"43606","country":"United States","geoPoint":{"lat":41.66394,"lon":-83.55521}},{"facility":"Mercy Health St. Vincent Medical Center","status":"NOT_YET_RECRUITING","city":"Toledo","state":"Ohio","zip":"43608","country":"United States","geoPoint":{"lat":41.66394,"lon":-83.55521}},{"facility":"Mercy Health St. Elizabeth Youngstown Hospital","status":"RECRUITING","city":"Youngstown","state":"Ohio","zip":"44501","country":"United States","geoPoint":{"lat":41.09978,"lon":-80.64952}},{"facility":"University of Oklahoma Med Center","status":"NOT_YET_RECRUITING","city":"Oklahoma City","state":"Oklahoma","zip":"73104","country":"United States","geoPoint":{"lat":35.46756,"lon":-97.51643}},{"facility":"Mercy Hospital Oklahoma City","status":"NOT_YET_RECRUITING","city":"Oklahoma City","state":"Oklahoma","zip":"73120","country":"United States","geoPoint":{"lat":35.46756,"lon":-97.51643}},{"facility":"Oregon Health and Science University","status":"RECRUITING","city":"Portland","state":"Oregon","zip":"97239","country":"United States","geoPoint":{"lat":45.52345,"lon":-122.67621}},{"facility":"Lehigh Neurology","status":"RECRUITING","city":"Allentown","state":"Pennsylvania","zip":"18103","country":"United States","geoPoint":{"lat":40.60843,"lon":-75.49018}},{"facility":"University of Pittsburgh Medical Center Hamot","status":"RECRUITING","city":"Erie","state":"Pennsylvania","zip":"16550","country":"United States","geoPoint":{"lat":42.12922,"lon":-80.08506}},{"facility":"University of Pittsburgh Medical Center","status":"NOT_YET_RECRUITING","city":"Harrisburg","state":"Pennsylvania","zip":"17101","country":"United States","geoPoint":{"lat":40.2737,"lon":-76.88442}},{"facility":"Penn State Milton S. Hershey Medical Center","status":"NOT_YET_RECRUITING","city":"Hershey","state":"Pennsylvania","zip":"17033","country":"United States","geoPoint":{"lat":40.28592,"lon":-76.65025}},{"facility":"Lancaster General Hospital","status":"RECRUITING","city":"Lancaster","state":"Pennsylvania","zip":"17602","country":"United States","geoPoint":{"lat":40.03788,"lon":-76.30551}},{"facility":"The Hospitals of the University of Pennsylvania","status":"RECRUITING","city":"Philadelphia","state":"Pennsylvania","zip":"19104","country":"United States","geoPoint":{"lat":39.95233,"lon":-75.16379}},{"facility":"Thomas Jefferson University","status":"RECRUITING","city":"Philadelphia","state":"Pennsylvania","zip":"19107","country":"United States","geoPoint":{"lat":39.95233,"lon":-75.16379}},{"facility":"Lewis Katz School of Medicine at Temple University - Neurolo","status":"RECRUITING","city":"Philadelphia","state":"Pennsylvania","zip":"19140","country":"United States","geoPoint":{"lat":39.95233,"lon":-75.16379}},{"facility":"Einstein Healthcare Network","status":"WITHDRAWN","city":"Philadelphia","state":"Pennsylvania","zip":"19141","country":"United States","geoPoint":{"lat":39.95233,"lon":-75.16379}},{"facility":"Rhode Island Hospital","status":"NOT_YET_RECRUITING","city":"Providence","state":"Rhode Island","zip":"02903","country":"United States","geoPoint":{"lat":41.82399,"lon":-71.41283}},{"facility":"Medical University of South Carolina","status":"NOT_YET_RECRUITING","city":"Charleston","state":"South Carolina","zip":"29425","country":"United States","geoPoint":{"lat":32.77657,"lon":-79.93092}},{"facility":"Prisma Health Greenville Memorial Hospital","status":"NOT_YET_RECRUITING","city":"Greenville","state":"South Carolina","zip":"29605","country":"United States","geoPoint":{"lat":34.85262,"lon":-82.39401}},{"facility":"Erlanger Health, Inc.","status":"RECRUITING","city":"Chattanooga","state":"Tennessee","zip":"37403","country":"United States","geoPoint":{"lat":35.04563,"lon":-85.30968}},{"facility":"University of Tennessee Medical Center","status":"RECRUITING","city":"Knoxville","state":"Tennessee","zip":"37920","country":"United States","geoPoint":{"lat":35.96064,"lon":-83.92074}},{"facility":"Baptist Memorial Hospital East","status":"NOT_YET_RECRUITING","city":"Memphis","state":"Tennessee","zip":"38120","country":"United States","geoPoint":{"lat":35.14953,"lon":-90.04898}},{"facility":"Baylor University Medical Center at Dallas","status":"RECRUITING","city":"Dallas","state":"Texas","zip":"75246","country":"United States","geoPoint":{"lat":32.78306,"lon":-96.80667}},{"facility":"University of Texas Southwestern Medical Center","status":"NOT_YET_RECRUITING","city":"Dallas","state":"Texas","zip":"75390-7208","country":"United States","geoPoint":{"lat":32.78306,"lon":-96.80667}},{"facility":"Doctors Hospital at Renaissance","status":"NOT_YET_RECRUITING","city":"Edinburg","state":"Texas","zip":"78539","country":"United States","geoPoint":{"lat":26.30174,"lon":-98.16334}},{"facility":"Texas Health Harris Methodist Hospital","status":"NOT_YET_RECRUITING","city":"Fort Worth","state":"Texas","zip":"76104","country":"United States","geoPoint":{"lat":32.72541,"lon":-97.32085}},{"facility":"Valley Baptist Health System | Harlingen - Clinical Research","status":"NOT_YET_RECRUITING","city":"Harlingen","state":"Texas","zip":"78550","country":"United States","geoPoint":{"lat":26.19063,"lon":-97.6961}},{"facility":"Houston Methodist Hospital","status":"RECRUITING","city":"Houston","state":"Texas","zip":"77030","country":"United States","geoPoint":{"lat":29.76328,"lon":-95.36327}},{"facility":"University of Texas Health Science Center at Houston","status":"RECRUITING","city":"Houston","state":"Texas","zip":"77030","country":"United States","geoPoint":{"lat":29.76328,"lon":-95.36327}},{"facility":"Neurology Consultants of Dallas, PA","status":"NOT_YET_RECRUITING","city":"Plano","state":"Texas","zip":"75093","country":"United States","geoPoint":{"lat":33.01984,"lon":-96.69889}},{"facility":"University of Texas Health San Antonio","status":"NOT_YET_RECRUITING","city":"San Antonio","state":"Texas","zip":"78229","country":"United States","geoPoint":{"lat":29.42412,"lon":-98.49363}},{"facility":"Baylor Scott & White","status":"RECRUITING","city":"Temple","state":"Texas","zip":"76508","country":"United States","geoPoint":{"lat":31.09823,"lon":-97.34278}},{"facility":"Intermountain Healthcare | Cardiovascular Research Department","status":"NOT_YET_RECRUITING","city":"Murray","state":"Utah","zip":"84107","country":"United States","geoPoint":{"lat":40.66689,"lon":-111.88799}},{"facility":"University of Utah Health Care","status":"WITHDRAWN","city":"Salt Lake City","state":"Utah","zip":"84312","country":"United States","geoPoint":{"lat":40.76078,"lon":-111.89105}},{"facility":"Neurological Associates - Henrico","status":"RECRUITING","city":"Henrico","state":"Virginia","zip":"23229","country":"United States","geoPoint":{"lat":36.59264,"lon":-78.61611}},{"facility":"Bon Secours St. Mary's Hospital","status":"NOT_YET_RECRUITING","city":"Richmond","state":"Virginia","zip":"23226","country":"United States","geoPoint":{"lat":37.55376,"lon":-77.46026}},{"facility":"University Physicians and Surgeons","status":"NOT_YET_RECRUITING","city":"Huntington","state":"West Virginia","zip":"25701","country":"United States","geoPoint":{"lat":38.41925,"lon":-82.44515}},{"facility":"Aurora Saint Luke's Medical Center","status":"NOT_YET_RECRUITING","city":"Milwaukee","state":"Wisconsin","zip":"53215","country":"United States","geoPoint":{"lat":43.0389,"lon":-87.90647}},{"facility":"Froedtert Health/Medical College of Wisconsin","status":"RECRUITING","city":"Milwaukee","state":"Wisconsin","zip":"53226","country":"United States","geoPoint":{"lat":43.0389,"lon":-87.90647}},{"facility":"Clinica IMA","status":"WITHDRAWN","city":"Adrogue","state":"Buenos Aires","zip":"B1846","country":"Argentina","geoPoint":{"lat":-34.80041,"lon":-58.38384}},{"facility":"Hospital General de Agudos JM Ramos Mejía","status":"RECRUITING","city":"Buenos Aires (Capital Federal)","state":"Buenos Aires","zip":"C1221 ADC","country":"Argentina","geoPoint":{"lat":-34.61315,"lon":-58.37723}},{"facility":"Hospital General de Agudos Dr. Ignacio Pirovano","status":"RECRUITING","city":"Capital Federal","state":"Buenos Aires","zip":"1430","country":"Argentina","geoPoint":{"lat":-34.61315,"lon":-58.37723}},{"facility":"Hospital Italiano de La Plata | Clinical Research Department","status":"RECRUITING","city":"La Plata","state":"Buenos Aires","zip":"1900","country":"Argentina","geoPoint":{"lat":-34.92145,"lon":-57.95453}},{"facility":"Policlinico Lomas | Neurology Department","status":"RECRUITING","city":"Lomas de Zamora","state":"Buenos Aires","zip":"B1832BQD","country":"Argentina","geoPoint":{"lat":-34.76088,"lon":-58.40632}},{"facility":"Hospital Privado de Comunidad | Clinical Research Department","status":"RECRUITING","city":"Mar del Plata","state":"Buenos Aires","zip":"B7602CBM","country":"Argentina","geoPoint":{"lat":-38.00228,"lon":-57.55754}},{"facility":"Sanatorio de la Trinidad Mitre","status":"RECRUITING","city":"Buenos Aires","state":"Ciudad Auton. De Buenos Aires","zip":"C1039AAO","country":"Argentina","geoPoint":{"lat":-34.61315,"lon":-58.37723}},{"facility":"Hospital Italiano Buenos Aires","status":"RECRUITING","city":"Buenos Aires","state":"Ciudad Auton. De Buenos Aires","zip":"C1199ABB","country":"Argentina","geoPoint":{"lat":-34.61315,"lon":-58.37723}},{"facility":"Fundacion para la Lucha vs. Enf. Neurologicas de la Infancia","status":"RECRUITING","city":"Buenos Aires","state":"Ciudad Auton. De Buenos Aires","zip":"C1428 AQK","country":"Argentina","geoPoint":{"lat":-34.61315,"lon":-58.37723}},{"facility":"Complejo Policial Churruca Visca","status":"RECRUITING","city":"Buenos Aires","state":"Ciudad Auton. De Buenos Aires","zip":"C1437JCP","country":"Argentina","geoPoint":{"lat":-34.61315,"lon":-58.37723}},{"facility":"Hospital Privado de Rosario (HPR Grupo Gamma)","status":"RECRUITING","city":"Rosario","state":"Santa Fe","zip":"S2000GAP","country":"Argentina","geoPoint":{"lat":-32.94682,"lon":-60.63932}},{"facility":"Sanatorio Parque | Departamento de Neurologia","status":"RECRUITING","city":"Rosario","state":"Santa Fe","zip":"S2000GAP","country":"Argentina","geoPoint":{"lat":-32.94682,"lon":-60.63932}},{"facility":"Centro Estudios Médicos e Invest. Clínicas \"Dr. N. Quirno\"","status":"RECRUITING","city":"Buenos Aires","country":"Argentina","geoPoint":{"lat":-34.61315,"lon":-58.37723}},{"facility":"Sanatorio Allende | Departamento de Investigación Clínica","status":"RECRUITING","city":"Córdoba","zip":"X5000JHQ","country":"Argentina","geoPoint":{"lat":-31.4135,"lon":-64.18105}},{"facility":"San Bernardo Hospital | Neurology Department","status":"RECRUITING","city":"Salta","zip":"A4406CLA","country":"Argentina","geoPoint":{"lat":-24.7859,"lon":-65.41166}},{"facility":"Blacktown Hospital","status":"RECRUITING","city":"Blacktownn","state":"New South Wales","zip":"2148","country":"Australia"},{"facility":"Royal Prince Alfred Hospital","status":"RECRUITING","city":"Camperdown","state":"New South Wales","zip":"2050","country":"Australia","geoPoint":{"lat":-33.88965,"lon":151.17642}},{"facility":"South Western Sydney Local Health District | Liverpool Hospital - Stroke and Neurovascular Department","status":"RECRUITING","city":"Liverpool","state":"New South Wales","zip":"2170","country":"Australia","geoPoint":{"lat":-33.90011,"lon":150.93328}},{"facility":"John Hunter Hospital","status":"RECRUITING","city":"New Lambton Heights","state":"New South Wales","zip":"2305","country":"Australia","geoPoint":{"lat":-32.92466,"lon":151.69364}},{"facility":"Prince of Wales Hospital NSW","status":"RECRUITING","city":"Randwick","state":"New South Wales","zip":"2031","country":"Australia","geoPoint":{"lat":-33.91439,"lon":151.24895}},{"facility":"Royal North Shore Hospital","status":"RECRUITING","city":"St Leonards","state":"New South Wales","zip":"2065","country":"Australia","geoPoint":{"lat":-33.82344,"lon":151.19836}},{"facility":"Nepean Hospital","status":"RECRUITING","city":"Sydney","state":"New South Wales","zip":"2751","country":"Australia","geoPoint":{"lat":-33.86785,"lon":151.20732}},{"facility":"Westmead Hospital","status":"RECRUITING","city":"Westmead","state":"New South Wales","zip":"2145","country":"Australia","geoPoint":{"lat":-33.80383,"lon":150.98768}},{"facility":"Sunshine Coast University Hospital","status":"RECRUITING","city":"Birtinya","state":"Queensland","zip":"4575","country":"Australia","geoPoint":{"lat":-26.74322,"lon":153.11913}},{"facility":"Royal Brisbane and Women's Hospital","status":"NOT_YET_RECRUITING","city":"Brisbane","state":"Queensland","zip":"4029","country":"Australia","geoPoint":{"lat":-27.46794,"lon":153.02809}},{"facility":"Redcliffe District Hospital","status":"RECRUITING","city":"Redcliffe","state":"Queensland","zip":"4020","country":"Australia","geoPoint":{"lat":-31.93845,"lon":115.94645}},{"facility":"Gold Coast University Hospital","status":"RECRUITING","city":"Southport","state":"Queensland","zip":"4215","country":"Australia","geoPoint":{"lat":-27.96724,"lon":153.39796}},{"facility":"Princess Alexandra Hospital Australia","status":"RECRUITING","city":"Woollongabba","state":"Queensland","zip":"4106","country":"Australia"},{"facility":"Royal Adelaide Hospital","status":"RECRUITING","city":"Adelaide","state":"South Australia","zip":"5000","country":"Australia","geoPoint":{"lat":-34.92866,"lon":138.59863}},{"facility":"Lyell McEwin Hospital","status":"RECRUITING","city":"Elizabeth Vale","state":"South Australia","zip":"5112","country":"Australia","geoPoint":{"lat":-34.74857,"lon":138.66819}},{"facility":"Grampians Health Ballarat","status":"RECRUITING","city":"Ballarat","state":"Victoria","zip":"3350","country":"Australia","geoPoint":{"lat":-37.56622,"lon":143.84957}},{"facility":"Box Hill Hospital","status":"RECRUITING","city":"Box Hill","state":"Victoria","zip":"3128","country":"Australia","geoPoint":{"lat":-37.81887,"lon":145.12545}},{"facility":"Monash Medical Centre","status":"RECRUITING","city":"Clayton","state":"Victoria","zip":"3168","country":"Australia","geoPoint":{"lat":-37.91667,"lon":145.11667}},{"facility":"Royal Melbourne Hospital","status":"RECRUITING","city":"Parkville","state":"Victoria","zip":"3050","country":"Australia","geoPoint":{"lat":-37.78333,"lon":144.95}},{"facility":"The Alfred Hospital","status":"RECRUITING","city":"Prahran","state":"Victoria","zip":"3181","country":"Australia","geoPoint":{"lat":-37.85114,"lon":144.99318}},{"facility":"Western Health Neuroscience Research Unit","status":"RECRUITING","city":"St Albans","state":"Victoria","zip":"3021","country":"Australia","geoPoint":{"lat":-37.73901,"lon":144.80024}},{"facility":"Fiona Stanley Hospital","status":"RECRUITING","city":"Murdoch","state":"Western Australia","zip":"6961","country":"Australia","geoPoint":{"lat":-32.06987,"lon":115.83757}},{"facility":"Sir Charles Gairdner Hospital","status":"NOT_YET_RECRUITING","city":"Nedlands","state":"Western Australia","zip":"6009","country":"Australia","geoPoint":{"lat":-31.98184,"lon":115.8073}},{"facility":"Landesklinikum Moedling | Abteilung für Neurologie","status":"RECRUITING","city":"Moedling","state":"Niederösterreich","zip":"2340","country":"Austria"},{"facility":"Universitaetsklinikum St. Poelten | Abteilung für Neurologie","status":"RECRUITING","city":"St. Poelten","state":"Niederösterreich","zip":"3100","country":"Austria","geoPoint":{"lat":48.2,"lon":15.63333}},{"facility":"Med Campus III | Klinik fuer Neurologie 2","status":"RECRUITING","city":"Linz","state":"Oberösterreich","zip":"4020","country":"Austria","geoPoint":{"lat":48.30639,"lon":14.28611}},{"facility":"Barmherzige Brueder Linz | Neurologie","status":"RECRUITING","city":"Linz","state":"Oberösterreich","zip":"4021","country":"Austria","geoPoint":{"lat":48.30639,"lon":14.28611}},{"facility":"Kardinal Schwarzenberg Klinikum","status":"RECRUITING","city":"Schwarzach im Pongau","state":"Salzburg","zip":"5620","country":"Austria","geoPoint":{"lat":47.32048,"lon":13.15171}},{"facility":"Universitaetsklinikum Graz | Abteilung für Neurologie","status":"RECRUITING","city":"Graz","state":"Steiermark","zip":"8036","country":"Austria","geoPoint":{"lat":47.06667,"lon":15.45}},{"facility":"Medizinische Universitaet Innsbruck | Neurologie","status":"RECRUITING","city":"Innsbruck","state":"Tirol","zip":"6020","country":"Austria","geoPoint":{"lat":47.26266,"lon":11.39454}},{"facility":"Universitaeres Landeskrankenhaus Feldkirch | Neurologie","status":"RECRUITING","city":"Feldkirch","state":"Vorarlberg","zip":"6800","country":"Austria","geoPoint":{"lat":47.23306,"lon":9.6}},{"facility":"Barmherzige Brueder Wien | Abt. fuer Neurologie","status":"RECRUITING","city":"Wien","zip":"1020","country":"Austria","geoPoint":{"lat":48.20849,"lon":16.37208}},{"facility":"AKH Wien | Univ. Klinik fuer Neurologie","status":"RECRUITING","city":"Wien","zip":"1090","country":"Austria","geoPoint":{"lat":48.20849,"lon":16.37208}},{"facility":"Klinik Ottakring | Neurologische Abteilung","status":"NOT_YET_RECRUITING","city":"Wien","zip":"1160","country":"Austria","geoPoint":{"lat":48.20849,"lon":16.37208}},{"facility":"Klinik Floridsdorf | Abt. f. Neurologie","status":"RECRUITING","city":"Wien","zip":"1210","country":"Austria","geoPoint":{"lat":48.20849,"lon":16.37208}},{"facility":"Jessa Hospital | Neurology Department","status":"RECRUITING","city":"Hasselt","state":"Limburg","zip":"3500","country":"Belgium","geoPoint":{"lat":50.93106,"lon":5.33781}},{"facility":"CHC MontLégia Neurology Department","status":"RECRUITING","city":"Liege","state":"Liège","zip":"4000","country":"Belgium","geoPoint":{"lat":50.63373,"lon":5.56749}},{"facility":"AZ Sint-Jan Brugge | Neurology","status":"RECRUITING","city":"Brugge","zip":"8000","country":"Belgium","geoPoint":{"lat":51.20892,"lon":3.22424}},{"facility":"UZ Brussel","status":"RECRUITING","city":"Brussel","zip":"1090","country":"Belgium","geoPoint":{"lat":50.85045,"lon":4.34878}},{"facility":"Hôpital Erasme/Erasmus Ziekenhuis","status":"RECRUITING","city":"Bruxelles - Brussel","zip":"1070","country":"Belgium","geoPoint":{"lat":50.85045,"lon":4.34878}},{"facility":"CU Saint-Luc/UZ St-Luc","status":"RECRUITING","city":"Bruxelles - Brussel","zip":"1200","country":"Belgium","geoPoint":{"lat":50.85045,"lon":4.34878}},{"facility":"UZ Gent","status":"RECRUITING","city":"Gent","zip":"9000","country":"Belgium","geoPoint":{"lat":51.05,"lon":3.71667}},{"facility":"AZ Groeninge Campus Kennedylaan - Neurology department","status":"RECRUITING","city":"Kortrijk","zip":"8500","country":"Belgium","geoPoint":{"lat":50.82803,"lon":3.26487}},{"facility":"UZ Leuven - Neurology department","status":"RECRUITING","city":"Leuven","zip":"3000","country":"Belgium","geoPoint":{"lat":50.87959,"lon":4.70093}},{"facility":"Kust, Ommeland en Meetjesland (KOM) Network | AZ Damiaan - Neurology Department","status":"RECRUITING","city":"Ostend","zip":"8400","country":"Belgium","geoPoint":{"lat":51.21551,"lon":2.927}},{"facility":"Vitaz Sint-Niklaas Moerland","status":"NOT_YET_RECRUITING","city":"Sint-Niklaas","zip":"9100","country":"Belgium","geoPoint":{"lat":51.16509,"lon":4.1437}},{"facility":"Clinique de l'Europe","status":"WITHDRAWN","city":"Uccle","zip":"1180","country":"Belgium","geoPoint":{"lat":50.80225,"lon":4.33943}},{"facility":"Hospital Universitario Professor Edgard Santos","status":"NOT_YET_RECRUITING","city":"Salvador","state":"Bahia","zip":"40110060","country":"Brazil","geoPoint":{"lat":-12.97111,"lon":-38.51083}},{"facility":"Centro de Pesquisas do Hospital Bahia","status":"NOT_YET_RECRUITING","city":"Salvador","state":"Bahia","zip":"41.810-011","country":"Brazil","geoPoint":{"lat":-12.97111,"lon":-38.51083}},{"facility":"Hospital Geral de Fortaleza","status":"NOT_YET_RECRUITING","city":"Fortaleza","state":"Ceará","zip":"60150-160","country":"Brazil","geoPoint":{"lat":-3.71722,"lon":-38.54306}},{"facility":"Hospital Brasilia","status":"NOT_YET_RECRUITING","city":"Brasilia","state":"Distrito Federal","zip":"71.635-580","country":"Brazil","geoPoint":{"lat":-15.77972,"lon":-47.92972}},{"facility":"Hospital Estadual Central Vitoria - Fundação INOVA - ES","status":"NOT_YET_RECRUITING","city":"Espirito Santo","state":"Espírito Santo","zip":"29018-140","country":"Brazil"},{"facility":"Hospital Universitário UFMS","status":"NOT_YET_RECRUITING","city":"Campo Grande","state":"Mato Grosso Do Sul","zip":"79080 190","country":"Brazil","geoPoint":{"lat":-20.44278,"lon":-54.64639}},{"facility":"Hospital da Universidade Federal de Minas Gerais","status":"NOT_YET_RECRUITING","city":"Belo Horizonte","state":"Minas Gerais","zip":"30130-100","country":"Brazil","geoPoint":{"lat":-19.92083,"lon":-43.93778}},{"facility":"Hospital Madre Tereza","status":"NOT_YET_RECRUITING","city":"Belo Horizonte","state":"Minas Gerais","zip":"30441-070","country":"Brazil","geoPoint":{"lat":-19.92083,"lon":-43.93778}},{"facility":"Hospital das Clinicas da Universidade Federal do Paraná","status":"NOT_YET_RECRUITING","city":"Curitiba","state":"Parana","country":"Brazil","geoPoint":{"lat":-25.42778,"lon":-49.27306}},{"facility":"Hospital Moinhos de Vento-Centro Clínico","status":"RECRUITING","city":"Porto Alegre","state":"Rio Grande Do Sul","zip":"90035-001","country":"Brazil","geoPoint":{"lat":-30.03306,"lon":-51.23}},{"facility":"Hospital de Clínicas de Porto Alegre","status":"NOT_YET_RECRUITING","city":"Porto Alegre","state":"Rio Grande Do Sul","zip":"90035-903","country":"Brazil","geoPoint":{"lat":-30.03306,"lon":-51.23}},{"facility":"Clinica Neurologica e Neurocirurgica de Joinville Ltda","status":"RECRUITING","city":"Joinville","state":"Santa Catarina","zip":"89202-165","country":"Brazil","geoPoint":{"lat":-26.30444,"lon":-48.84556}},{"facility":"Hospital das Clínicas de Botucatu - UNESP Botucatu","status":"RECRUITING","city":"Botucatu","state":"Sao Paulo","country":"Brazil","geoPoint":{"lat":-22.88583,"lon":-48.445}},{"facility":"Sociedade Matonense de Benemerência","status":"NOT_YET_RECRUITING","city":"Matão","state":"Sao Paulo","zip":"15990-060","country":"Brazil","geoPoint":{"lat":-21.60333,"lon":-48.36583}},{"facility":"Hosp Clínicas Facult. Med. de Ribeirão Preto / USP","status":"NOT_YET_RECRUITING","city":"Ribeirão Preto/SP","state":"Sao Paulo","zip":"14051-140","country":"Brazil"},{"facility":"Fundação Facu. Reg de Medicina de São José do Rio Preto","status":"NOT_YET_RECRUITING","city":"São José do Rio Preto","state":"Sao Paulo","zip":"15090","country":"Brazil","geoPoint":{"lat":-20.81972,"lon":-49.37944}},{"facility":"Hospital Nove de Julho","status":"NOT_YET_RECRUITING","city":"São Paulo","state":"Sao Paulo","zip":"01409-902","country":"Brazil","geoPoint":{"lat":-23.5475,"lon":-46.63611}},{"facility":"Unifesp/Epm","status":"NOT_YET_RECRUITING","city":"São Paulo","state":"Sao Paulo","country":"Brazil","geoPoint":{"lat":-23.5475,"lon":-46.63611}},{"facility":"Hospital São Lucas - Rio de Janeiro","status":"NOT_YET_RECRUITING","city":"Rio de Janeiro","zip":"22.0080-040","country":"Brazil","geoPoint":{"lat":-22.90278,"lon":-43.2075}},{"facility":"Hospital Pró-Cardíaco","status":"NOT_YET_RECRUITING","city":"Rio de Janeiro","zip":"22280 000","country":"Brazil","geoPoint":{"lat":-22.90278,"lon":-43.2075}},{"facility":"L'Dor - Instituto de Ensino e Pesquisa","status":"NOT_YET_RECRUITING","city":"Rio de Janeiro","zip":"22281-100","country":"Brazil","geoPoint":{"lat":-22.90278,"lon":-43.2075}},{"facility":"Science Valley Research Institute","status":"NOT_YET_RECRUITING","city":"Sao Paulo","zip":"04551-010","country":"Brazil","geoPoint":{"lat":-23.5475,"lon":-46.63611}},{"facility":"MHAT Sveti Ivan Rilski 2003","status":"RECRUITING","city":"Dupnitsa","zip":"2600","country":"Bulgaria","geoPoint":{"lat":42.26667,"lon":23.11667}},{"facility":"MHAT Haskovo AD | Department of Nervous Diseases","status":"RECRUITING","city":"Haskovo","zip":"6300","country":"Bulgaria","geoPoint":{"lat":41.93415,"lon":25.55557}},{"facility":"MHAT Pleven MMA","status":"RECRUITING","city":"Pleven","zip":"5800","country":"Bulgaria","geoPoint":{"lat":43.41667,"lon":24.61667}},{"facility":"UMHAT Dr Georgi Stranski Pleven | Department of Neurology","status":"RECRUITING","city":"Pleven","zip":"5800","country":"Bulgaria","geoPoint":{"lat":43.41667,"lon":24.61667}},{"facility":"MHAT Sveti Pantaleymon - Plovdiv","status":"RECRUITING","city":"Plovdiv","zip":"4000","country":"Bulgaria","geoPoint":{"lat":42.15,"lon":24.75}},{"facility":"University Multiprof. Hosp. for Active Treatment Pulmed","status":"RECRUITING","city":"Plovdiv","zip":"4002","country":"Bulgaria","geoPoint":{"lat":42.15,"lon":24.75}},{"facility":"University Multispecialty Hosp Dep General&Vascu Neurology","status":"RECRUITING","city":"Ruse","zip":"7002","country":"Bulgaria","geoPoint":{"lat":43.85639,"lon":25.97083}},{"facility":"II MHAT-EAD Sofia","status":"RECRUITING","city":"Sofia","zip":"1202","country":"Bulgaria","geoPoint":{"lat":42.69751,"lon":23.32415}},{"facility":"Multiprofile Hospital for Active Treatment National Cardiology Hospital | Clinic for Neurological Diseases","status":"RECRUITING","city":"Sofia","zip":"1309","country":"Bulgaria","geoPoint":{"lat":42.69751,"lon":23.32415}},{"facility":"Acibadem City Clinic | Tokuda Hospital - Department of Neurology and Sleep Medicine","status":"RECRUITING","city":"Sofia","zip":"1407","country":"Bulgaria","geoPoint":{"lat":42.69751,"lon":23.32415}},{"facility":"UMHAT Tsaritsa Yoanna-ISUL Clinic for neurology diseases","status":"RECRUITING","city":"Sofia","zip":"1527","country":"Bulgaria","geoPoint":{"lat":42.69751,"lon":23.32415}},{"facility":"Military Medical Academy","status":"NOT_YET_RECRUITING","city":"Sofia","zip":"1606","country":"Bulgaria","geoPoint":{"lat":42.69751,"lon":23.32415}},{"facility":"University Multi-profile Hospital for Active Treatment and Emergency Medicine Pirogov | Department of Nervous Diseases","status":"RECRUITING","city":"Sofia","zip":"1606","country":"Bulgaria","geoPoint":{"lat":42.69751,"lon":23.32415}},{"facility":"MHAT Sofiamed","status":"WITHDRAWN","city":"Sofia","zip":"1797","country":"Bulgaria","geoPoint":{"lat":42.69751,"lon":23.32415}},{"facility":"MHATNP \"Sveti Naum\"","status":"RECRUITING","city":"Sofia","zip":"1797","country":"Bulgaria","geoPoint":{"lat":42.69751,"lon":23.32415}},{"facility":"MHAT Sveta Anna","status":"RECRUITING","city":"Sofia","zip":"1872","country":"Bulgaria","geoPoint":{"lat":42.69751,"lon":23.32415}},{"facility":"MHAT Sveta Marina EAD","status":"NOT_YET_RECRUITING","city":"Varna","zip":"9010","country":"Bulgaria","geoPoint":{"lat":43.21667,"lon":27.91667}},{"facility":"University of Calgary | Foothills Medical Centre - Department of Clinical Neurosciences - Stroke Clinical Trials Group","status":"RECRUITING","city":"Calgary","state":"Alberta","zip":"T2N 2T9","country":"Canada","geoPoint":{"lat":51.05011,"lon":-114.08529}},{"facility":"University of Alberta Hospital","status":"RECRUITING","city":"Edmonton","state":"Alberta","zip":"T6G 2B7","country":"Canada","geoPoint":{"lat":53.55014,"lon":-113.46871}},{"facility":"Kelowna General Hospital","status":"RECRUITING","city":"Kelowna","state":"British Columbia","zip":"V1Y 1T2","country":"Canada","geoPoint":{"lat":49.88307,"lon":-119.48568}},{"facility":"Royal Columbian Hospital","status":"RECRUITING","city":"New Westminster","state":"British Columbia","zip":"V3L 3W7","country":"Canada","geoPoint":{"lat":49.20678,"lon":-122.91092}},{"facility":"Vancouver General Hospital / Vancouver Stroke Program","status":"RECRUITING","city":"Vancouver","state":"British Columbia","zip":"V5Z 1M9","country":"Canada","geoPoint":{"lat":49.24966,"lon":-123.11934}},{"facility":"Winnepeg Health Sciences Centre","status":"RECRUITING","city":"Winnipeg","state":"Manitoba","zip":"R3E 1B2","country":"Canada","geoPoint":{"lat":49.8844,"lon":-97.14704}},{"facility":"Queen Elizabeth II Complex","status":"RECRUITING","city":"Halifax","state":"Nova Scotia","zip":"B3H 4K4","country":"Canada","geoPoint":{"lat":44.64533,"lon":-63.57239}},{"facility":"Hamilton General Hospital","status":"RECRUITING","city":"Hamilton","state":"Ontario","zip":"L8L 2X2","country":"Canada","geoPoint":{"lat":43.25011,"lon":-79.84963}},{"facility":"Kingston Health Sciences Centre (KGH Site)","status":"NOT_YET_RECRUITING","city":"Kingston","state":"Ontario","zip":"K7L 2V7","country":"Canada","geoPoint":{"lat":44.22976,"lon":-76.48101}},{"facility":"London Health Sciences Centre","status":"RECRUITING","city":"London","state":"Ontario","zip":"N6A 5A5","country":"Canada","geoPoint":{"lat":42.98339,"lon":-81.23304}},{"facility":"The Ottawa Hospital | The Ottawa Hospital Research Institute - Neurology - Ottawa Stroke Program","status":"RECRUITING","city":"Ottawa","state":"Ontario","zip":"K1Y4E9","country":"Canada","geoPoint":{"lat":45.41117,"lon":-75.69812}},{"facility":"Health Sciences North Research Institute | Sudbury, Canada","status":"RECRUITING","city":"Sudbury","state":"Ontario","zip":"P3E 5A2","country":"Canada","geoPoint":{"lat":46.49,"lon":-80.99001}},{"facility":"Sunnybrook Health Sciences Centre","status":"RECRUITING","city":"Toronto","state":"Ontario","zip":"M4N 3M5","country":"Canada","geoPoint":{"lat":43.70011,"lon":-79.4163}},{"facility":"Unity Health Toronto | St. Michael's Hospital - Stroke Research","status":"RECRUITING","city":"Toronto","state":"Ontario","zip":"M5C1R6","country":"Canada","geoPoint":{"lat":43.70011,"lon":-79.4163}},{"facility":"CIUSSS Saguenay Lac-St-Jean","status":"RECRUITING","city":"Chicoutimi","state":"Quebec","zip":"G7H 5H6","country":"Canada","geoPoint":{"lat":48.41963,"lon":-71.06369}},{"facility":"CHUM - Centre hospitalier de l'Université de Montréal","status":"RECRUITING","city":"Montreal","state":"Quebec","zip":"H2X 0A9","country":"Canada","geoPoint":{"lat":45.50884,"lon":-73.58781}},{"facility":"McGill University","status":"RECRUITING","city":"Montreal","state":"Quebec","zip":"H3A 2B4","country":"Canada","geoPoint":{"lat":45.50884,"lon":-73.58781}},{"facility":"Jewish General Hospital","status":"RECRUITING","city":"Montreal","state":"Quebec","zip":"H3T 1E2","country":"Canada","geoPoint":{"lat":45.50884,"lon":-73.58781}},{"facility":"CIUSSS de l'Estrie-CHUS, Hopital Fleurimont","status":"RECRUITING","city":"Sherbrooke","state":"Quebec","zip":"J1H 5N4","country":"Canada","geoPoint":{"lat":45.40008,"lon":-71.89908}},{"facility":"University of Saskatchewan, Royal University Hospital","status":"NOT_YET_RECRUITING","city":"Saskatoon","state":"Saskatchewan","zip":"S7N 0W8","country":"Canada","geoPoint":{"lat":52.13238,"lon":-106.66892}},{"facility":"Center For Neurologic Research","status":"NOT_YET_RECRUITING","city":"Lethbridge","zip":"T1J 0N9","country":"Canada","geoPoint":{"lat":49.69999,"lon":-112.81856}},{"facility":"CHU de Québec-Hôpital de l'Enfant-Jésus","status":"RECRUITING","city":"Quebec","zip":"G1J 1Z4","country":"Canada","geoPoint":{"lat":46.81228,"lon":-71.21454}},{"facility":"Xuancheng People's Hospital","status":"RECRUITING","city":"Xuancheng","state":"Anhui","zip":"242000","country":"China","geoPoint":{"lat":25.40949,"lon":116.3841}},{"facility":"Lanzhou University Second Hospital","status":"RECRUITING","city":"Lanzhou","state":"Gansu","zip":"730030","country":"China","geoPoint":{"lat":36.05701,"lon":103.83987}},{"facility":"Foshan First People's Hospital","status":"RECRUITING","city":"Foshan","state":"Guangdong","zip":"528000","country":"China","geoPoint":{"lat":23.02677,"lon":113.13148}},{"facility":"Guangdong Provincial People's Hospital","status":"RECRUITING","city":"Guangzhou","state":"Guangdong","zip":"510080","country":"China","geoPoint":{"lat":23.11667,"lon":113.25}},{"facility":"Zhujiang Hospital of Southern Medical University","status":"RECRUITING","city":"Guangzhou","state":"Guangdong","zip":"510280","country":"China","geoPoint":{"lat":23.11667,"lon":113.25}},{"facility":"Guangzhou Overseas Chinese Hospital","status":"RECRUITING","city":"Guangzhou","state":"Guangdong","zip":"510630","country":"China","geoPoint":{"lat":23.11667,"lon":113.25}},{"facility":"Liuzhou People's Hospital","status":"RECRUITING","city":"Liuzhou","state":"Guangxi","zip":"545006","country":"China"},{"facility":"Hainan General Hospital","status":"RECRUITING","city":"Haikou","state":"Hainan","zip":"570311","country":"China","geoPoint":{"lat":20.04583,"lon":110.34167}},{"facility":"Cangzhou Central Hospital","status":"RECRUITING","city":"Cangzhou","state":"Hebei","zip":"061000","country":"China","geoPoint":{"lat":38.31667,"lon":116.86667}},{"facility":"Harrison International Peace Hospital","status":"RECRUITING","city":"Hengshui","state":"Hebei","zip":"053000","country":"China","geoPoint":{"lat":37.73222,"lon":115.70111}},{"facility":"The Third Hospital of Hebei Medical University","status":"RECRUITING","city":"Shijiazhuang","state":"Hebei","zip":"050051","country":"China","geoPoint":{"lat":38.04139,"lon":114.47861}},{"facility":"Tangshan people's Hospital","status":"RECRUITING","city":"Tangshan","state":"Hebei","zip":"063001","country":"China","geoPoint":{"lat":39.63333,"lon":118.18333}},{"facility":"Daqing Oilfield General Hospital","status":"RECRUITING","city":"Daqing","state":"Heilongjiang","zip":"163311","country":"China","geoPoint":{"lat":46.58333,"lon":125.0}},{"facility":"Daqing People's Hospital","status":"WITHDRAWN","city":"Daqing","state":"Heilongjiang","zip":"163316","country":"China","geoPoint":{"lat":46.58333,"lon":125.0}},{"facility":"1st Affiliated Hospital of Henan Science and Technology Univ","status":"RECRUITING","city":"Luoyang","state":"Henan","zip":"471000","country":"China","geoPoint":{"lat":34.68361,"lon":112.45361}},{"facility":"Luoyang Third People's Hospital","status":"RECRUITING","city":"Luoyang","state":"Henan","zip":"471002","country":"China","geoPoint":{"lat":34.68361,"lon":112.45361}},{"facility":"Xinxiang Central Hospital","status":"WITHDRAWN","city":"Xinxiang","state":"Henan","zip":"453000","country":"China","geoPoint":{"lat":35.19033,"lon":113.80151}},{"facility":"The Third Affiliated Hospital of Xinxiang Medical university","status":"RECRUITING","city":"Xinxiang","state":"Henan","zip":"453003","country":"China","geoPoint":{"lat":35.19033,"lon":113.80151}},{"facility":"The Central Hospital of Wuhan, Tongji Medl Collg Huazhong...","status":"RECRUITING","city":"Wuhan","state":"Hubei","zip":"430014","country":"China","geoPoint":{"lat":30.58333,"lon":114.26667}},{"facility":"Wuhan No. 4 Hospital","status":"RECRUITING","city":"Wuhan","state":"Hubei","zip":"430034","country":"China","geoPoint":{"lat":30.58333,"lon":114.26667}},{"facility":"The Third Xiangya Hospital of Central South University","status":"RECRUITING","city":"Changsha","state":"Hunan","zip":"410013","country":"China","geoPoint":{"lat":28.19874,"lon":112.97087}},{"facility":"1st Affiliated Hospital of Nanhua University","status":"RECRUITING","city":"Hengyang","state":"Hunan","zip":"421001","country":"China","geoPoint":{"lat":26.88946,"lon":112.61888}},{"facility":"Baogang hospital","status":"RECRUITING","city":"Baotou","state":"Inner Mongolia","zip":"014010","country":"China","geoPoint":{"lat":40.65222,"lon":109.82222}},{"facility":"The First Affiliated Hospital of Baotou Medical College","status":"RECRUITING","city":"Baotou","state":"Inner Mongolia","zip":"014010","country":"China","geoPoint":{"lat":40.65222,"lon":109.82222}},{"facility":"The Affiliated Huaian No.1 People's Hospi of NJ Medical Unv.","status":"RECRUITING","city":"Huai'an","state":"Jiangsu","zip":"223001","country":"China","geoPoint":{"lat":33.50389,"lon":119.14417}},{"facility":"Affiliated Hospital of Jiangsu University","status":"RECRUITING","city":"JiangSu","state":"Jiangsu","zip":"212001","country":"China"},{"facility":"The Second Affiliated Hospital of Nanjing Medical university","status":"RECRUITING","city":"Nanjing","state":"Jiangsu","zip":"210000","country":"China","geoPoint":{"lat":32.06167,"lon":118.77778}},{"facility":"Nanjing First Hospital","status":"RECRUITING","city":"Nanjing","state":"Jiangsu","zip":"210006","country":"China","geoPoint":{"lat":32.06167,"lon":118.77778}},{"facility":"Zhongda Hospital Southeast University","status":"RECRUITING","city":"Nanjing","state":"Jiangsu","zip":"210009","country":"China","geoPoint":{"lat":32.06167,"lon":118.77778}},{"facility":"Wuxi No.2 People's Hospital","status":"RECRUITING","city":"Wuxi","state":"Jiangsu","zip":"214002","country":"China","geoPoint":{"lat":31.56887,"lon":120.28857}},{"facility":"Wuxi People's Hospital","status":"RECRUITING","city":"Wuxi","state":"Jiangsu","zip":"214023","country":"China","geoPoint":{"lat":31.56887,"lon":120.28857}},{"facility":"Xuzhou Central Hospital","status":"RECRUITING","city":"Xuzhou","state":"Jiangsu","zip":"221009","country":"China","geoPoint":{"lat":34.18045,"lon":117.15707}},{"facility":"Affiliated Hospital of Yangzhou University","status":"RECRUITING","city":"Yangzhou","state":"Jiangsu","zip":"225007","country":"China","geoPoint":{"lat":32.39722,"lon":119.43583}},{"facility":"Jiangxi Provincial People's Hospital","status":"RECRUITING","city":"Nanchang","state":"Jiangxi","zip":"330006","country":"China","geoPoint":{"lat":28.68396,"lon":115.85306}},{"facility":"The First Affiliated Hospital of NanChang University","status":"RECRUITING","city":"Nanchang","state":"Jiangxi","zip":"330006","country":"China","geoPoint":{"lat":28.68396,"lon":115.85306}},{"facility":"The First Hospital of Jilin University","status":"RECRUITING","city":"Changchun","state":"Jilin","zip":"130000","country":"China","geoPoint":{"lat":43.88,"lon":125.32278}},{"facility":"The First Affiliated Hospital of Jinzhou Medical University","status":"RECRUITING","city":"Jinzhou","state":"Liaoning","zip":"121001","country":"China","geoPoint":{"lat":41.10778,"lon":121.14167}},{"facility":"General Hospital of Northern Theater Command","status":"RECRUITING","city":"Shenyang","state":"Liaoning","zip":"110016","country":"China","geoPoint":{"lat":41.79222,"lon":123.43278}},{"facility":"General Hospital of Ningxia Medical University","status":"RECRUITING","city":"Yinchuan","state":"Ningxia","zip":"750004","country":"China","geoPoint":{"lat":38.46806,"lon":106.27306}},{"facility":"Qinghai University Affiliated Hospital","status":"RECRUITING","city":"Xining","state":"Qinghai","zip":"810001","country":"China","geoPoint":{"lat":36.62554,"lon":101.75739}},{"facility":"Baoji Central Hospital","status":"RECRUITING","city":"Baoji","state":"Shaanxi","zip":"721008","country":"China"},{"facility":"Yan'an University Xianyang Hospital","status":"RECRUITING","city":"Xianyang","state":"Shaanxi","zip":"716000","country":"China","geoPoint":{"lat":34.33778,"lon":108.70261}},{"facility":"Qilu Hospital of Shandong University","status":"RECRUITING","city":"Jinan","state":"Shandong","zip":"250012","country":"China","geoPoint":{"lat":36.66833,"lon":116.99722}},{"facility":"Jining No.1 people's Hospital","status":"RECRUITING","city":"Jining","state":"Shandong","zip":"272001","country":"China","geoPoint":{"lat":35.405,"lon":116.58139}},{"facility":"Affiliated Hospital of Jining Medical University","status":"RECRUITING","city":"Jining","state":"Shandong","zip":"272007","country":"China","geoPoint":{"lat":35.405,"lon":116.58139}},{"facility":"Liaocheng People's Hospital","status":"RECRUITING","city":"Liaocheng","state":"Shandong","zip":"252000","country":"China","geoPoint":{"lat":36.45596,"lon":115.97766}},{"facility":"Linyi People's Hospital","status":"RECRUITING","city":"Linyi","state":"Shandong","zip":"276003","country":"China","geoPoint":{"lat":35.06306,"lon":118.34278}},{"facility":"Taian City Central Hospital","status":"RECRUITING","city":"Taian","state":"Shandong","zip":"271099","country":"China","geoPoint":{"lat":36.18528,"lon":117.12}},{"facility":"Shaanxi Provincial People's Hospital","status":"RECRUITING","city":"Xi'an","state":"Shanxi","zip":"710068","country":"China","geoPoint":{"lat":34.25833,"lon":108.92861}},{"facility":"People's Hospital of Deyang City","status":"RECRUITING","city":"Deyang","state":"Sichuan","zip":"618000","country":"China","geoPoint":{"lat":31.13019,"lon":104.38198}},{"facility":"Sir Run Run Shaw Hospital, Zhejiang University School of Med","status":"NOT_YET_RECRUITING","city":"Hangzhou","state":"Zhejiang","zip":"310016","country":"China","geoPoint":{"lat":30.29365,"lon":120.16142}},{"facility":"Hwa Mei Hospital, University of Chinese Academy Sciences","status":"RECRUITING","city":"Ningbo","state":"Zhejiang","zip":"31510","country":"China","geoPoint":{"lat":29.87819,"lon":121.54945}},{"facility":"Taizhou Hospital of Zhejiang Province","status":"RECRUITING","city":"Taizhou","state":"Zhejiang","zip":"317099","country":"China","geoPoint":{"lat":32.49069,"lon":119.90812}},{"facility":"Xuanwu Hospital Capital Medical University","status":"RECRUITING","city":"Beijing","zip":"100053","country":"China","geoPoint":{"lat":39.9075,"lon":116.39723}},{"facility":"Beijing Tsinghua Changgung Hospital","status":"RECRUITING","city":"Beijing","zip":"102218","country":"China","geoPoint":{"lat":39.9075,"lon":116.39723}},{"facility":"Huashan Hospital, Fudan University","status":"RECRUITING","city":"Shanghai","zip":"200040","country":"China","geoPoint":{"lat":31.22222,"lon":121.45806}},{"facility":"Yangpu Hospital, Tongji University","status":"RECRUITING","city":"Shanghai","zip":"200090","country":"China","geoPoint":{"lat":31.22222,"lon":121.45806}},{"facility":"Tianjin People's Hospital","status":"WITHDRAWN","city":"Tianjin","zip":"300000","country":"China","geoPoint":{"lat":39.14222,"lon":117.17667}},{"facility":"Tianjin Huanhu Hospital","status":"NOT_YET_RECRUITING","city":"Tianjin","zip":"300350","country":"China","geoPoint":{"lat":39.14222,"lon":117.17667}},{"facility":"Servicios de Salud Universidad de Antioquia","status":"NOT_YET_RECRUITING","city":"Medellin","state":"Antioquia","zip":"050010","country":"Colombia","geoPoint":{"lat":6.25184,"lon":-75.56359}},{"facility":"Hospital General de Medellin","status":"NOT_YET_RECRUITING","city":"Medellin","state":"Antioquia","zip":"050015","country":"Colombia","geoPoint":{"lat":6.25184,"lon":-75.56359}},{"facility":"Promotora Médica Las Américas S.A.- Clinica Las Americas","status":"NOT_YET_RECRUITING","city":"Medellin","state":"Antioquia","zip":"050023","country":"Colombia","geoPoint":{"lat":6.25184,"lon":-75.56359}},{"facility":"Sociedad Médica Rionegro SOMER S.A.","status":"NOT_YET_RECRUITING","city":"Rionegro","state":"Antioquia","zip":"054040","country":"Colombia","geoPoint":{"lat":6.15515,"lon":-75.37371}},{"facility":"Clínica de la Costa SAS","status":"NOT_YET_RECRUITING","city":"Baranquilla","state":"Atlántico","zip":"080020","country":"Colombia"},{"facility":"Fundación Hospital Universidad del Norte","status":"RECRUITING","city":"Soledad","state":"Atlántico","country":"Colombia","geoPoint":{"lat":10.91843,"lon":-74.76459}},{"facility":"Clínica Universidad de la sabana","status":"NOT_YET_RECRUITING","city":"Chia","state":"Cundinamarca","zip":"250001","country":"Colombia","geoPoint":{"lat":4.85876,"lon":-74.05866}},{"facility":"Fundación Cardiomet CEQUIN Eje Cafetero","status":"NOT_YET_RECRUITING","city":"Armenia","state":"Quindío","zip":"630004","country":"Colombia","geoPoint":{"lat":4.53389,"lon":-75.68111}},{"facility":"IPS Centro Médico Imbanaco de Cali S.A.","status":"NOT_YET_RECRUITING","city":"Cali","state":"Valle Del Cauca","zip":"760042","country":"Colombia","geoPoint":{"lat":3.43722,"lon":-76.5225}},{"facility":"Fundación Valle de Lili","status":"NOT_YET_RECRUITING","city":"Cali","country":"Colombia","geoPoint":{"lat":3.43722,"lon":-76.5225}},{"facility":"Fundación Cardiovascular de Colombia","status":"NOT_YET_RECRUITING","city":"Floridablanca","country":"Colombia","geoPoint":{"lat":7.06222,"lon":-73.08644}},{"facility":"Hospital San Vicente Fundación","status":"NOT_YET_RECRUITING","city":"Medellin","zip":"050010","country":"Colombia","geoPoint":{"lat":6.25184,"lon":-75.56359}},{"facility":"Fundacion Cardiovascular Santa Maria","status":"NOT_YET_RECRUITING","city":"Medellin","zip":"050034","country":"Colombia","geoPoint":{"lat":6.25184,"lon":-75.56359}},{"facility":"Clínica Medellín","status":"NOT_YET_RECRUITING","city":"Medellín","country":"Colombia","geoPoint":{"lat":6.25184,"lon":-75.56359}},{"facility":"Fakultni nemocnice u sv. Anny - I.neurologicka klinika","status":"RECRUITING","city":"Brno","zip":"602 00","country":"Czechia","geoPoint":{"lat":49.19522,"lon":16.60796}},{"facility":"Nemocnice Ceske Budejovice, a.s. - Department of neurology","status":"RECRUITING","city":"Ceské Budejovice","zip":"370 01","country":"Czechia","geoPoint":{"lat":48.97447,"lon":14.47434}},{"facility":"Nemocnice Chomutov, o.z.","status":"RECRUITING","city":"Chomutov","zip":"430 12","country":"Czechia","geoPoint":{"lat":50.46048,"lon":13.41779}},{"facility":"Nemocnice Jihlava - Neurologicke oddeleni","status":"RECRUITING","city":"Jihlava","zip":"586 33","country":"Czechia","geoPoint":{"lat":49.3961,"lon":15.59124}},{"facility":"Karvinska hornicka nemocnice a.s. - Neurologicke oddeleni","status":"RECRUITING","city":"Karvina","zip":"735 06","country":"Czechia","geoPoint":{"lat":49.854,"lon":18.54169}},{"facility":"Krajska nemocnice Liberec - neurologicke oddeleni","status":"RECRUITING","city":"Liberec","zip":"460 63","country":"Czechia","geoPoint":{"lat":50.76711,"lon":15.05619}},{"facility":"Fakultni nemocnice Ostrava - Neurologicka klinika","status":"RECRUITING","city":"Ostrava - Poruba","zip":"708 52","country":"Czechia","geoPoint":{"lat":49.83465,"lon":18.28204}},{"facility":"Nemocnice AGEL Ostrava-Vítkovice - Neurologicke oddeleni","status":"RECRUITING","city":"Ostrava - Vitkovice","zip":"703 00","country":"Czechia","geoPoint":{"lat":49.83465,"lon":18.28204}},{"facility":"Nemocnice Pardubickeho Kraje, as - Neurologická klinika","status":"RECRUITING","city":"Pardubice","zip":"532 03","country":"Czechia","geoPoint":{"lat":50.04075,"lon":15.77659}},{"facility":"Fakultni Thomayerova Nemocnice - neurology department","status":"RECRUITING","city":"Praha 4","zip":"14059","country":"Czechia","geoPoint":{"lat":50.08804,"lon":14.42076}},{"facility":"Nemocnice na Homolce - Neurology Department","status":"RECRUITING","city":"Praha 5-Motol","zip":"150 00","country":"Czechia","geoPoint":{"lat":50.08804,"lon":14.42076}},{"facility":"Ustredni vojenska nemocnice Praha","status":"RECRUITING","city":"Praha 6","zip":"169 02","country":"Czechia","geoPoint":{"lat":50.08804,"lon":14.42076}},{"facility":"Fakultni nemocnice Kralovske Vinohrady - Neurologicka klinika","status":"RECRUITING","city":"Praha","zip":"100 34","country":"Czechia","geoPoint":{"lat":50.08804,"lon":14.42076}},{"facility":"Masaryk Hospital Usti n/L - neurology department","status":"RECRUITING","city":"Ústí nad Labem","zip":"401 13","country":"Czechia","geoPoint":{"lat":50.6607,"lon":14.03227}},{"facility":"Aalborg Universitetshospital -Neurology","status":"RECRUITING","city":"Aalborg","zip":"9000","country":"Denmark","geoPoint":{"lat":57.048,"lon":9.9187}},{"facility":"Aarhus Universitetshospital, Neurologisk Afdeling","status":"RECRUITING","city":"Aarhus N","zip":"8200","country":"Denmark","geoPoint":{"lat":56.15674,"lon":10.21076}},{"facility":"Glostrup RH, Neurologisk Afdeling","status":"RECRUITING","city":"Glostrup","zip":"2600","country":"Denmark","geoPoint":{"lat":55.6666,"lon":12.40377}},{"facility":"Herlev Hospital - Neurology Dept.","status":"RECRUITING","city":"Herlev","zip":"2730","country":"Denmark","geoPoint":{"lat":55.72366,"lon":12.43998}},{"facility":"Regionshospitalet Gødstrup, Neurologisk Afd.","status":"RECRUITING","city":"Herning","zip":"7400","country":"Denmark","geoPoint":{"lat":56.13932,"lon":8.97378}},{"facility":"Kolding Sygehus, Neurologisk Afdeling","status":"RECRUITING","city":"Kolding","zip":"6000","country":"Denmark","geoPoint":{"lat":55.4904,"lon":9.47216}},{"facility":"Bispebjerg Hospital, Neurologisk Afdeling","status":"RECRUITING","city":"København NV","zip":"2400","country":"Denmark","geoPoint":{"lat":55.67594,"lon":12.56553}},{"facility":"Odense Universitetshospital, Dept of Neurology","status":"RECRUITING","city":"Odense C","zip":"5000","country":"Denmark","geoPoint":{"lat":55.39594,"lon":10.38831}},{"facility":"HUS, Meilahden sairaala","status":"RECRUITING","city":"Helsinki","zip":"00029","country":"Finland","geoPoint":{"lat":60.16952,"lon":24.93545}},{"facility":"Pohjois-Karjalan sairaanhoitopiiri","status":"RECRUITING","city":"Joensuu","zip":"80210","country":"Finland","geoPoint":{"lat":62.60118,"lon":29.76316}},{"facility":"Kuopion yliopistollinen sairaala","status":"RECRUITING","city":"Kuopio","zip":"70210","country":"Finland","geoPoint":{"lat":62.89238,"lon":27.67703}},{"facility":"Tampereen yliopistollinen sairaala, keskussairaala","status":"RECRUITING","city":"Tampere","zip":"33520","country":"Finland","geoPoint":{"lat":61.49911,"lon":23.78712}},{"facility":"Turun yliopistollinen keskussairaala","status":"RECRUITING","city":"Turku","zip":"FIN-20520","country":"Finland","geoPoint":{"lat":60.45148,"lon":22.26869}},{"facility":"Hopital Jean Minjoz","status":"RECRUITING","city":"Besancon","zip":"25030","country":"France","geoPoint":{"lat":47.24878,"lon":6.01815}},{"facility":"Hôpital Pellegrin - Bordeaux","status":"RECRUITING","city":"Bordeaux","zip":"33000","country":"France","geoPoint":{"lat":44.84044,"lon":-0.5805}},{"facility":"CH Boulogne-Sur-Mer - Neurologie","status":"RECRUITING","city":"Boulogne-sur-mer","zip":"62321","country":"France","geoPoint":{"lat":50.71667,"lon":1.61667}},{"facility":"Hôpital La Cavale Blanche - CHU de Brest","status":"RECRUITING","city":"Brest Cedex","zip":"29609","country":"France","geoPoint":{"lat":48.3903,"lon":-4.48628}},{"facility":"CH Sud Francilien, Neurologie","status":"NOT_YET_RECRUITING","city":"Corbeil-essonnes","zip":"91100","country":"France","geoPoint":{"lat":48.60603,"lon":2.48757}},{"facility":"CHU Dijon, Neurologie","status":"RECRUITING","city":"DIJON Cedex","zip":"21079","country":"France","geoPoint":{"lat":47.31667,"lon":5.01667}},{"facility":"Raymond-Poincare neurologie, Garches","status":"RECRUITING","city":"Garches","zip":"92380","country":"France","geoPoint":{"lat":48.84226,"lon":2.18232}},{"facility":"Centre Hospitalier Universitaire - Le Kremlin Bicêtre","status":"RECRUITING","city":"Le Kremlin-bicetre","zip":"94275","country":"France","geoPoint":{"lat":48.81471,"lon":2.36073}},{"facility":"Centre Hospitalier - Le Mans","status":"RECRUITING","city":"Le Mans","zip":"72037","country":"France","geoPoint":{"lat":48.0,"lon":0.2}},{"facility":"Hôpital B - Lille","status":"RECRUITING","city":"Lille","zip":"59037","country":"France","geoPoint":{"lat":50.63297,"lon":3.05858}},{"facility":"Hopital Saint Philibert - Service de Neurologie","status":"RECRUITING","city":"LOMME cedex","zip":"59462","country":"France","geoPoint":{"lat":50.64358,"lon":2.98715}},{"facility":"Hôpital Wertheimer - Lyon","status":"RECRUITING","city":"Lyon","zip":"69003","country":"France","geoPoint":{"lat":45.74848,"lon":4.84669}},{"facility":"La Timone, Neurologie, MARSEILLE","status":"RECRUITING","city":"Marseille","zip":"13005","country":"France","geoPoint":{"lat":43.29551,"lon":5.38958}},{"facility":"Hopital Central - Nancy","status":"RECRUITING","city":"Nancy","zip":"54037","country":"France","geoPoint":{"lat":48.68439,"lon":6.18496}},{"facility":"Hôpital Guillaume et René Laennec - Nantes","status":"RECRUITING","city":"Nantes","zip":"44035","country":"France","geoPoint":{"lat":47.21725,"lon":-1.55336}},{"facility":"Hôpital Pasteur - Nice","status":"RECRUITING","city":"Nice","zip":"06200","country":"France","geoPoint":{"lat":43.70313,"lon":7.26608}},{"facility":"Hopital Carémeau - Nîmes","status":"RECRUITING","city":"Nîmes","zip":"30029","country":"France","geoPoint":{"lat":43.83333,"lon":4.35}},{"facility":"Centre hospitalier Sainte Anne","status":"RECRUITING","city":"Paris","zip":"75014","country":"France","geoPoint":{"lat":48.85341,"lon":2.3488}},{"facility":"Hoital Bichat, Service de Neurologie, Paris","status":"RECRUITING","city":"Paris","zip":"75018","country":"France","geoPoint":{"lat":48.85341,"lon":2.3488}},{"facility":"Hôpital Rothschild - Paris","status":"RECRUITING","city":"Paris","zip":"75019","country":"France","geoPoint":{"lat":48.85341,"lon":2.3488}},{"facility":"Hôpital Lariboisière - Paris","status":"RECRUITING","city":"Paris","zip":"75475","country":"France","geoPoint":{"lat":48.85341,"lon":2.3488}},{"facility":"Hôpital de la Pitié-Salpétrière","status":"RECRUITING","city":"Paris","zip":"75634","country":"France","geoPoint":{"lat":48.85341,"lon":2.3488}},{"facility":"H Maison Blanche, Neurologie, REIMS","status":"RECRUITING","city":"Reims","zip":"51092","country":"France","geoPoint":{"lat":49.25,"lon":4.03333}},{"facility":"Hôpital Pontchaillou","status":"RECRUITING","city":"Rennes Cedex","zip":"35033","country":"France","geoPoint":{"lat":48.11198,"lon":-1.67429}},{"facility":"CHU STRASBOURG - Hôpital de Hautepierre","status":"RECRUITING","city":"Strasbourg","zip":"67091","country":"France","geoPoint":{"lat":48.58392,"lon":7.74553}},{"facility":"Hopital Foch, Neurologie, SURESNES","status":"RECRUITING","city":"SURESNES Cedex","zip":"92151","country":"France","geoPoint":{"lat":48.87143,"lon":2.22929}},{"facility":"Hopital des Armees Sainte-Anne, Neurologie, Toulon","status":"RECRUITING","city":"Toulon cedex 09","zip":"83800","country":"France","geoPoint":{"lat":43.12442,"lon":5.92836}},{"facility":"Hôpital Purpan - Toulouse","status":"RECRUITING","city":"Toulouse","zip":"31059","country":"France","geoPoint":{"lat":43.60426,"lon":1.44367}},{"facility":"H bretonneau, neurologie, Tours","status":"RECRUITING","city":"TOURS cedex 9","zip":"37044","country":"France","geoPoint":{"lat":47.38333,"lon":0.68333}},{"facility":"Universitätsklinikum Freiburg / Neurologie","status":"NOT_YET_RECRUITING","city":"Freiburg","state":"Baden-Württemberg","zip":"79106","country":"Germany","geoPoint":{"lat":47.9959,"lon":7.85222}},{"facility":"Universitaetsklinikum Heidelberg / Neurologie","status":"RECRUITING","city":"Heidelberg","state":"Baden-Württemberg","zip":"60120","country":"Germany","geoPoint":{"lat":49.40768,"lon":8.69079}},{"facility":"Universitätsklinikum Mannheim / Neurologie","status":"NOT_YET_RECRUITING","city":"Mannheim","state":"Baden-Württemberg","zip":"68167","country":"Germany","geoPoint":{"lat":49.4891,"lon":8.46694}},{"facility":"Universitätsklinikum Ulm/Neurologische Klinik","status":"NOT_YET_RECRUITING","city":"Ulm","state":"Baden-Württemberg","zip":"89081","country":"Germany","geoPoint":{"lat":48.39841,"lon":9.99155}},{"facility":"Rhön-Klinikum Campus Bad Neustadt/Neurologie","status":"NOT_YET_RECRUITING","city":"Bad Neustadt","state":"Bayern","zip":"97616","country":"Germany"},{"facility":"Universitätsklinikum Erlangen/Neurologie","status":"RECRUITING","city":"Erlangen","state":"Bayern","zip":"91054","country":"Germany","geoPoint":{"lat":49.59099,"lon":11.00783}},{"facility":"Universitätsklinikum Frankfurt / Neurologie","status":"RECRUITING","city":"Frankfurt","state":"Hessen","zip":"60590","country":"Germany","geoPoint":{"lat":50.11552,"lon":8.68417}},{"facility":"Universität Gießen-Marburg, Standort Gießen/Neurologie","status":"RECRUITING","city":"Gießen","state":"Hessen","zip":"35385","country":"Germany","geoPoint":{"lat":50.58727,"lon":8.67554}},{"facility":"Universitätsmedizin Greifswald/Neurologie","status":"RECRUITING","city":"Greifswald","state":"Mecklenburg-Vorpommern","zip":"17475","country":"Germany","geoPoint":{"lat":54.09311,"lon":13.38786}},{"facility":"Medizinische Hochschule Hannover/Neurologie","status":"RECRUITING","city":"Hannover","state":"Niedersachsen","zip":"30625","country":"Germany","geoPoint":{"lat":52.37052,"lon":9.73322}},{"facility":"UniKlinikum Aachen/Neurologie","status":"WITHDRAWN","city":"Aachen","state":"Nordrhein-Westfalen","zip":"52074","country":"Germany","geoPoint":{"lat":50.77664,"lon":6.08342}},{"facility":"Uniklinik Bonn / Neurologie","status":"RECRUITING","city":"Bonn","state":"Nordrhein-Westfalen","zip":"53127","country":"Germany","geoPoint":{"lat":50.73438,"lon":7.09549}},{"facility":"Universitätsklinikum Düsseldorf / Neurologie","status":"NOT_YET_RECRUITING","city":"Düsseldorf","state":"Nordrhein-Westfalen","zip":"40225","country":"Germany","geoPoint":{"lat":51.22172,"lon":6.77616}},{"facility":"Marien Hospital Düsseldorf / Neurologie","status":"WITHDRAWN","city":"Düsseldorf","state":"Nordrhein-Westfalen","zip":"40479","country":"Germany","geoPoint":{"lat":51.22172,"lon":6.77616}},{"facility":"Alfried Krupp Krankenhaus Rüttenscheid /Neurologie","status":"RECRUITING","city":"Essen","state":"Nordrhein-Westfalen","zip":"45131","country":"Germany","geoPoint":{"lat":51.45657,"lon":7.01228}},{"facility":"Kreisklinikum Siegen / Neurologie","status":"NOT_YET_RECRUITING","city":"Siegen","state":"Nordrhein-Westfalen","zip":"57076","country":"Germany","geoPoint":{"lat":50.87481,"lon":8.02431}},{"facility":"GFO KlinikTroisdorf/Neurologie","status":"RECRUITING","city":"Troisdorf","state":"Nordrhein-Westfalen","zip":"53844","country":"Germany","geoPoint":{"lat":50.80901,"lon":7.14968}},{"facility":"Johannes-Gutenberg-Universitaet Mainz|Neurologie","status":"RECRUITING","city":"Mainz","state":"Rheinland-Pfalz","zip":"55131","country":"Germany","geoPoint":{"lat":49.98419,"lon":8.2791}},{"facility":"Universitätsklinikum Halle (Saale)/Neurologie","status":"NOT_YET_RECRUITING","city":"Halle","state":"Sachsen-Anhalt","zip":"06120","country":"Germany","geoPoint":{"lat":51.48159,"lon":11.97948}},{"facility":"Städtisches Klinikum Dresden / Neurologie","status":"RECRUITING","city":"Dresden","state":"Sachsen","zip":"01067","country":"Germany","geoPoint":{"lat":51.05089,"lon":13.73832}},{"facility":"Universitätsklinikum Dresden/Neurologie","status":"NOT_YET_RECRUITING","city":"Dresden","state":"Sachsen","zip":"01307","country":"Germany","geoPoint":{"lat":51.05089,"lon":13.73832}},{"facility":"Universitätsklinik Leipzig /Neurologie","status":"RECRUITING","city":"Leipzig","state":"Sachsen","zip":"04103","country":"Germany","geoPoint":{"lat":51.33962,"lon":12.37129}},{"facility":"Klinikum Altenburger Land / Studienzentrum Neurologie","status":"RECRUITING","city":"Altenburg","state":"Thüringen","zip":"04600","country":"Germany","geoPoint":{"lat":50.98763,"lon":12.43684}},{"facility":"Uniklinik Jena/ Neurologie","status":"RECRUITING","city":"Jena","state":"Thüringen","zip":"7747","country":"Germany","geoPoint":{"lat":50.92878,"lon":11.5899}},{"facility":"Vivantes Klinikum Neukölln / Neurologie mit Stroke Unit","status":"RECRUITING","city":"Berlin","zip":"12351","country":"Germany","geoPoint":{"lat":52.52437,"lon":13.41053}},{"facility":"Asklepios Klinik Wandsbek/Neurologie","status":"RECRUITING","city":"Hamburg","zip":"22043","country":"Germany","geoPoint":{"lat":53.57532,"lon":10.01534}},{"facility":"Asklepios Klinik Barmbek/ Neurologie","status":"RECRUITING","city":"Hamburg","zip":"22307","country":"Germany","geoPoint":{"lat":53.57532,"lon":10.01534}},{"facility":"University General Hospital of Alexandroupolis","status":"RECRUITING","city":"Alexandroupoli","zip":"68100","country":"Greece","geoPoint":{"lat":40.84995,"lon":25.87644}},{"facility":"General Hospital of Athens \"Evangelismos\"","status":"RECRUITING","city":"Athens","zip":"10676","country":"Greece","geoPoint":{"lat":37.97945,"lon":23.71622}},{"facility":"General Hosp of Athens \"Korgialenio-Benakeio\" RCH","status":"RECRUITING","city":"Athens","zip":"115 26","country":"Greece","geoPoint":{"lat":37.97945,"lon":23.71622}},{"facility":"Athens Naval Hospital","status":"RECRUITING","city":"Athens","zip":"11521","country":"Greece","geoPoint":{"lat":37.97945,"lon":23.71622}},{"facility":"401 General Military Hospital of Athens","status":"RECRUITING","city":"Athens","zip":"11525","country":"Greece","geoPoint":{"lat":37.97945,"lon":23.71622}},{"facility":"G. GENNIMATAS General State Hospital of Athens","status":"RECRUITING","city":"Athens","zip":"11527","country":"Greece","geoPoint":{"lat":37.97945,"lon":23.71622}},{"facility":"AIGINITEION Hospital","status":"RECRUITING","city":"Athens","zip":"11528","country":"Greece","geoPoint":{"lat":37.97945,"lon":23.71622}},{"facility":"University General Hospital ATTIKON","status":"RECRUITING","city":"Chaidari","zip":"12462","country":"Greece","geoPoint":{"lat":38.01135,"lon":23.66597}},{"facility":"University General Hospital of Heraklion","status":"RECRUITING","city":"Heraklion","zip":"711 10","country":"Greece","geoPoint":{"lat":35.32787,"lon":25.14341}},{"facility":"Ioannina University General Hospital","status":"RECRUITING","city":"Ioannina","zip":"45500","country":"Greece","geoPoint":{"lat":39.66486,"lon":20.85189}},{"facility":"University General Hospital of Larissa","status":"RECRUITING","city":"Larissa","zip":"41110","country":"Greece","geoPoint":{"lat":39.63689,"lon":22.41761}},{"facility":"Metropolitan Hospital","status":"RECRUITING","city":"Neo Faliro Piraeus","zip":"18547","country":"Greece"},{"facility":"University General Hospital of Patra","status":"RECRUITING","city":"Patra","zip":"26504","country":"Greece","geoPoint":{"lat":38.24444,"lon":21.73444}},{"facility":"PAPANIKOLAOU General Hospital Thessaloniki","status":"RECRUITING","city":"Pilea Chortiatis Thessaloniki","zip":"57010","country":"Greece"},{"facility":"AHEPA University General Hospital of Thessaloniki","status":"RECRUITING","city":"Thessaloniki","zip":"546 36","country":"Greece","geoPoint":{"lat":40.64361,"lon":22.93086}},{"facility":"General Hospital of Thessaloniki Papageorgiou","status":"RECRUITING","city":"Thessaloniki","zip":"56403","country":"Greece","geoPoint":{"lat":40.64361,"lon":22.93086}},{"facility":"Bajai Szent Rokus Korhaz","status":"RECRUITING","city":"Baja","zip":"6500","country":"Hungary","geoPoint":{"lat":46.17496,"lon":18.95639}},{"facility":"University of Semmelweis/ Semmelweis Egyetem","status":"RECRUITING","city":"Budapest","zip":"1083","country":"Hungary","geoPoint":{"lat":47.49801,"lon":19.03991}},{"facility":"Eszak-Pesti Centrumkorhaz-Honvedkorhaz","status":"RECRUITING","city":"Budapest","zip":"1134","country":"Hungary","geoPoint":{"lat":47.49801,"lon":19.03991}},{"facility":"Budapesti Jahn Ferenc Del-pesti Korhaz es Rendelointezet","status":"RECRUITING","city":"Budapest","zip":"1204","country":"Hungary","geoPoint":{"lat":47.49801,"lon":19.03991}},{"facility":"Debreceni Egyetem Klinikai Kozpont","status":"RECRUITING","city":"Debrecen","zip":"4032","country":"Hungary","geoPoint":{"lat":47.53333,"lon":21.63333}},{"facility":"Petz Aladar Egyetemi Oktato Korhaz","status":"RECRUITING","city":"Gyor","zip":"9024","country":"Hungary","geoPoint":{"lat":47.68333,"lon":17.63512}},{"facility":"Flor Ferenc Korhaz","status":"RECRUITING","city":"Kistarcsa","zip":"2143","country":"Hungary","geoPoint":{"lat":47.54757,"lon":19.26247}},{"facility":"Szent Damjan Gorogkatolikus Korhaz","status":"RECRUITING","city":"Kisvarda","zip":"4600","country":"Hungary","geoPoint":{"lat":48.21667,"lon":22.08333}},{"facility":"Kanizsai Dorottya Hospital","status":"RECRUITING","city":"Nagykanizsa","zip":"8800","country":"Hungary","geoPoint":{"lat":46.45347,"lon":16.99104}},{"facility":"SzSzBMK es EOK Josa Andras Oktatokorhaz","status":"RECRUITING","city":"Nyiregyhaza","zip":"4400","country":"Hungary","geoPoint":{"lat":47.95539,"lon":21.71671}},{"facility":"Pecsi Tudomanyegyetem Klinikai Kozpont","status":"RECRUITING","city":"Pecs","zip":"7623","country":"Hungary","geoPoint":{"lat":46.08333,"lon":18.23333}},{"facility":"Soproni Erzsebet Oktato Korhaz es Rehabilitacios Intezet","status":"RECRUITING","city":"Sopron","zip":"9400","country":"Hungary","geoPoint":{"lat":47.68501,"lon":16.59049}},{"facility":"SZTE ÁOK Szent Györgyi Albert Klinikai Kozpont","status":"WITHDRAWN","city":"Szeged","zip":"6725","country":"Hungary","geoPoint":{"lat":46.253,"lon":20.14824}},{"facility":"Zala Varmegyei Szent Rafael Korhaz","status":"NOT_YET_RECRUITING","city":"Zalaegerszeg","zip":"8900","country":"Hungary","geoPoint":{"lat":46.84,"lon":16.84389}},{"facility":"Zydus Hospital","status":"NOT_YET_RECRUITING","city":"Ahmedabad","zip":"380054","country":"India","geoPoint":{"lat":23.02579,"lon":72.58727}},{"facility":"National Institute of Mental Health and Neurosciences (NIMHANS)","status":"NOT_YET_RECRUITING","city":"Bangalore","zip":"560029","country":"India","geoPoint":{"lat":12.97194,"lon":77.59369}},{"facility":"Post Graduate Institute of Medical Education and Research","status":"NOT_YET_RECRUITING","city":"Chandigarh","zip":"160012","country":"India","geoPoint":{"lat":30.73629,"lon":76.7884}},{"facility":"K.G. Hospital","status":"NOT_YET_RECRUITING","city":"Coimbatore","zip":"641018","country":"India","geoPoint":{"lat":11.00555,"lon":76.96612}},{"facility":"Artemis Hospitals","status":"NOT_YET_RECRUITING","city":"Gurgaon","zip":"122001","country":"India","geoPoint":{"lat":28.4601,"lon":77.02635}},{"facility":"Guwahati Neurological Research Centre","status":"NOT_YET_RECRUITING","city":"Guwahati","zip":"781006","country":"India","geoPoint":{"lat":26.1844,"lon":91.7458}},{"facility":"Omega Hospitals, Hyderabad","status":"NOT_YET_RECRUITING","city":"Hyderabad","zip":"500032","country":"India","geoPoint":{"lat":17.38405,"lon":78.45636}},{"facility":"Yashoda Hospital","status":"NOT_YET_RECRUITING","city":"Hyderabad","zip":"500082","country":"India","geoPoint":{"lat":17.38405,"lon":78.45636}},{"facility":"Sawami Man Singh (SMS) Medical College & Attached Hospitals","status":"NOT_YET_RECRUITING","city":"Jaipur","zip":"302017","country":"India","geoPoint":{"lat":26.91962,"lon":75.78781}},{"facility":"Shree Krishna Hospital","status":"NOT_YET_RECRUITING","city":"Karamsad","zip":"388325","country":"India","geoPoint":{"lat":22.54243,"lon":72.90392}},{"facility":"Bangur Institute of Neurology","status":"NOT_YET_RECRUITING","city":"Kolkata","zip":"700025","country":"India","geoPoint":{"lat":22.56263,"lon":88.36304}},{"facility":"Christian Medical College & Hospital (CMCH) - Ludhiana","status":"NOT_YET_RECRUITING","city":"Ludhiana","zip":"141008","country":"India","geoPoint":{"lat":30.91204,"lon":75.85379}},{"facility":"Ganga CARE Hospital Ltd.","status":"NOT_YET_RECRUITING","city":"Nagpur","zip":"440012","country":"India","geoPoint":{"lat":21.14631,"lon":79.08491}},{"facility":"All India Institute of Medical Sciences (AIIMS) - New Delhi","status":"NOT_YET_RECRUITING","city":"New Delhi","zip":"110 029","country":"India","geoPoint":{"lat":28.63576,"lon":77.22445}},{"facility":"Bharti Hospital","status":"NOT_YET_RECRUITING","city":"Pune","zip":"411043","country":"India","geoPoint":{"lat":18.51957,"lon":73.85535}},{"facility":"Sree Chitra Tirunal Institute for Medical Sciences and Technology","status":"NOT_YET_RECRUITING","city":"Thiruvananthapuram","zip":"695011","country":"India","geoPoint":{"lat":8.4855,"lon":76.94924}},{"facility":"Christian Medical College & Hospital (CMCH) - Vellore","status":"NOT_YET_RECRUITING","city":"Vellore","zip":"632004","country":"India","geoPoint":{"lat":12.9184,"lon":79.13255}},{"facility":"Assuta Ashdod","status":"RECRUITING","city":"Ashdod","zip":"7747629","country":"Israel","geoPoint":{"lat":31.79211,"lon":34.64967}},{"facility":"Barzilai Medical Center | Neurology Department","status":"RECRUITING","city":"Ashkelon","zip":"7830604","country":"Israel","geoPoint":{"lat":31.66926,"lon":34.57149}},{"facility":"Soroka University Medical Center","status":"RECRUITING","city":"Beer Sheva","zip":"8410101","country":"Israel","geoPoint":{"lat":31.25181,"lon":34.7913}},{"facility":"Hillel Yaffe Medical Center","status":"RECRUITING","city":"Hadera","zip":"3810101","country":"Israel","geoPoint":{"lat":32.44192,"lon":34.9039}},{"facility":"Rambam Health Corporation","status":"RECRUITING","city":"Haifa","zip":"3109601","country":"Israel","geoPoint":{"lat":32.81841,"lon":34.9885}},{"facility":"Lady Davis Carmel Medical Center","status":"NOT_YET_RECRUITING","city":"Haifa","zip":"3436212","country":"Israel","geoPoint":{"lat":32.81841,"lon":34.9885}},{"facility":"Edith Wolfson Medical Center","status":"RECRUITING","city":"Holon","zip":"5822012","country":"Israel","geoPoint":{"lat":32.01034,"lon":34.77918}},{"facility":"Shaare Zedek Medical Center","status":"RECRUITING","city":"Jerusalem","zip":"9103102","country":"Israel","geoPoint":{"lat":31.76904,"lon":35.21633}},{"facility":"Hadassah Hebrew University Hospital Ein Kerem","status":"RECRUITING","city":"Jerusalem","country":"Israel","geoPoint":{"lat":31.76904,"lon":35.21633}},{"facility":"Meir Medical Center","status":"NOT_YET_RECRUITING","city":"Kfar Saba","zip":"4428164","country":"Israel","geoPoint":{"lat":32.175,"lon":34.90694}},{"facility":"Clalit Health Services Rabin Medical Center-Beilinson Campus","status":"RECRUITING","city":"Petach Tikva","zip":"4941492","country":"Israel","geoPoint":{"lat":32.08707,"lon":34.88747}},{"facility":"Tel-Aviv Sourasky Medical Center","status":"RECRUITING","city":"Tel Aviv","zip":"6423906","country":"Israel","geoPoint":{"lat":32.08088,"lon":34.78057}},{"facility":"Chaim Sheba Medical Center","status":"RECRUITING","city":"Tel Hashomer","zip":"52621","country":"Israel","geoPoint":{"lat":32.04195,"lon":34.85623}},{"facility":"Health Corporation of the Ziv Medical Center (R.A.)","status":"RECRUITING","city":"Zefat","zip":"1311001","country":"Israel","geoPoint":{"lat":32.96465,"lon":35.496}},{"facility":"Shamir Medical Center (Assaf Harofeh)","status":"RECRUITING","city":"Zerifin","zip":"7030000","country":"Israel","geoPoint":{"lat":31.95857,"lon":4.83723}},{"facility":"ASL1 Avezzano-Sulmona-L'Aquila - Abruzzo","status":"RECRUITING","city":"L'Aquila","state":"Abruzzo","zip":"67059","country":"Italy","geoPoint":{"lat":42.35055,"lon":13.39954}},{"facility":"A.O.U. San Giovanni di Dio Ruggi d'Aragona","status":"RECRUITING","city":"Salerno","state":"Campania","zip":"84131","country":"Italy","geoPoint":{"lat":40.67545,"lon":14.79328}},{"facility":"AUSL di Bologna","status":"RECRUITING","city":"Bologna","state":"Emilia-Romagna","zip":"40133","country":"Italy","geoPoint":{"lat":44.49381,"lon":11.33875}},{"facility":"AUSL della Romagna","status":"RECRUITING","city":"Forlì Cesena","state":"Emilia-Romagna","zip":"47521","country":"Italy"},{"facility":"Fondazione PTV Policlinico Tor Vergata","status":"RECRUITING","city":"Roma","state":"Lazio","zip":"00133","country":"Italy","geoPoint":{"lat":41.89193,"lon":12.51133}},{"facility":"Fondazione Policlinico Universitario Agostino Gemelli IRCCS","status":"RECRUITING","city":"Roma","state":"Lazio","zip":"00168","country":"Italy","geoPoint":{"lat":41.89193,"lon":12.51133}},{"facility":"ASL 2 Savonese","status":"RECRUITING","city":"Savona","state":"Liguria","zip":"17100","country":"Italy","geoPoint":{"lat":44.30905,"lon":8.47715}},{"facility":"ASST Papa Giovanni XXIII","status":"RECRUITING","city":"Bergamo","state":"Lombardia","zip":"24127","country":"Italy","geoPoint":{"lat":45.69601,"lon":9.66721}},{"facility":"Ospedale San Raffaele s.r.l.","status":"RECRUITING","city":"Milano","state":"Lombardia","zip":"20132","country":"Italy","geoPoint":{"lat":45.46427,"lon":9.18951}},{"facility":"ASL Lecce","status":"RECRUITING","city":"Lecce","state":"Puglia","zip":"73100","country":"Italy","geoPoint":{"lat":40.35481,"lon":18.17244}},{"facility":"A.O.U. Policlinico G. Martino","status":"RECRUITING","city":"Messina","state":"Sicilia","zip":"98124","country":"Italy","geoPoint":{"lat":38.19394,"lon":15.55256}},{"facility":"A.O. Ospedali Riuniti Villa Sofia-Cervello","status":"RECRUITING","city":"Palermo","state":"Sicilia","zip":"90146","country":"Italy","geoPoint":{"lat":38.13205,"lon":13.33561}},{"facility":"A.O.U. Careggi","status":"RECRUITING","city":"Firenze","state":"Toscana","zip":"50134","country":"Italy","geoPoint":{"lat":43.77925,"lon":11.24626}},{"facility":"A.O.U. Senese","status":"RECRUITING","city":"Siena","state":"Toscana","zip":"53100","country":"Italy","geoPoint":{"lat":43.31822,"lon":11.33064}},{"facility":"A.O. di Perugia","status":"RECRUITING","city":"Perugia","state":"Umbria","zip":"06129","country":"Italy","geoPoint":{"lat":43.1122,"lon":12.38878}},{"facility":"IRCCS Ospedale Sacro Cuore Don Calabria","status":"RECRUITING","city":"Verona","state":"Veneto","zip":"37024","country":"Italy","geoPoint":{"lat":45.4299,"lon":10.98444}},{"facility":"A.O.U.I. Verona","status":"RECRUITING","city":"Verona","state":"Veneto","zip":"37126","country":"Italy","geoPoint":{"lat":45.4299,"lon":10.98444}},{"facility":"ULSS 8 Berica","status":"NOT_YET_RECRUITING","city":"Vicenza","state":"Veneto","zip":"36100","country":"Italy","geoPoint":{"lat":45.54672,"lon":11.5475}},{"facility":"Nagoya Ekisaikai Hospital","status":"RECRUITING","city":"Nagoya","state":"Aichi","zip":"454-8502","country":"Japan","geoPoint":{"lat":35.18147,"lon":136.90641}},{"facility":"Chubu Rosai Hospital","status":"RECRUITING","city":"Nagoya","state":"Aichi","zip":"455-8530","country":"Japan","geoPoint":{"lat":35.18147,"lon":136.90641}},{"facility":"Tosei General Hospital","status":"RECRUITING","city":"Seto","state":"Aichi","zip":"489-8642","country":"Japan","geoPoint":{"lat":35.23333,"lon":137.1}},{"facility":"Fujita Health University Hospital","status":"RECRUITING","city":"Toyoake","state":"Aichi","zip":"470-1192","country":"Japan","geoPoint":{"lat":35.038,"lon":136.99931}},{"facility":"National Hospital Organization Toyohashi Medical Center","status":"RECRUITING","city":"Toyohashi","state":"Aichi","zip":"440-8510","country":"Japan","geoPoint":{"lat":34.76667,"lon":137.38333}},{"facility":"Kimitsu Chuo Hospital","status":"RECRUITING","city":"Kisarazu","state":"Chiba","zip":"292-8535","country":"Japan","geoPoint":{"lat":35.38329,"lon":139.93254}},{"facility":"Toho University Sakura Medical Center","status":"RECRUITING","city":"Sakura","state":"Chiba","zip":"285-8741","country":"Japan","geoPoint":{"lat":35.71667,"lon":140.23333}},{"facility":"Kokura Memorial Hospital","status":"RECRUITING","city":"Kitakyushu","state":"Fukuoka","zip":"802-8555","country":"Japan","geoPoint":{"lat":33.85181,"lon":130.85034}},{"facility":"Steel Memorial Yawata Hospital","status":"RECRUITING","city":"Kitakyushu","state":"Fukuoka","zip":"805-8508","country":"Japan","geoPoint":{"lat":33.85181,"lon":130.85034}},{"facility":"Southern Tohoku Medical Clinic","status":"RECRUITING","city":"Koriyama","state":"Fukushima","zip":"963-8563","country":"Japan","geoPoint":{"lat":37.4,"lon":140.38333}},{"facility":"Japanese Red Cross Takayama Hospital","status":"RECRUITING","city":"Takayama","state":"Gifu","zip":"506-8550","country":"Japan","geoPoint":{"lat":36.13333,"lon":137.25}},{"facility":"Maebashi Red Cross Hospital","status":"RECRUITING","city":"Maebashi","state":"Gunma","zip":"371-0811","country":"Japan","geoPoint":{"lat":36.4,"lon":139.08333}},{"facility":"Mazda Hospital of Mazda Motor Corporation","status":"RECRUITING","city":"Aki-gun","state":"Hiroshima","zip":"735-8585","country":"Japan","geoPoint":{"lat":33.5,"lon":133.9}},{"facility":"Hiroshima General Hospital","status":"RECRUITING","city":"Hatsukaichi","state":"Hiroshima","zip":"738-8503","country":"Japan","geoPoint":{"lat":34.35,"lon":132.33333}},{"facility":"Higashihiroshima Medical Center","status":"RECRUITING","city":"Higashihiroshima","state":"Hiroshima","zip":"739-0041","country":"Japan","geoPoint":{"lat":34.40861,"lon":132.73682}},{"facility":"Japanese Red Cross Asahikawa Hospital","status":"RECRUITING","city":"Asahikawa","state":"Hokkaido","zip":"070-8530","country":"Japan","geoPoint":{"lat":43.77063,"lon":142.36489}},{"facility":"Hakodate Shintoshi Hospital","status":"RECRUITING","city":"Hakodate","state":"Hokkaido","zip":"041-0802","country":"Japan","geoPoint":{"lat":41.77583,"lon":140.73667}},{"facility":"Teine Keijinkai Hospital","status":"RECRUITING","city":"Sapporo","state":"Hokkaido","zip":"006-8555","country":"Japan","geoPoint":{"lat":43.06667,"lon":141.35}},{"facility":"Ohnishi Neurological Center","status":"RECRUITING","city":"Akashi","state":"Hyogo","zip":"674-0064","country":"Japan","geoPoint":{"lat":34.65522,"lon":135.00687}},{"facility":"Hyogo Prefectural Harima-Himeji General Medical Center","status":"RECRUITING","city":"Himeji","state":"Hyogo","zip":"670-8560","country":"Japan","geoPoint":{"lat":34.81667,"lon":134.7}},{"facility":"Eishokai Yoshida Hospital","status":"RECRUITING","city":"Kobe","state":"Hyogo","zip":"652-0803","country":"Japan","geoPoint":{"lat":34.6913,"lon":135.183}},{"facility":"JA Toride Medical Center","status":"RECRUITING","city":"Toride","state":"Ibaraki","zip":"302-0022","country":"Japan","geoPoint":{"lat":35.9,"lon":140.08333}},{"facility":"Tsuchiura Kyodo General Hospital","status":"RECRUITING","city":"Tsuchiura","state":"Ibaraki","zip":"300-0028","country":"Japan","geoPoint":{"lat":36.09047,"lon":140.21047}},{"facility":"Japan Organization of Occupational Health and Safety Kagawa Rosai Hospital","status":"RECRUITING","city":"Marugame","state":"Kagawa","zip":"763-8502","country":"Japan","geoPoint":{"lat":34.28333,"lon":133.78333}},{"facility":"Takamatsu Red Cross Hospital","status":"RECRUITING","city":"Takamatsu","state":"Kagawa","zip":"760-0017","country":"Japan","geoPoint":{"lat":34.33333,"lon":134.05}},{"facility":"Kagawa Prefectural Central Hospital","status":"RECRUITING","city":"Takamatsu","state":"Kagawa","zip":"760-8557","country":"Japan","geoPoint":{"lat":34.33333,"lon":134.05}},{"facility":"Seisho Hospital","status":"RECRUITING","city":"Odawara","state":"Kanagawa","zip":"250-0001","country":"Japan","geoPoint":{"lat":35.25556,"lon":139.15972}},{"facility":"Saiseikai Yokohamashi Nanbu Hospital","status":"RECRUITING","city":"Yokohama","state":"Kanagawa","zip":"234-0054","country":"Japan","geoPoint":{"lat":35.43333,"lon":139.65}},{"facility":"National Hospital Organization Yokohama Medical Center","status":"RECRUITING","city":"Yokohama","state":"Kanagawa","zip":"245-8575","country":"Japan","geoPoint":{"lat":35.43333,"lon":139.65}},{"facility":"Kohnan Hospital","status":"RECRUITING","city":"Sendai","state":"Miyagi","zip":"982-8523","country":"Japan","geoPoint":{"lat":38.26667,"lon":140.86667}},{"facility":"Hokushin General Hospital","status":"RECRUITING","city":"Nakano","state":"Nagano","zip":"383-8505","country":"Japan","geoPoint":{"lat":36.75,"lon":138.36667}},{"facility":"Japanese Red Cross Society Suwa Hospital","status":"RECRUITING","city":"Suwa","state":"Nagano","zip":"392-8510","country":"Japan","geoPoint":{"lat":36.03799,"lon":138.11308}},{"facility":"National Hospital Organization Beppu Medical Center","status":"RECRUITING","city":"Beppu","state":"Oita","zip":"874-0011","country":"Japan","geoPoint":{"lat":33.27945,"lon":131.49751}},{"facility":"Nozaki Tokushukai Hospital","status":"RECRUITING","city":"Daito","state":"Osaka","zip":"574-0074","country":"Japan"},{"facility":"Osaka Saiseikai Senri Hospital","status":"RECRUITING","city":"Suita","state":"Osaka","zip":"565-0862","country":"Japan","geoPoint":{"lat":34.76143,"lon":135.51567}},{"facility":"National Hospital Organization Ureshino Medical Center","status":"RECRUITING","city":"Ureshino","state":"Saga","zip":"843-0393","country":"Japan"},{"facility":"National Hospital Organization Saitama National Hospital","status":"WITHDRAWN","city":"Wako","state":"Saitama","zip":"351-0102","country":"Japan","geoPoint":{"lat":35.78944,"lon":139.62333}},{"facility":"Hamamatsu Rosai Hospital","status":"RECRUITING","city":"Hamamatsu","state":"Shizuoka","zip":"430-8525","country":"Japan","geoPoint":{"lat":34.7,"lon":137.73333}},{"facility":"Seirei Hamamatsu General Hospital","status":"WITHDRAWN","city":"Hamamatsu","state":"Shizuoka","zip":"430-8558","country":"Japan","geoPoint":{"lat":34.7,"lon":137.73333}},{"facility":"National Hospital Organization Tokyo Medical Center","status":"RECRUITING","city":"Meguro-ku","state":"Tokyo","zip":"152-8902","country":"Japan","geoPoint":{"lat":42.12755,"lon":143.31736}},{"facility":"Mishuku Hospital","status":"RECRUITING","city":"Meguro-ku","state":"Tokyo","zip":"153-0051","country":"Japan","geoPoint":{"lat":42.12755,"lon":143.31736}},{"facility":"Kyorin University Hospital","status":"RECRUITING","city":"Mitaka","state":"Tokyo","zip":"181-8611","country":"Japan","geoPoint":{"lat":35.68351,"lon":139.55963}},{"facility":"Tokyo Metropolitan Bokutoh Hospital","status":"RECRUITING","city":"Sumida-ku","state":"Tokyo","zip":"130-8575","country":"Japan"},{"facility":"National Hospital Organization Disaster Medical Center","status":"RECRUITING","city":"Tachikawa","state":"Tokyo","zip":"190-0014","country":"Japan"},{"facility":"Minamiwakayama Medical Center","status":"RECRUITING","city":"Tanabe","state":"Wakayama","zip":"646-8558","country":"Japan","geoPoint":{"lat":33.73333,"lon":135.36667}},{"facility":"JCHO Shimonoseki Medical Center","status":"RECRUITING","city":"Shimonoseki","state":"Yamaguchi","zip":"750-0061","country":"Japan","geoPoint":{"lat":33.95001,"lon":130.94999}},{"facility":"Yamanashi Prefectural Central Hospital","status":"RECRUITING","city":"Kofu","state":"Yamanashi","zip":"400-8506","country":"Japan","geoPoint":{"lat":35.66669,"lon":138.56668}},{"facility":"Saiseikai Fukuoka General Hospital","status":"RECRUITING","city":"Fukuoka","zip":"810-0001","country":"Japan","geoPoint":{"lat":33.6,"lon":130.41667}},{"facility":"National Hospital Organization Kyushu Medical Center","status":"RECRUITING","city":"Fukuoka","zip":"810-8563","country":"Japan","geoPoint":{"lat":33.6,"lon":130.41667}},{"facility":"Social Medical Corporation the Chiyukai foundation Fukuoka Wajiro Hospital","status":"RECRUITING","city":"Fukuoka","zip":"811-0213","country":"Japan","geoPoint":{"lat":33.6,"lon":130.41667}},{"facility":"Fukuoka Neurosurgical Hospital","status":"RECRUITING","city":"Fukuoka","zip":"811-1313","country":"Japan","geoPoint":{"lat":33.6,"lon":130.41667}},{"facility":"Kyushu Central Hospital","status":"RECRUITING","city":"Fukuoka","zip":"815-8588","country":"Japan","geoPoint":{"lat":33.6,"lon":130.41667}},{"facility":"Hiroshima City North Medical Center Asa Citizens Hospital","status":"RECRUITING","city":"Hiroshima","zip":"731-0293","country":"Japan","geoPoint":{"lat":34.4,"lon":132.45}},{"facility":"Atsuchi Neurosurgery Hospital","status":"NOT_YET_RECRUITING","city":"Kagoshima","zip":"892-0842","country":"Japan","geoPoint":{"lat":31.56667,"lon":130.55}},{"facility":"Japanese Red Cross Kochi Hospital","status":"RECRUITING","city":"Kochi","zip":"780-8562","country":"Japan","geoPoint":{"lat":33.55,"lon":133.53333}},{"facility":"Kumamoto City Hospital","status":"RECRUITING","city":"Kumamoto","zip":"862-8505","country":"Japan","geoPoint":{"lat":32.80589,"lon":130.69182}},{"facility":"Koseikai Takeda Hospital","status":"RECRUITING","city":"Kyoto","zip":"600-8558","country":"Japan","geoPoint":{"lat":35.02107,"lon":135.75385}},{"facility":"Ijinkai Takeda General Hospital","status":"RECRUITING","city":"Kyoto","zip":"601-1495","country":"Japan","geoPoint":{"lat":35.02107,"lon":135.75385}},{"facility":"Nagano Municipal Hospital","status":"RECRUITING","city":"Nagano","zip":"381-8551","country":"Japan","geoPoint":{"lat":36.65,"lon":138.18333}},{"facility":"Oita Prefectural Hospital","status":"WITHDRAWN","city":"Oita","zip":"870-8511","country":"Japan","geoPoint":{"lat":33.23333,"lon":131.6}},{"facility":"Okayama City General Medical Center Okayama City Hospital","status":"RECRUITING","city":"Okayama","zip":"700-8557","country":"Japan","geoPoint":{"lat":34.65,"lon":133.93333}},{"facility":"National Hospital Organization Osaka National Hospital","status":"RECRUITING","city":"Osaka","zip":"540-0006","country":"Japan","geoPoint":{"lat":34.69374,"lon":135.50218}},{"facility":"Osaka General Medical Center","status":"RECRUITING","city":"Osaka","zip":"558-8558","country":"Japan","geoPoint":{"lat":34.69374,"lon":135.50218}},{"facility":"Shizuoka City Shizuoka Hospital","status":"RECRUITING","city":"Shizuoka","zip":"420-8630","country":"Japan","geoPoint":{"lat":34.98333,"lon":138.38333}},{"facility":"Shizuoka City Shimizu Hospital","status":"RECRUITING","city":"Shizuoka","zip":"424-8636","country":"Japan","geoPoint":{"lat":34.98333,"lon":138.38333}},{"facility":"Wakayama Medical University Hospital","status":"RECRUITING","city":"Wakayama","zip":"641-8510","country":"Japan","geoPoint":{"lat":34.23333,"lon":135.16667}},{"facility":"Emergency Care Hospital of Aktobe City - Stroke Unit","status":"NOT_YET_RECRUITING","city":"Aktobe","zip":"030020","country":"Kazakhstan","geoPoint":{"lat":50.27969,"lon":57.20718}},{"facility":"City Clinical Hospital No7 - Stroke Unit","status":"NOT_YET_RECRUITING","city":"Almaty","zip":"50006","country":"Kazakhstan","geoPoint":{"lat":43.25667,"lon":76.92861}},{"facility":"Turkestan Regional Clinical Hospital - Stroke Unit","status":"WITHDRAWN","city":"Shymkent","zip":"160011","country":"Kazakhstan","geoPoint":{"lat":42.3,"lon":69.6}},{"facility":"Chungbuk National University Hospital","status":"RECRUITING","city":"Cheongju-Si","state":"Chungcheongbugdo","zip":"361-711","country":"Korea, Republic of","geoPoint":{"lat":36.63722,"lon":127.48972}},{"facility":"Kyungpook National University Hospital","status":"RECRUITING","city":"Daegu","state":"Daegu Gwang''yeogsi","zip":"41944","country":"Korea, Republic of","geoPoint":{"lat":35.87028,"lon":128.59111}},{"facility":"Hallym University Sacred Heart Hospital","status":"RECRUITING","city":"Anyang-si","state":"Gyeonggido","zip":"14068","country":"Korea, Republic of","geoPoint":{"lat":37.3925,"lon":126.92694}},{"facility":"Inje University Ilsan Paik Hospital","status":"RECRUITING","city":"Goyang-si","state":"Gyeonggido","zip":"411-706","country":"Korea, Republic of","geoPoint":{"lat":37.65639,"lon":126.835}},{"facility":"Seoul National University Bundang Hospital","status":"RECRUITING","city":"Seongnam-si","state":"Gyeonggido","zip":"13620","country":"Korea, Republic of","geoPoint":{"lat":37.43861,"lon":127.13778}},{"facility":"Seoul National University Hospital","status":"RECRUITING","city":"Seoul","state":"Seoul Teugbyeolsi","zip":"03080","country":"Korea, Republic of","geoPoint":{"lat":37.566,"lon":126.9784}},{"facility":"KyungHee University Hospital","status":"RECRUITING","city":"Seoul","state":"Seoul Teugbyeolsi","zip":"130-872","country":"Korea, Republic of","geoPoint":{"lat":37.566,"lon":126.9784}},{"facility":"Inje University Busan Paik Hospital","status":"RECRUITING","city":"Busan","zip":"47392","country":"Korea, Republic of","geoPoint":{"lat":35.10278,"lon":129.04028}},{"facility":"Dong-A University Hospital","status":"RECRUITING","city":"Busan","zip":"49201","country":"Korea, Republic of","geoPoint":{"lat":35.10278,"lon":129.04028}},{"facility":"Keimyung University Dongsan Medical Center","status":"RECRUITING","city":"Daegu","zip":"42601","country":"Korea, Republic of","geoPoint":{"lat":35.87028,"lon":128.59111}},{"facility":"Eulji University Hospital","status":"WITHDRAWN","city":"Daejeon","zip":"35233","country":"Korea, Republic of","geoPoint":{"lat":36.32139,"lon":127.41972}},{"facility":"Chonnam National University Hospital","status":"RECRUITING","city":"Gwangju","zip":"501-757","country":"Korea, Republic of","geoPoint":{"lat":35.15472,"lon":126.91556}},{"facility":"Inha University Hospital","status":"RECRUITING","city":"Incheon","country":"Korea, Republic of","geoPoint":{"lat":37.45646,"lon":126.70515}},{"facility":"Nowon Eulji Medical Center, Eulji University","status":"RECRUITING","city":"Seoul,","zip":"01830","country":"Korea, Republic of","geoPoint":{"lat":37.566,"lon":126.9784}},{"facility":"SoonChunHyang University Seoul Hospital","status":"RECRUITING","city":"Seoul","zip":"04401","country":"Korea, Republic of","geoPoint":{"lat":37.566,"lon":126.9784}},{"facility":"Asan Medical Center","status":"RECRUITING","city":"Seoul","zip":"05505","country":"Korea, Republic of","geoPoint":{"lat":37.566,"lon":126.9784}},{"facility":"Samsung Medical Center","status":"RECRUITING","city":"Seoul","zip":"06351","country":"Korea, Republic of","geoPoint":{"lat":37.566,"lon":126.9784}},{"facility":"Korea University Anam Hospital","status":"RECRUITING","city":"Seoul","zip":"136-705","country":"Korea, Republic of","geoPoint":{"lat":37.566,"lon":126.9784}},{"facility":"The Catholic University of Korea Seoul St. Mary's Hospital","status":"RECRUITING","city":"Seoul","zip":"137-701","country":"Korea, Republic of","geoPoint":{"lat":37.566,"lon":126.9784}},{"facility":"Korea University Guro Hospital","status":"RECRUITING","city":"Seoul","zip":"152-703","country":"Korea, Republic of","geoPoint":{"lat":37.566,"lon":126.9784}},{"facility":"Severance Hospital, Yonsei University Health System","status":"RECRUITING","city":"Seoul","zip":"3722","country":"Korea, Republic of","geoPoint":{"lat":37.566,"lon":126.9784}},{"facility":"Jekabpils Regional Hospital","status":"RECRUITING","city":"Jekabpils","zip":"LV-5201","country":"Latvia","geoPoint":{"lat":56.49903,"lon":25.85735}},{"facility":"Rezekne Hospital","status":"RECRUITING","city":"Rezekne","zip":"LV-4601","country":"Latvia","geoPoint":{"lat":56.51025,"lon":27.33994}},{"facility":"P. Stradins Clinical University Hospital","status":"RECRUITING","city":"Riga","zip":"LV-1002","country":"Latvia","geoPoint":{"lat":56.946,"lon":24.10589}},{"facility":"Riga East Clinical University Hospital \"Gailezers\"","status":"RECRUITING","city":"Riga","zip":"LV-1038","country":"Latvia","geoPoint":{"lat":56.946,"lon":24.10589}},{"facility":"Vidzemes Hospital","status":"NOT_YET_RECRUITING","city":"Valmiera","zip":"LV-4201","country":"Latvia","geoPoint":{"lat":57.54108,"lon":25.42751}},{"facility":"Alytus County S. Kudirka Hospital","status":"RECRUITING","city":"Alytus","zip":"LT-62114","country":"Lithuania","geoPoint":{"lat":54.39636,"lon":24.04143}},{"facility":"LUHS Kauno Hospital (Josvainiu str.)","status":"NOT_YET_RECRUITING","city":"Kaunas","zip":"LT-47144","country":"Lithuania","geoPoint":{"lat":54.90272,"lon":23.90961}},{"facility":"Hospital of LT University of Health Sciences Kaunas Clinics","status":"RECRUITING","city":"Kaunas","zip":"LT-50161","country":"Lithuania","geoPoint":{"lat":54.90272,"lon":23.90961}},{"facility":"Siauliai Republican hospital","status":"RECRUITING","city":"Siauliai","zip":"76231","country":"Lithuania","geoPoint":{"lat":55.93333,"lon":23.31667}},{"facility":"Republican Vilnius University Hospital","status":"RECRUITING","city":"Vilnius","zip":"LT-04130","country":"Lithuania","geoPoint":{"lat":54.68916,"lon":25.2798}},{"facility":"Vilnius University Hospital Santaros Klinikos","status":"RECRUITING","city":"Vilnius","zip":"LT-08661","country":"Lithuania","geoPoint":{"lat":54.68916,"lon":25.2798}},{"facility":"Hospital Raja Perempuan Zainab II","status":"RECRUITING","city":"Kelantan","zip":"15200","country":"Malaysia"},{"facility":"Hospital Universiti Sains Malaysia","status":"RECRUITING","city":"Kelantan","zip":"16150","country":"Malaysia"},{"facility":"Queen Elizabeth Hospital Malaysia","status":"RECRUITING","city":"Kota Kinabalu","zip":"88586","country":"Malaysia","geoPoint":{"lat":5.9749,"lon":116.0724}},{"facility":"Hospital Kuala Lumpur","status":"RECRUITING","city":"Kuala Lumpur","zip":"50586","country":"Malaysia","geoPoint":{"lat":3.1412,"lon":101.68653}},{"facility":"University Malaya Medical Centre","status":"RECRUITING","city":"Kuala Lumpur","zip":"59100","country":"Malaysia","geoPoint":{"lat":3.1412,"lon":101.68653}},{"facility":"Hospital Seberang Jaya","status":"RECRUITING","city":"Pulau Pinang","zip":"13700","country":"Malaysia","geoPoint":{"lat":3.55,"lon":102.56667}},{"facility":"Sarawak General Hospital","status":"RECRUITING","city":"Sarawak","zip":"93400","country":"Malaysia"},{"facility":"Hospital Pengajar Universiti Putra Malaysia","status":"RECRUITING","city":"Selangor","zip":"43400","country":"Malaysia"},{"facility":"Hospital Sultanah Nur Zahirah Medical Department","status":"RECRUITING","city":"Terengganu","zip":"20400","country":"Malaysia"},{"facility":"Catharina Hospital | Neurology Outpatient Clinic","status":"RECRUITING","city":"Eindhoven","state":"Noord-Brabant","zip":"5623 EJ","country":"Netherlands","geoPoint":{"lat":51.44083,"lon":5.47778}},{"facility":"OLVG | Location West - Neurology Department","status":"RECRUITING","city":"Amsterdam","zip":"1061 AE","country":"Netherlands","geoPoint":{"lat":52.37403,"lon":4.88969}},{"facility":"Academisch Medisch Centrum (AMC)","status":"RECRUITING","city":"Amsterdam","zip":"1105 AZ","country":"Netherlands","geoPoint":{"lat":52.37403,"lon":4.88969}},{"facility":"Jeroen Bosch Ziekenhuis","status":"RECRUITING","city":"Den Bosch","zip":"5223 GZ","country":"Netherlands","geoPoint":{"lat":51.27,"lon":5.59167}},{"facility":"HagaZiekenhuis | Department of Neurology","status":"RECRUITING","city":"Den Haag","zip":"2545 AA","country":"Netherlands","geoPoint":{"lat":52.07667,"lon":4.29861}},{"facility":"Medisch Spectrum Twente","status":"WITHDRAWN","city":"Enschede","zip":"7512 KZ","country":"Netherlands","geoPoint":{"lat":52.21833,"lon":6.89583}},{"facility":"Zuyderland Medisch Centrum","status":"RECRUITING","city":"Heerlen","zip":"6419 PC","country":"Netherlands","geoPoint":{"lat":50.88365,"lon":5.98154}},{"facility":"St. Antonius Hospital | Nieuwegein - Neurology Department - Stroke Unit","status":"RECRUITING","city":"Nieuwegein","zip":"3435 CM","country":"Netherlands","geoPoint":{"lat":52.02917,"lon":5.08056}},{"facility":"Maasstad Ziekenhuis | Neurology Department","status":"RECRUITING","city":"Rotterdam","zip":"3079DZ","country":"Netherlands","geoPoint":{"lat":51.9225,"lon":4.47917}},{"facility":"University Medical Center (UMC) Utrecht | Neurology and Neurosurgery Department","status":"RECRUITING","city":"Utrecht","zip":"3584 CX","country":"Netherlands","geoPoint":{"lat":52.09083,"lon":5.12222}},{"facility":"Isala Zwolle | Neurology Department","status":"RECRUITING","city":"Zwolle","zip":"8025 AB","country":"Netherlands","geoPoint":{"lat":52.5125,"lon":6.09444}},{"facility":"Haukeland Universitetssykehus Nevrologisk Avdeling","status":"RECRUITING","city":"Bergen","zip":"5021","country":"Norway","geoPoint":{"lat":60.39299,"lon":5.32415}},{"facility":"Östfold Hospital Trust Fredrikstad","status":"RECRUITING","city":"Fredrikstad","zip":"1603","country":"Norway","geoPoint":{"lat":59.2181,"lon":10.9298}},{"facility":"Sørlandet Sykehus Kristiansand Nevrologisk avdeling","status":"WITHDRAWN","city":"Kristiansand","zip":"4615","country":"Norway","geoPoint":{"lat":58.14671,"lon":7.9956}},{"facility":"Akershus Universitetssykehus - Nevrologisk Avdeling","status":"RECRUITING","city":"Lørenskog","zip":"1478","country":"Norway","geoPoint":{"lat":59.92625,"lon":10.95422}},{"facility":"Molde sykehus Nevrologisk avdeling","status":"RECRUITING","city":"Molde","zip":"6412","country":"Norway","geoPoint":{"lat":62.73752,"lon":7.15912}},{"facility":"OUS Ullevål Neurology Department","status":"RECRUITING","city":"Oslo","zip":"0450","country":"Norway","geoPoint":{"lat":59.91273,"lon":10.74609}},{"facility":"St. Olavs Hospital Neurology","status":"WITHDRAWN","city":"Trondheim","zip":"7030","country":"Norway","geoPoint":{"lat":63.43049,"lon":10.39506}},{"facility":"Ålesund sykehus Nevrologisk poliklinikk","status":"RECRUITING","city":"Ålesund","zip":"6017","country":"Norway","geoPoint":{"lat":62.47225,"lon":6.15492}},{"facility":"Uniwersytecki Szpital Kliniczny w Bialymstoku","status":"RECRUITING","city":"Bialystok","zip":"15-276","country":"Poland","geoPoint":{"lat":53.13333,"lon":23.16433}},{"facility":"Szpital Uniwersytecki Nr 2 im. J. Bizela","status":"RECRUITING","city":"Bydgoszcz","zip":"85-168","country":"Poland","geoPoint":{"lat":53.1235,"lon":18.00762}},{"facility":"Copernicus PL, M.Kopernik Hospital","status":"RECRUITING","city":"Gdansk","zip":"80-803","country":"Poland","geoPoint":{"lat":54.35205,"lon":18.64637}},{"facility":"Samodzielny Publiczny Specjalistyczny Szpital Zachodni","status":"RECRUITING","city":"Grodzisk Mazowiecki","zip":"05-825","country":"Poland","geoPoint":{"lat":52.10387,"lon":20.6337}},{"facility":"Gornoslaskie CM im. Prof. Leszka Gieca SUM w Katowicach","status":"RECRUITING","city":"Katowice","zip":"40-635","country":"Poland","geoPoint":{"lat":50.25841,"lon":19.02754}},{"facility":"Szpital Uniwersytecki w Krakowie","status":"RECRUITING","city":"Krakow","zip":"31-501","country":"Poland","geoPoint":{"lat":50.06143,"lon":19.93658}},{"facility":"Szpital Specjalistyczny im. Rydygiera","status":"RECRUITING","city":"Krakow","zip":"31-826","country":"Poland","geoPoint":{"lat":50.06143,"lon":19.93658}},{"facility":"Szpital im. N. Barlickiego","status":"WITHDRAWN","city":"Lodz","zip":"90-153","country":"Poland","geoPoint":{"lat":51.75,"lon":19.46667}},{"facility":"Wojew. Szpital Specjalistyczny im. M. Kopernika","status":"WITHDRAWN","city":"Lodz","zip":"93-513","country":"Poland","geoPoint":{"lat":51.75,"lon":19.46667}},{"facility":"Samodzielny Publiczny Szpital Kliniczny nr 4","status":"RECRUITING","city":"Lublin","zip":"20-954","country":"Poland","geoPoint":{"lat":51.25,"lon":22.56667}},{"facility":"Wojewodzki Szpital Specjalistyczny im. sw. Jadwigi w Opolu","status":"RECRUITING","city":"Opole","zip":"45-221","country":"Poland","geoPoint":{"lat":50.67211,"lon":17.92533}},{"facility":"SP Szpital Kliniczny nr 1 PUM im. Prof. T. Sokolowskiego","status":"RECRUITING","city":"Szczecin","zip":"71-252","country":"Poland","geoPoint":{"lat":53.42894,"lon":14.55302}},{"facility":"Szpital Wolski im. dr Anny Gostynskiej SPZOZ","status":"RECRUITING","city":"Warszawa","zip":"01-211","country":"Poland","geoPoint":{"lat":52.22977,"lon":21.01178}},{"facility":"Instytut Psychiatrii i Neurologii w Warszawie","status":"NOT_YET_RECRUITING","city":"Warszawa","zip":"02-957","country":"Poland","geoPoint":{"lat":52.22977,"lon":21.01178}},{"facility":"Wojskowy Instytut Medyczny","status":"RECRUITING","city":"Warszawa","zip":"04-141","country":"Poland","geoPoint":{"lat":52.22977,"lon":21.01178}},{"facility":"Hospital Professor Doutor Fernando Fonseca | Neurology Department","status":"RECRUITING","city":"Amadora","state":"Lisboa","zip":"2720-276","country":"Portugal","geoPoint":{"lat":38.75382,"lon":-9.23083}},{"facility":"Luz Saude | Hospital Beatriz Angelo - Centro de Investigacao Clinica","status":"WITHDRAWN","city":"Loures","state":"Lisboa","zip":"2674-514","country":"Portugal","geoPoint":{"lat":38.83091,"lon":-9.16845}},{"facility":"Hospital de Vila Franca de Xira | Centro de Desenvolvimento e Investigacao","status":"WITHDRAWN","city":"Vila Franca de Xira","state":"Lisboa","zip":"2600-178","country":"Portugal","geoPoint":{"lat":38.95525,"lon":-8.98966}},{"facility":"ULSM - Hospital Pedro Hispano","status":"RECRUITING","city":"Matosinhos","state":"Porto","zip":"4464-513","country":"Portugal","geoPoint":{"lat":41.18207,"lon":-8.68908}},{"facility":"Hospital Garcia de Orta | Research Department","status":"RECRUITING","city":"Almada","state":"Setúbal","zip":"2801-951","country":"Portugal","geoPoint":{"lat":38.67902,"lon":-9.1569}},{"facility":"BlueClinical | Centro Hospitalar Baixo Vouga - Unidade Aveiro - Gabinete de Ensaios Clinicos","status":"RECRUITING","city":"Aveiro","zip":"3810-501","country":"Portugal","geoPoint":{"lat":40.64427,"lon":-8.64554}},{"facility":"CHUC - Hospitais da U. Coimbra - Servico de Neurologia","status":"RECRUITING","city":"Coimbra","zip":"3004-561","country":"Portugal","geoPoint":{"lat":40.20564,"lon":-8.41955}},{"facility":"CHUA - Hospital de Faro","status":"RECRUITING","city":"Faro","zip":"8000-386","country":"Portugal","geoPoint":{"lat":37.01937,"lon":-7.93223}},{"facility":"Centro Hospitalar de Lisboa Ocidental | Clin Res Dept","status":"RECRUITING","city":"Lisboa","zip":"1349-019","country":"Portugal","geoPoint":{"lat":38.71667,"lon":-9.13333}},{"facility":"Hospital da Luz - Lisboa","status":"RECRUITING","city":"Lisboa","zip":"1500-650","country":"Portugal","geoPoint":{"lat":38.71667,"lon":-9.13333}},{"facility":"CHULN - Hospital Santa Maria","status":"RECRUITING","city":"Lisboa","zip":"1649-035","country":"Portugal","geoPoint":{"lat":38.71667,"lon":-9.13333}},{"facility":"Centro Hospitalar Universitario do Porto","status":"RECRUITING","city":"Porto","zip":"4099-001","country":"Portugal","geoPoint":{"lat":41.14961,"lon":-8.61099}},{"facility":"CHUSJ - Hospital Sao Joao","status":"RECRUITING","city":"Porto","zip":"4200-319","country":"Portugal","geoPoint":{"lat":41.14961,"lon":-8.61099}},{"facility":"Clinical Emergency County Hospital Brasov","status":"WITHDRAWN","city":"Brasov","zip":"50035","country":"Romania","geoPoint":{"lat":45.64861,"lon":25.60613}},{"facility":"Spitatul Universitar de Urgenta Bucuresti","status":"WITHDRAWN","city":"Bucharest","zip":"050098","country":"Romania","geoPoint":{"lat":44.43225,"lon":26.10626}},{"facility":"Institutul Clinic Fundeni","status":"WITHDRAWN","city":"Bucuresti","zip":"22328","country":"Romania","geoPoint":{"lat":44.42802,"lon":26.09665}},{"facility":"Institutul National de Neurologie ¿i Boli Neurovasculare","status":"WITHDRAWN","city":"Bucuresti","country":"Romania","geoPoint":{"lat":44.42802,"lon":26.09665}},{"facility":"Spitalul Clinic de Urgenta \"Prof. Dr. Nicolae Oblu\"","status":"WITHDRAWN","city":"Iasi","zip":"700309","country":"Romania","geoPoint":{"lat":47.16667,"lon":27.6}},{"facility":"Spitalul Clinic Judetean de Urgenta Oradea","status":"WITHDRAWN","city":"Oradea","zip":"410159","country":"Romania","geoPoint":{"lat":47.0458,"lon":21.91833}},{"facility":"Spitalul Clinic Judetean de Urgenta Sibiu","status":"WITHDRAWN","city":"Sibiu","zip":"550245","country":"Romania","geoPoint":{"lat":45.8,"lon":24.15}},{"facility":"Spitalul de urgenta Sf. Ioan Cel Nou","status":"WITHDRAWN","city":"Suceava","zip":"720284","country":"Romania","geoPoint":{"lat":47.63333,"lon":26.25}},{"facility":"Spitalul Clinic Judetean de Urgenta Targu-Mures","status":"WITHDRAWN","city":"Targu Mures","zip":"540136","country":"Romania","geoPoint":{"lat":46.54245,"lon":24.55747}},{"facility":"Spitalul Clinic Judetean de Urgenta \"Pius Brinzeu\" Timisoara","status":"WITHDRAWN","city":"Timisoara","country":"Romania","geoPoint":{"lat":45.75372,"lon":21.22571}},{"facility":"Univerzitna nemocnica Bratislava, Nemocnica Stare Mesto","status":"RECRUITING","city":"Bratislava","zip":"813 69","country":"Slovakia","geoPoint":{"lat":48.14816,"lon":17.10674}},{"facility":"Univerzitna nemocnica Bratislava, Nemocnica Ruzinov","status":"RECRUITING","city":"Bratislava","zip":"826 06","country":"Slovakia","geoPoint":{"lat":48.14816,"lon":17.10674}},{"facility":"Univerzitna nemocnica Bratislava, Nemocnica ak. L.Derera","status":"RECRUITING","city":"Bratislava","zip":"833 05","country":"Slovakia","geoPoint":{"lat":48.14816,"lon":17.10674}},{"facility":"Dolnooravska nemocnica s poliklinikou L. Nadasi Jegeho","status":"RECRUITING","city":"Dolny Kubin","zip":"026 14","country":"Slovakia","geoPoint":{"lat":49.20983,"lon":19.30341}},{"facility":"Nemocnica AGEL Komarno s.r.o.","status":"RECRUITING","city":"Komarno","zip":"945 05","country":"Slovakia","geoPoint":{"lat":47.76356,"lon":18.12263}},{"facility":"Vseobecna nemocnica s poliklinikou Levoca, a.s.","status":"RECRUITING","city":"Levoca","zip":"054 01","country":"Slovakia","geoPoint":{"lat":49.02173,"lon":20.59212}},{"facility":"Liptovska nemocnica s poliklinikou MUDr. Ivana Stodolu","status":"RECRUITING","city":"Liptovsky Mikulas","zip":"031 023","country":"Slovakia","geoPoint":{"lat":49.08061,"lon":19.62218}},{"facility":"Vseobecna nemocnica s poliklinikou Lucenec","status":"WITHDRAWN","city":"Lucenec","zip":"984 39","country":"Slovakia","geoPoint":{"lat":48.33249,"lon":19.66708}},{"facility":"Univerzitna nemocnica Martin","status":"RECRUITING","city":"Martin","zip":"036 59","country":"Slovakia","geoPoint":{"lat":49.06651,"lon":18.92399}},{"facility":"Fakultna nemocnica Nitra","status":"RECRUITING","city":"Nitra","zip":"949 01","country":"Slovakia","geoPoint":{"lat":48.30763,"lon":18.08453}},{"facility":"Fakultna nemocnica s poliklinikou J.A. Reimana","status":"RECRUITING","city":"Presov","zip":"080 81","country":"Slovakia","geoPoint":{"lat":48.99839,"lon":21.23393}},{"facility":"ProCare Svet Zdravia | Rimavska Sobota Hospital - Neurology Department","status":"RECRUITING","city":"Rimavska Sobota","zip":"979 12","country":"Slovakia","geoPoint":{"lat":48.38284,"lon":20.02239}},{"facility":"Fakultna nemocnica AGEL Skalica, a.s.","status":"WITHDRAWN","city":"Skalica","zip":"909 82","country":"Slovakia","geoPoint":{"lat":48.8449,"lon":17.22635}},{"facility":"Svet zdravia, a.s. Nemocnica s poliklinikou Spisska Nova Ves","status":"RECRUITING","city":"Spisska Nova Ves","zip":"052 01","country":"Slovakia","geoPoint":{"lat":48.94464,"lon":20.56153}},{"facility":"Fakultna nemocnica Trnava","status":"RECRUITING","city":"Trnava","zip":"917 75","country":"Slovakia","geoPoint":{"lat":48.37741,"lon":17.58723}},{"facility":"ProCare Svet Zdravia | Vranov nad Toplou Hospital - Neurology Department","status":"RECRUITING","city":"Vranov nad Toplou","zip":"093 27","country":"Slovakia","geoPoint":{"lat":48.88836,"lon":21.68479}},{"facility":"Vseobecna nemocnica v Ziari nad Hronom","status":"RECRUITING","city":"Ziar nad Hronom","zip":"965 37","country":"Slovakia","geoPoint":{"lat":48.59184,"lon":18.84958}},{"facility":"University Hospital of A Coruna | Neurology Department - Stroke, No-Cardioembolic-Tia","status":"RECRUITING","city":"Coruña","state":"A Coruña","zip":"15006","country":"Spain","geoPoint":{"lat":43.37135,"lon":-8.396}},{"facility":"Hospital Clínico Universitario de Santiago de Compostela","status":"RECRUITING","city":"Santiago de Compostela","state":"A Coruña","zip":"15706","country":"Spain","geoPoint":{"lat":42.88052,"lon":-8.54569}},{"facility":"Hospital Universitari Germans Trias i Pujol","status":"RECRUITING","city":"Badalona","state":"Barcelona","zip":"08916","country":"Spain","geoPoint":{"lat":41.45004,"lon":2.24741}},{"facility":"Hospital Rey Juan Carlos | Neurology Department - Stroke, No-Cardioembolic-Tia","status":"RECRUITING","city":"Mostoles","state":"Madrid","zip":"28933","country":"Spain","geoPoint":{"lat":40.32234,"lon":-3.86496}},{"facility":"Hospital Alvaro Cunqueiro | Neurology - Stroke, No-Cardioembolic-Tia","status":"RECRUITING","city":"Babio - Beade","state":"Pontevedra","zip":"36312","country":"Spain"},{"facility":"Complejo Hospitalario Universitario de Albacete | Hospital General Universitario - Neurology Department, Stroke Unit","status":"RECRUITING","city":"Albacete","zip":"02006","country":"Spain","geoPoint":{"lat":38.99424,"lon":-1.85643}},{"facility":"Hospital de la Santa Creu i Sant Pau | Neurology Department - Stroke, No-Cardioembolic-Tia","status":"RECRUITING","city":"Barcelona","zip":"08025","country":"Spain","geoPoint":{"lat":41.38879,"lon":2.15899}},{"facility":"Ciutat Sanitaria i Universitaria de la Vall d'Hebron","status":"RECRUITING","city":"Barcelona","zip":"08035","country":"Spain","geoPoint":{"lat":41.38879,"lon":2.15899}},{"facility":"Catalan Health Institute | Hospital Universitario de Girona Doctor Josep Trueta - Neurology Department, Stroke Unit","status":"RECRUITING","city":"Girona","zip":"17007","country":"Spain","geoPoint":{"lat":41.98311,"lon":2.82493}},{"facility":"Complejo Asistencial Universitario de Leon | Neurology Division - Stroke Unit","status":"RECRUITING","city":"León","zip":"24008","country":"Spain","geoPoint":{"lat":42.60003,"lon":-5.57032}},{"facility":"Hospital Universitario Arnau de Vilanova de Lleida | Neurology Department - Clinical Neuroscience Research Group","status":"RECRUITING","city":"Lleida","zip":"25198","country":"Spain","geoPoint":{"lat":41.61674,"lon":0.62218}},{"facility":"COMPLEJO HOSPITALARIO RUBER JUAN BRAVO - Neurología","status":"RECRUITING","city":"Madrid","zip":"28006","country":"Spain","geoPoint":{"lat":40.4165,"lon":-3.70256}},{"facility":"Hospital Universitario de La Princesa | Neurology Department","status":"RECRUITING","city":"Madrid","zip":"28006","country":"Spain","geoPoint":{"lat":40.4165,"lon":-3.70256}},{"facility":"H Gregorio Marañon|Neurology|STROKE|NO-CARDIOEMBOLIC-TIA","status":"RECRUITING","city":"Madrid","zip":"28007","country":"Spain","geoPoint":{"lat":40.4165,"lon":-3.70256}},{"facility":"Hospital Universitario Ramon y Cajal | Neurology Department - Stroke, No-Cardioembolic-Tia","status":"RECRUITING","city":"Madrid","zip":"28034","country":"Spain","geoPoint":{"lat":40.4165,"lon":-3.70256}},{"facility":"Hospital Universitario 12 de Octubre","status":"RECRUITING","city":"Madrid","zip":"28041","country":"Spain","geoPoint":{"lat":40.4165,"lon":-3.70256}},{"facility":"Hospital Universitario La Paz | Neurology Department - Stroke, No-Cardioembolic-Tia","status":"RECRUITING","city":"Madrid","zip":"28046","country":"Spain","geoPoint":{"lat":40.4165,"lon":-3.70256}},{"facility":"Hospital Clinico Universitario Virgen de la Arrixaca | Neurology Department - Stroke","status":"RECRUITING","city":"Murcia","zip":"30120","country":"Spain","geoPoint":{"lat":37.98704,"lon":-1.13004}},{"facility":"Hosp Univ Virgen Macarena|Neurologia|Neurovascular Res Unit","status":"RECRUITING","city":"Sevilla","zip":"41009","country":"Spain","geoPoint":{"lat":37.38283,"lon":-5.97317}},{"facility":"Virgen del Rocio Univ Hosp | Neur Dep | Neurovascular Unit","status":"RECRUITING","city":"Sevilla","zip":"41013","country":"Spain","geoPoint":{"lat":37.38283,"lon":-5.97317}},{"facility":"Inst Investigacio Sanitaria Pere Virgili | Hosp Univ Joan XXIII de Tarragona - Neurology - Stroke, No-Cardioembolic-Tia","status":"RECRUITING","city":"Tarragona","zip":"43005","country":"Spain","geoPoint":{"lat":41.11667,"lon":1.25}},{"facility":"La Fe University and Polytechnic Hospital | Neurology Service - Vascular Unit","status":"RECRUITING","city":"Valencia","zip":"46026","country":"Spain","geoPoint":{"lat":39.46975,"lon":-0.37739}},{"facility":"Hospital Universitario Clinico de Valladolid | Neurology Department","status":"RECRUITING","city":"Valladolid","zip":"47003","country":"Spain","geoPoint":{"lat":41.65518,"lon":-4.72372}},{"facility":"Hospital Clínico Universitario Lozano Blesa","status":"WITHDRAWN","city":"Zaragoza","zip":"50009","country":"Spain","geoPoint":{"lat":41.65606,"lon":-0.87734}},{"facility":"Danderyds sjukhus","status":"RECRUITING","city":"Danderyd","zip":"18257","country":"Sweden","geoPoint":{"lat":59.3987,"lon":18.02942}},{"facility":"Sahlgrenska Universitetssjukhuset","status":"RECRUITING","city":"Göteborg","zip":"413 45","country":"Sweden","geoPoint":{"lat":57.70716,"lon":11.96679}},{"facility":"Hässleholms Sjukhus","status":"NOT_YET_RECRUITING","city":"Hässleholm","zip":"281 25","country":"Sweden","geoPoint":{"lat":56.15905,"lon":13.76638}},{"facility":"Skånes Universitetssjukhus","status":"RECRUITING","city":"Lund","zip":"221 85","country":"Sweden","geoPoint":{"lat":55.70584,"lon":13.19321}},{"facility":"Södersjukhuset AB","status":"NOT_YET_RECRUITING","city":"Stockholm","zip":"118 83","country":"Sweden","geoPoint":{"lat":59.33258,"lon":18.0649}},{"facility":"Karolinska Universitetssjukhuset Huddinge","status":"NOT_YET_RECRUITING","city":"Stockholm","zip":"141 86","country":"Sweden","geoPoint":{"lat":59.33258,"lon":18.0649}},{"facility":"Karolinska University Hospital, Solna","status":"RECRUITING","city":"Stockholm","zip":"171 76","country":"Sweden","geoPoint":{"lat":59.33258,"lon":18.0649}},{"facility":"Akademiska Sjukhuset","status":"RECRUITING","city":"Uppsala","zip":"752 85","country":"Sweden","geoPoint":{"lat":59.85882,"lon":17.63889}},{"facility":"Östersunds Sjukhus","status":"RECRUITING","city":"Östersund","zip":"831 83","country":"Sweden","geoPoint":{"lat":63.1792,"lon":14.63566}},{"facility":"Universitätsspital Basel","status":"RECRUITING","city":"Basel","state":"Basel-Stadt","zip":"4056","country":"Switzerland","geoPoint":{"lat":47.55839,"lon":7.57327}},{"facility":"Hôpital Cantonal Universitaire de Genève","status":"RECRUITING","city":"Geneva","state":"Genève","zip":"1205","country":"Switzerland","geoPoint":{"lat":46.20222,"lon":6.14569}},{"facility":"Kantonsspital St. Gallen","status":"RECRUITING","city":"St. Gallen","state":"Sankt Gallen","zip":"1009","country":"Switzerland","geoPoint":{"lat":47.42391,"lon":9.37477}},{"facility":"Ospedale regionale di Lugano","status":"RECRUITING","city":"Lugano","state":"Ticino","zip":"6900","country":"Switzerland","geoPoint":{"lat":46.01008,"lon":8.96004}},{"facility":"Centre Hospitalier Universitaire Vaudois (CHUV)","status":"RECRUITING","city":"Lausanne","state":"Vaud","zip":"1011","country":"Switzerland","geoPoint":{"lat":46.516,"lon":6.63282}},{"facility":"Kantonsspital Baden","status":"RECRUITING","city":"Baden","zip":"5404","country":"Switzerland","geoPoint":{"lat":47.47333,"lon":8.30592}},{"facility":"Inselspital Universitätsspital Bern","status":"RECRUITING","city":"Bern","zip":"3010","country":"Switzerland","geoPoint":{"lat":46.94809,"lon":7.44744}},{"facility":"Hospital Cantonal Fribourg","status":"RECRUITING","city":"Villars sur Glâne","zip":"1752","country":"Switzerland","geoPoint":{"lat":46.79054,"lon":7.11717}},{"facility":"NeuroZentrum Hirslanden","status":"RECRUITING","city":"Zürich","zip":"8032","country":"Switzerland","geoPoint":{"lat":47.36667,"lon":8.54999}},{"facility":"China Medical University Hospital Hsin-Chu Branch","status":"NOT_YET_RECRUITING","city":"Zhubei City","state":"Hsinchu","zip":"302","country":"Taiwan"},{"facility":"Kaohsiung Medical University Chung-Ho Memorial Hospital","status":"RECRUITING","city":"Kaohsiung City","state":"Kaohsiung","zip":"807377","country":"Taiwan","geoPoint":{"lat":22.61626,"lon":120.31333}},{"facility":"Far Eastern Memorial Hospital Neurology","status":"RECRUITING","city":"New Taipei City","state":"Taipei","zip":"220","country":"Taiwan","geoPoint":{"lat":25.01111,"lon":121.44583}},{"facility":"En Chu Kong Hospital","status":"RECRUITING","city":"New Taipei City","state":"Taipei","zip":"237","country":"Taiwan","geoPoint":{"lat":25.01111,"lon":121.44583}},{"facility":"Fu Jen Catholic University Hospital","status":"NOT_YET_RECRUITING","city":"New Taipei City","state":"Taipei","zip":"24352","country":"Taiwan","geoPoint":{"lat":25.01111,"lon":121.44583}},{"facility":"MacKay Memorial Hospital Tamsui Branch","status":"RECRUITING","city":"New Taipei City","state":"Taipei","zip":"25160","country":"Taiwan","geoPoint":{"lat":25.01111,"lon":121.44583}},{"facility":"Shin Kong Wu Ho-Su Memorial Hospital","status":"NOT_YET_RECRUITING","city":"Taipei City","state":"Taipei","zip":"111","country":"Taiwan","geoPoint":{"lat":25.04776,"lon":121.53185}},{"facility":"Changhua Christian Hospital","status":"RECRUITING","city":"Changhua","zip":"50006","country":"Taiwan","geoPoint":{"lat":24.07327,"lon":120.56276}},{"facility":"National Taiwan University Hospital, Hsin-Chu Branch","status":"RECRUITING","city":"Hsinchu","zip":"302","country":"Taiwan","geoPoint":{"lat":24.80361,"lon":120.96861}},{"facility":"Chang Gung Memorial Hospital Kaohsiung","status":"RECRUITING","city":"Kaohsiung","zip":"833","country":"Taiwan","geoPoint":{"lat":22.61626,"lon":120.31333}},{"facility":"Kaohsiung Veterans General Hospital","status":"RECRUITING","city":"Kaoshiung","zip":"81346","country":"Taiwan"},{"facility":"Taipei Medical University - Shuang Ho Hospital","status":"NOT_YET_RECRUITING","city":"New Taipei City","zip":"23561","country":"Taiwan","geoPoint":{"lat":25.01111,"lon":121.44583}},{"facility":"China Medical University Hospital","status":"RECRUITING","city":"Taichung","zip":"40447","country":"Taiwan","geoPoint":{"lat":24.1469,"lon":120.6839}},{"facility":"Taichung Veterans General Hospital","status":"NOT_YET_RECRUITING","city":"Taichung","zip":"40705","country":"Taiwan","geoPoint":{"lat":24.1469,"lon":120.6839}},{"facility":"National Cheng Kung University Hospital","status":"RECRUITING","city":"Tainan","zip":"704","country":"Taiwan","geoPoint":{"lat":22.99083,"lon":120.21333}},{"facility":"National Taiwan University Hospital","status":"RECRUITING","city":"Taipei","zip":"100","country":"Taiwan","geoPoint":{"lat":25.04776,"lon":121.53185}},{"facility":"Mackay Memorial Hospital","status":"NOT_YET_RECRUITING","city":"Taipei","zip":"10449","country":"Taiwan","geoPoint":{"lat":25.04776,"lon":121.53185}},{"facility":"Taipei Veterans General Hospital","status":"RECRUITING","city":"Taipei","zip":"11217","country":"Taiwan","geoPoint":{"lat":25.04776,"lon":121.53185}},{"facility":"Taipei Municipal Wanfang Hospital","status":"NOT_YET_RECRUITING","city":"Taipei","zip":"116","country":"Taiwan","geoPoint":{"lat":25.04776,"lon":121.53185}},{"facility":"Tri-Service General Hospital","status":"NOT_YET_RECRUITING","city":"Taipei","country":"Taiwan","geoPoint":{"lat":25.04776,"lon":121.53185}},{"facility":"Chung Shan Medical University Hospital","status":"RECRUITING","city":"Taizung","zip":"402","country":"Taiwan"},{"facility":"Chang Gung Memorial Hospital at Linkou","status":"NOT_YET_RECRUITING","city":"Taoyuan","zip":"33305","country":"Taiwan","geoPoint":{"lat":24.95233,"lon":121.20193}},{"facility":"Hacettepe Universitesi Tip Fakultesi","status":"RECRUITING","city":"Ankara","zip":"06100","country":"Turkey","geoPoint":{"lat":39.91987,"lon":32.85427}},{"facility":"Gazi Universitesi Tip Fakultesi","status":"RECRUITING","city":"Ankara","zip":"06500","country":"Turkey","geoPoint":{"lat":39.91987,"lon":32.85427}},{"facility":"Ankara Universitesi Tip Fakultesi Hastanesi","status":"NOT_YET_RECRUITING","city":"Ankara","zip":"6100","country":"Turkey","geoPoint":{"lat":39.91987,"lon":32.85427}},{"facility":"Health Ministry Of Türkiye Republic Ankara Bilkent City Hospital","status":"RECRUITING","city":"Ankara","zip":"6800","country":"Turkey","geoPoint":{"lat":39.91987,"lon":32.85427}},{"facility":"Akdeniz Universitesi Tip Fakultesi Hastanesi","status":"NOT_YET_RECRUITING","city":"Antalya","zip":"07059","country":"Turkey","geoPoint":{"lat":36.90812,"lon":30.69556}},{"facility":"Firat Universitesi Tip Fakultesi","status":"RECRUITING","city":"Elazig","zip":"23119","country":"Turkey","geoPoint":{"lat":38.67431,"lon":39.22321}},{"facility":"Eskisehir Osmangazi Universitesi Tip Fakultesi","status":"RECRUITING","city":"Eskisehir","zip":"26480","country":"Turkey","geoPoint":{"lat":39.77667,"lon":30.52056}},{"facility":"Istanbul Universitesi Istanbul Tip Fakultesi","status":"RECRUITING","city":"Istanbul","zip":"34093","country":"Turkey","geoPoint":{"lat":41.01384,"lon":28.94966}},{"facility":"Bakirkoy Prof Dr Mazhar Osman Ruh Sagligi ve Sinir Hast. EAH","status":"NOT_YET_RECRUITING","city":"Istanbul","zip":"34147","country":"Turkey","geoPoint":{"lat":41.01384,"lon":28.94966}},{"facility":"Istanbul Sultan 2. Abdulhamid Han Egitim ve Arastirma Has.","status":"RECRUITING","city":"Istanbul","zip":"34668","country":"Turkey","geoPoint":{"lat":41.01384,"lon":28.94966}},{"facility":"Kartal Dr Lutfi Kirdar Sehir Hastanesi","status":"RECRUITING","city":"Istanbul","zip":"34865","country":"Turkey","geoPoint":{"lat":41.01384,"lon":28.94966}},{"facility":"Marmara Uni. Tip Fak. Pendik EAH Noroloji","status":"RECRUITING","city":"Istanbul","zip":"34899","country":"Turkey","geoPoint":{"lat":41.01384,"lon":28.94966}},{"facility":"Ege Universitesi Tip Fakultesi","status":"RECRUITING","city":"Izmir","zip":"35100","country":"Turkey","geoPoint":{"lat":38.41273,"lon":27.13838}},{"facility":"Dokuz Eylul Universitesi Tip Fakultesi","status":"RECRUITING","city":"Izmir","zip":"35340","country":"Turkey","geoPoint":{"lat":38.41273,"lon":27.13838}},{"facility":"Saglik Bilimleri Universitesi Izmir Tepecik EAH","status":"WITHDRAWN","city":"Izmir","zip":"64300","country":"Turkey","geoPoint":{"lat":38.41273,"lon":27.13838}},{"facility":"Selcuk University Faculty of Medicine","status":"RECRUITING","city":"Konya","zip":"42075","country":"Turkey","geoPoint":{"lat":37.87135,"lon":32.48464}},{"facility":"Necmettin Erbakan Universitesi Meram Tip Fakultesi Hastanesi","status":"RECRUITING","city":"Konya","zip":"42080","country":"Turkey","geoPoint":{"lat":37.87135,"lon":32.48464}},{"facility":"Samsun Egitim Arastirma Hastanesi","status":"RECRUITING","city":"Samsun","zip":"55090","country":"Turkey","geoPoint":{"lat":41.27976,"lon":36.3361}},{"facility":"Ondokuz Mayis Uni Tip Fakultesi","status":"NOT_YET_RECRUITING","city":"Samsun","zip":"55139","country":"Turkey","geoPoint":{"lat":41.27976,"lon":36.3361}},{"facility":"Cumhuriyet Universitesi Tip Fakultesi","status":"RECRUITING","city":"Sivas","zip":"58140","country":"Turkey","geoPoint":{"lat":39.74833,"lon":37.01611}},{"facility":"Southampton General Hospital","status":"RECRUITING","city":"Southampton","state":"Hampshire","zip":"SO16 6YD","country":"United Kingdom","geoPoint":{"lat":50.90395,"lon":-1.40428}},{"facility":"Kent and Canterbury Hospital | Stroke Unit","status":"RECRUITING","city":"Canterbury","state":"Kent","zip":"CT1 3NG","country":"United Kingdom","geoPoint":{"lat":51.27904,"lon":1.07992}},{"facility":"St George's Hospital","status":"RECRUITING","city":"Kogarah","state":"London","zip":"2217","country":"United Kingdom"},{"facility":"Salford Royal Hospital","status":"RECRUITING","city":"Salford","state":"Manchester","zip":"M6 8HD","country":"United Kingdom","geoPoint":{"lat":53.48771,"lon":-2.29042}},{"facility":"Royal Stoke University Hospital","status":"RECRUITING","city":"Stoke on Trent","state":"Staffordshire","zip":"ST4 6QG","country":"United Kingdom","geoPoint":{"lat":53.00415,"lon":-2.18538}},{"facility":"Royal Victoria Infirmary","status":"RECRUITING","city":"Newcastle Upon Tyne","state":"Tyne And Wear","zip":"NE1 4LP","country":"United Kingdom","geoPoint":{"lat":54.97328,"lon":-1.61396}},{"facility":"Sunderland Royal Hospital","status":"RECRUITING","city":"Sunderland","state":"Tyne And Wear","zip":"SR4 7TP","country":"United Kingdom","geoPoint":{"lat":54.90465,"lon":-1.38222}},{"facility":"Leeds General Infirmary","status":"RECRUITING","city":"Leeds","state":"West Yorkshire","zip":"LS1 3EX","country":"United Kingdom","geoPoint":{"lat":53.79648,"lon":-1.54785}},{"facility":"Royal Derby Hospital Derby Teaching Hospitals NHS Foundation","status":"RECRUITING","city":"Derby","zip":"DE22 3NE","country":"United Kingdom","geoPoint":{"lat":52.92277,"lon":-1.47663}},{"facility":"Edinburgh Royal Infirmary","status":"RECRUITING","city":"Edinburgh","zip":"EH3 9YW","country":"United Kingdom","geoPoint":{"lat":55.95206,"lon":-3.19648}},{"facility":"Royal Devon & Exeter Hospital","status":"RECRUITING","city":"Exeter","zip":"EX2 5DW","country":"United Kingdom","geoPoint":{"lat":50.7236,"lon":-3.52751}},{"facility":"Glasgow Royal Infirmary | Glasgow Clinical Research Facility","status":"RECRUITING","city":"Glasgow","zip":"G31 2ER","country":"United Kingdom","geoPoint":{"lat":55.86515,"lon":-4.25763}},{"facility":"Aintree University Hospital","status":"RECRUITING","city":"Liverpool","zip":"L9 7AL","country":"United Kingdom","geoPoint":{"lat":53.41058,"lon":-2.97794}},{"facility":"King's College Hospital - NHS Foundation Trust","status":"RECRUITING","city":"London","zip":"SE5 9RS","country":"United Kingdom","geoPoint":{"lat":51.50853,"lon":-0.12574}},{"facility":"Charing Cross Hospital","status":"RECRUITING","city":"London","zip":"W6 8RF","country":"United Kingdom","geoPoint":{"lat":51.50853,"lon":-0.12574}},{"facility":"John Radcliffe Hospital","status":"RECRUITING","city":"Oxford","zip":"OX3 9DU","country":"United Kingdom","geoPoint":{"lat":51.75222,"lon":-1.25596}}]},"referencesModule":{"seeAlsoLinks":[{"label":"Click here to find further information and, after study completion, the study results according to Bayer's transparency standards","url":"https://clinicaltrials.bayer.com/study/20604"}]},"ipdSharingStatementModule":{"ipdSharing":"NO","description":"Availability of this study's data will later be determined according to Bayer's commitment to the EFPIA/PhRMA \"Principles for responsible clinical trial data sharing\". This pertains to scope, timepoint and process of data access. As such, Bayer commits to sharing upon request from qualified researchers patient-level clinical trial data, study-level clinical trial data, and protocols from clinical trials in patients for medicines and indications approved in the US and EU as necessary for conducting legitimate research. This applies to data on new medicines and indications that have been approved by the EU and US regulatory agencies on or after January 01, 2014.\n\nInterested researchers can use www.vivli.org to request access to anonymized patient-level data and supporting documents from clinical studies to conduct research. Information on the Bayer criteria for listing studies and other relevant information is provided in the member section of the portal."}},"derivedSection":{"miscInfoModule":{"versionHolder":"2024-02-14"},"conditionBrowseModule":{"meshes":[{"id":"D000020521","term":"Stroke"},{"id":"D000083242","term":"Ischemic Stroke"},{"id":"D000002544","term":"Cerebral Infarction"},{"id":"D000002546","term":"Ischemic Attack, Transient"},{"id":"D000007511","term":"Ischemia"}],"ancestors":[{"id":"D000002561","term":"Cerebrovascular Disorders"},{"id":"D000001927","term":"Brain Diseases"},{"id":"D000002493","term":"Central Nervous System Diseases"},{"id":"D000009422","term":"Nervous System Diseases"},{"id":"D000014652","term":"Vascular Diseases"},{"id":"D000002318","term":"Cardiovascular Diseases"},{"id":"D000010335","term":"Pathologic Processes"},{"id":"D000020520","term":"Brain Infarction"},{"id":"D000002545","term":"Brain Ischemia"},{"id":"D000007238","term":"Infarction"},{"id":"D000009336","term":"Necrosis"}],"browseLeaves":[{"id":"M21996","name":"Stroke","asFound":"Stroke","relevance":"HIGH"},{"id":"M10233","name":"Ischemia","asFound":"Ischemic","relevance":"HIGH"},{"id":"M2401","name":"Ischemic Stroke","asFound":"Ischemic Stroke","relevance":"HIGH"},{"id":"M5485","name":"Ischemic Attack, Transient","asFound":"Transient Ischemic Attack","relevance":"HIGH"},{"id":"M9972","name":"Infarction","relevance":"LOW"},{"id":"M5483","name":"Cerebral Infarction","asFound":"Ischemic Stroke","relevance":"HIGH"},{"id":"M5500","name":"Cerebrovascular Disorders","relevance":"LOW"},{"id":"M4894","name":"Brain Diseases","relevance":"LOW"},{"id":"M5432","name":"Central Nervous System Diseases","relevance":"LOW"},{"id":"M17090","name":"Vascular Diseases","relevance":"LOW"},{"id":"M21995","name":"Brain Infarction","relevance":"LOW"},{"id":"M5484","name":"Brain Ischemia","relevance":"LOW"},{"id":"M11974","name":"Necrosis","relevance":"LOW"},{"id":"T170","name":"Acute Graft Versus Host Disease","relevance":"LOW"}],"browseBranches":[{"abbrev":"BC10","name":"Nervous System Diseases"},{"abbrev":"BC14","name":"Heart and Blood Diseases"},{"abbrev":"All","name":"All Conditions"},{"abbrev":"BC23","name":"Symptoms and General Pathology"},{"abbrev":"Rare","name":"Rare Diseases"}]}},"hasResults":false}