{"protocolSection":{"identificationModule":{"nctId":"NCT02433366","orgStudyIdInfo":{"id":"1160.149"},"organization":{"fullName":"Boehringer Ingelheim","class":"INDUSTRY"},"briefTitle":"Evaluation the Effectiveness of the Risk Minimisation Activities in the Treatment of Stroke Prevention in Atrial Fibrillation","officialTitle":"Post-authorisation Study to Evaluate the Effectiveness of the Risk Minimisation Activities in the Treatment of SPAF"},"statusModule":{"statusVerifiedDate":"2016-07","overallStatus":"COMPLETED","expandedAccessInfo":{"hasExpandedAccess":false},"startDateStruct":{"date":"2015-01"},"primaryCompletionDateStruct":{"date":"2015-08","type":"ACTUAL"},"completionDateStruct":{"date":"2015-08","type":"ACTUAL"},"studyFirstSubmitDate":"2015-03-25","studyFirstSubmitQcDate":"2015-04-29","studyFirstPostDateStruct":{"date":"2015-05-05","type":"ESTIMATED"},"resultsFirstSubmitDate":"2016-07-28","resultsFirstSubmitQcDate":"2016-07-28","resultsFirstPostDateStruct":{"date":"2016-09-19","type":"ESTIMATED"},"lastUpdateSubmitDate":"2016-07-28","lastUpdatePostDateStruct":{"date":"2016-09-19","type":"ESTIMATED"}},"sponsorCollaboratorsModule":{"responsibleParty":{"type":"SPONSOR"},"leadSponsor":{"name":"Boehringer Ingelheim","class":"INDUSTRY"}},"descriptionModule":{"briefSummary":"The key focus of this survey will be to collect data on physicians awareness of the content of the Pradaxa® Prescriber Guide and the extent to which risk awareness is communicated to patients. The data collected with atrial fibrillation patients will show if and how well this information is received and understood.","detailedDescription":"Purpose:"},"conditionsModule":{"conditions":["Atrial Fibrillation"]},"designModule":{"studyType":"OBSERVATIONAL","designInfo":{"observationalModel":"COHORT","timePerspective":"CROSS_SECTIONAL"},"enrollmentInfo":{"count":1213,"type":"ACTUAL"}},"armsInterventionsModule":{"armGroups":[{"label":"Patients"},{"label":"Physicians"}]},"outcomesModule":{"primaryOutcomes":[{"measure":"Physician's Knowledge and Recommendations to Their Patients on Appropriate Dosing and Minimizing the Risk of Bleeding When Treated With Pradaxa® (Questionnaire)","description":"The Outcome measure is summarized using the following categories; A: Physicians who spontaneously remembered the receipt of the Patient alert card, B: Physicians who spontaneously remembered the receipt of the Prescriber Guide, C: Physicians who were satisfied with the information provided in the Prescriber guide, D: Physicians who were aware of the importance of determining and controlling of the Patients renal function for correct pradaxa dosing.\n\nThis Outcome measure is applicable only for the Physicians group.","timeFrame":"Day 1"},{"measure":"Patient's Understanding of the Disease, Bleeding Signs, What to do in Case of Bleeding and How to Deal With Emergency Situations (Measuring Physician Compliance From Patient Perspective) (Questionnaire)","description":"The Outcome measure is summarized using the following categories; A: Patients who received the Patient Alert Card, read it and understood its content, B: Patients who completed the Patient Alert Card with the patient specific information, C: Patients who were well informed about their treatment and the actions to be taken in case of serious complications, D: Patents who knew about the anticoagulant effect of Pradaxa®, E: Patients who were well aware of the potential side effect-bruising, F: Patients who were well aware of the potential side effect-bleeding. This Outcome measure is applicable only for the Patients group.","timeFrame":"Day 1"}]},"eligibilityModule":{"eligibilityCriteria":"Inclusion criteria:\n\n* Pradaxa® prescribers (cardiologists and primary care physicians)\n* Patients with atrial fibrillation treated with Pradaxa®\n\nExclusion criteria:\n\nAs defined in Summary of Product Characteristics for patients treated with Pradaxa®","healthyVolunteers":false,"sex":"ALL","minimumAge":"18 Years","stdAges":["ADULT","OLDER_ADULT"],"studyPopulation":"Physicians prescribing dabigatran for patients with atrial fibrillation","samplingMethod":"PROBABILITY_SAMPLE"},"contactsLocationsModule":{"overallOfficials":[{"name":"Boehringer Ingelheim","affiliation":"Boehringer Ingelheim","role":"STUDY_CHAIR"}],"locations":[{"facility":"Boehringer Ingelheim Investigational Site 81","city":"Dobritch","country":"Bulgaria","geoPoint":{"lat":43.56667,"lon":27.83333}},{"facility":"Boehringer Ingelheim Investigational Site 84","city":"Gabrovo","country":"Bulgaria","geoPoint":{"lat":42.87472,"lon":25.33417}},{"facility":"Boehringer Ingelheim Investigational Site 79","city":"Montana","country":"Bulgaria","geoPoint":{"lat":43.4125,"lon":23.225}},{"facility":"Boehringer Ingelheim Investigational Site 85","city":"Plovdiv","country":"Bulgaria","geoPoint":{"lat":42.15,"lon":24.75}},{"facility":"Boehringer Ingelheim Investigational Site 80","city":"Shumen","country":"Bulgaria","geoPoint":{"lat":43.27064,"lon":26.92286}},{"facility":"Boehringer Ingelheim Investigational Site 86","city":"Sliven","country":"Bulgaria","geoPoint":{"lat":42.68583,"lon":26.32917}},{"facility":"Boehringer Ingelheim Investigational Site 87","city":"Sofia","country":"Bulgaria","geoPoint":{"lat":42.69751,"lon":23.32415}},{"facility":"Boehringer Ingelheim Investigational Site 88","city":"Stara Zagora","country":"Bulgaria","geoPoint":{"lat":42.43278,"lon":25.64194}},{"facility":"Boehringer Ingelheim Investigational Site 82","city":"Varna","country":"Bulgaria","geoPoint":{"lat":43.21667,"lon":27.91667}},{"facility":"Boehringer Ingelheim Investigational Site 83","city":"Veliko Tarnovo","country":"Bulgaria","geoPoint":{"lat":43.08124,"lon":25.62904}},{"facility":"Boehringer Ingelheim Investigational Site 92","city":"?eská Lípa","country":"Czech Republic"},{"facility":"Boehringer Ingelheim Investigational Site 93","city":"?eské Bud?jovice","country":"Czech Republic"},{"facility":"Boehringer Ingelheim Investigational Site 94","city":"?eský Krumlov","country":"Czech Republic"},{"facility":"Boehringer Ingelheim Investigational Site 90","city":"B?eclav","country":"Czech Republic"},{"facility":"Boehringer Ingelheim Investigational Site 89","city":"Benesov u Prahy","country":"Czech Republic"},{"facility":"Boehringer Ingelheim Investigational Site 91","city":"Brno","country":"Czech Republic","geoPoint":{"lat":49.19522,"lon":16.60796}},{"facility":"Boehringer Ingelheim Investigational Site 95","city":"Chomutov","country":"Czech Republic","geoPoint":{"lat":50.46048,"lon":13.41779}},{"facility":"Boehringer Ingelheim Investigational Site 96","city":"Domazlice","country":"Czech Republic","geoPoint":{"lat":49.44049,"lon":12.92976}},{"facility":"Boehringer Ingelheim Investigational Site 98","city":"Havlí?k?v Brod","country":"Czech Republic"},{"facility":"Boehringer Ingelheim Investigational Site 97","city":"Haví?ov","country":"Czech Republic"},{"facility":"Boehringer Ingelheim Investigational Site 99","city":"Ho?ovice","country":"Czech Republic"},{"facility":"Boehringer Ingelheim Investigational Site 100","city":"Hradec Králové","country":"Czech Republic","geoPoint":{"lat":50.20923,"lon":15.83277}},{"facility":"Boehringer Ingelheim Investigational Site 101","city":"Ivan?ice","country":"Czech Republic"},{"facility":"Boehringer Ingelheim Investigational Site 102","city":"Krom??íz","country":"Czech Republic"},{"facility":"Boehringer Ingelheim Investigational Site 103","city":"Kyjov","country":"Czech Republic","geoPoint":{"lat":49.01018,"lon":17.12253}},{"facility":"Boehringer Ingelheim Investigational Site 104","city":"Liberec","country":"Czech Republic","geoPoint":{"lat":50.76711,"lon":15.05619}},{"facility":"Boehringer Ingelheim Investigational Site 105","city":"Louny","country":"Czech Republic","geoPoint":{"lat":50.35699,"lon":13.79667}},{"facility":"Boehringer Ingelheim Investigational Site 106","city":"Most","country":"Czech Republic","geoPoint":{"lat":50.50301,"lon":13.63617}},{"facility":"Boehringer Ingelheim Investigational Site 107","city":"Nový Bor","country":"Czech Republic","geoPoint":{"lat":50.75761,"lon":14.55555}},{"facility":"Boehringer Ingelheim Investigational Site 108","city":"Odry","country":"Czech Republic","geoPoint":{"lat":49.66255,"lon":17.83084}},{"facility":"Boehringer Ingelheim Investigational Site 109","city":"Olomouc","country":"Czech Republic","geoPoint":{"lat":49.59552,"lon":17.25175}},{"facility":"Boehringer Ingelheim Investigational Site 110","city":"Pardubice","country":"Czech Republic","geoPoint":{"lat":50.04075,"lon":15.77659}},{"facility":"Boehringer Ingelheim Investigational Site 111","city":"Plze?","country":"Czech Republic","geoPoint":{"lat":49.74747,"lon":13.37759}},{"facility":"Boehringer Ingelheim Investigational Site 112","city":"Praha","country":"Czech Republic","geoPoint":{"lat":50.08804,"lon":14.42076}},{"facility":"Boehringer Ingelheim Investigational Site 113","city":"Sternberk","country":"Czech Republic","geoPoint":{"lat":49.73044,"lon":17.29889}},{"facility":"Boehringer Ingelheim Investigational Site 115","city":"Tehovec","country":"Czech Republic","geoPoint":{"lat":49.98149,"lon":14.73029}},{"facility":"Boehringer Ingelheim Investigational Site 116","city":"Teplice","country":"Czech Republic","geoPoint":{"lat":50.6404,"lon":13.82451}},{"facility":"Boehringer Ingelheim Investigational Site 114","city":"Tábor","country":"Czech Republic","geoPoint":{"lat":49.41441,"lon":14.6578}},{"facility":"Boehringer Ingelheim Investigational Site 117","city":"Valasské Mezi?í?í","country":"Czech Republic"},{"facility":"Boehringer Ingelheim Investigational Site 69","city":"Copenhagen","country":"Denmark","geoPoint":{"lat":55.67594,"lon":12.56553}},{"facility":"Boehringer Ingelheim Investigational Site 25","city":"Ambleuteuse","country":"France"},{"facility":"Boehringer Ingelheim Investigational Site 68","city":"Ardres","country":"France","geoPoint":{"lat":50.85786,"lon":1.98168}},{"facility":"Boehringer Ingelheim Investigational Site 26","city":"Arnac pompadour","country":"France","geoPoint":{"lat":45.40975,"lon":1.36993}},{"facility":"Boehringer Ingelheim Investigational Site 27","city":"Audincourt","country":"France","geoPoint":{"lat":47.48327,"lon":6.85341}},{"facility":"Boehringer Ingelheim Investigational Site 28","city":"Bart","country":"France","geoPoint":{"lat":47.48861,"lon":6.7709}},{"facility":"Boehringer Ingelheim Investigational Site 29","city":"Besançon","country":"France","geoPoint":{"lat":47.24878,"lon":6.01815}},{"facility":"Boehringer Ingelheim Investigational Site 30","city":"Buissière galant","country":"France"},{"facility":"Boehringer Ingelheim Investigational Site 32","city":"Chalus","country":"France","geoPoint":{"lat":45.6544,"lon":0.98011}},{"facility":"Boehringer Ingelheim Investigational Site 31","city":"Charbrignac","country":"France"},{"facility":"Boehringer Ingelheim Investigational Site 33","city":"Coussac Bonneval","country":"France","geoPoint":{"lat":45.51199,"lon":1.32261}},{"facility":"Boehringer Ingelheim Investigational Site 34","city":"Decines","country":"France"},{"facility":"Boehringer Ingelheim Investigational Site 35","city":"Eckwersheim","country":"France","geoPoint":{"lat":48.68167,"lon":7.69687}},{"facility":"Boehringer Ingelheim Investigational Site 36","city":"Geneuille","country":"France","geoPoint":{"lat":47.32364,"lon":5.96982}},{"facility":"Boehringer Ingelheim Investigational Site 37","city":"Glandon","country":"France","geoPoint":{"lat":45.47978,"lon":1.22573}},{"facility":"Boehringer Ingelheim Investigational Site 65","city":"Gruson","country":"France","geoPoint":{"lat":50.59583,"lon":3.20777}},{"facility":"Boehringer Ingelheim Investigational Site 38","city":"Halluin","country":"France","geoPoint":{"lat":50.78628,"lon":3.12611}},{"facility":"Boehringer Ingelheim Investigational Site 39","city":"Lanouaille","country":"France","geoPoint":{"lat":45.39517,"lon":1.13968}},{"facility":"Boehringer Ingelheim Investigational Site 67","city":"Le catelet","country":"France","geoPoint":{"lat":50.58976,"lon":1.9384}},{"facility":"Boehringer Ingelheim Investigational Site 40","city":"Le Haillan","country":"France","geoPoint":{"lat":44.87225,"lon":-0.67965}},{"facility":"Boehringer Ingelheim Investigational Site 41","city":"Lille","country":"France","geoPoint":{"lat":50.63297,"lon":3.05858}},{"facility":"Boehringer Ingelheim Investigational Site 42","city":"Limoges","country":"France","geoPoint":{"lat":45.83153,"lon":1.25781}},{"facility":"Boehringer Ingelheim Investigational Site 43","city":"Lomme","country":"France","geoPoint":{"lat":50.64358,"lon":2.98715}},{"facility":"Boehringer Ingelheim Investigational Site 44","city":"Lyon","country":"France","geoPoint":{"lat":45.74848,"lon":4.84669}},{"facility":"Boehringer Ingelheim Investigational Site 45","city":"Marseille","country":"France","geoPoint":{"lat":43.29551,"lon":5.38958}},{"facility":"Boehringer Ingelheim Investigational Site 46","city":"Merignac","country":"France","geoPoint":{"lat":44.83248,"lon":-0.63381}},{"facility":"Boehringer Ingelheim Investigational Site 47","city":"Nexon","country":"France","geoPoint":{"lat":45.67962,"lon":1.18555}},{"facility":"Boehringer Ingelheim Investigational Site 48","city":"Noaillan","country":"France","geoPoint":{"lat":44.48057,"lon":-0.3664}},{"facility":"Boehringer Ingelheim Investigational Site 24","city":"Paris","country":"France","geoPoint":{"lat":48.85341,"lon":2.3488}},{"facility":"Boehringer Ingelheim Investigational Site 49","city":"Pompadour","country":"France","geoPoint":{"lat":45.39806,"lon":1.3824}},{"facility":"Boehringer Ingelheim Investigational Site 50","city":"Saint Martial d'Albarede","country":"France","geoPoint":{"lat":45.32502,"lon":1.02894}},{"facility":"Boehringer Ingelheim Investigational Site 51","city":"Saint Martin Sepert","country":"France","geoPoint":{"lat":45.43482,"lon":1.47173}},{"facility":"Boehringer Ingelheim Investigational Site 52","city":"Saint Saud Lacousserie","country":"France"},{"facility":"Boehringer Ingelheim Investigational Site 53","city":"Saint Sornin Lavolps","country":"France","geoPoint":{"lat":45.37797,"lon":1.38393}},{"facility":"Boehringer Ingelheim Investigational Site 54","city":"Saint Yrieix la Perche","country":"France","geoPoint":{"lat":45.51604,"lon":1.20569}},{"facility":"Boehringer Ingelheim Investigational Site 55","city":"Saint-Hilaire-les-Places","country":"France","geoPoint":{"lat":45.64492,"lon":1.1599}},{"facility":"Boehringer Ingelheim Investigational Site 56","city":"Schiltigheim","country":"France","geoPoint":{"lat":48.60749,"lon":7.74931}},{"facility":"Boehringer Ingelheim Investigational Site 57","city":"Sochaux","country":"France","geoPoint":{"lat":47.50808,"lon":6.82748}},{"facility":"Boehringer Ingelheim Investigational Site 58","city":"Strasbourg","country":"France","geoPoint":{"lat":48.58392,"lon":7.74553}},{"facility":"Boehringer Ingelheim Investigational Site 59","city":"Talence","country":"France","geoPoint":{"lat":44.80477,"lon":-0.59543}},{"facility":"Boehringer Ingelheim Investigational Site 60","city":"Thiviers","country":"France","geoPoint":{"lat":45.41542,"lon":0.91963}},{"facility":"Boehringer Ingelheim Investigational Site 66","city":"Tourcoing","country":"France","geoPoint":{"lat":50.72391,"lon":3.16117}},{"facility":"Boehringer Ingelheim Investigational Site 61","city":"Tourmignies","country":"France","geoPoint":{"lat":50.50728,"lon":3.08424}},{"facility":"Boehringer Ingelheim Investigational Site 62","city":"Villenave d'Ornon","country":"France","geoPoint":{"lat":44.77327,"lon":-0.5442}},{"facility":"Boehringer Ingelheim Investigational Site 63","city":"Voujeaucourt","country":"France","geoPoint":{"lat":47.47513,"lon":6.77431}},{"facility":"Boehringer Ingelheim Investigational Site 64","city":"Weyersheim","country":"France","geoPoint":{"lat":48.71537,"lon":7.80097}},{"facility":"Boehringer Ingelheim Investigational Site 9","city":"Berlin","country":"Germany","geoPoint":{"lat":52.52437,"lon":13.41053}},{"facility":"Boehringer Ingelheim Investigational Site 3","city":"Bremen","country":"Germany","geoPoint":{"lat":53.07516,"lon":8.80777}},{"facility":"Boehringer Ingelheim Investigational Site 10","city":"Chemnitz","country":"Germany","geoPoint":{"lat":50.8357,"lon":12.92922}},{"facility":"Boehringer Ingelheim Investigational Site 5","city":"Düsseldorf","country":"Germany","geoPoint":{"lat":51.22172,"lon":6.77616}},{"facility":"Boehringer Ingelheim Investigational Site 6","city":"Essen","country":"Germany","geoPoint":{"lat":51.45657,"lon":7.01228}},{"facility":"Boehringer Ingelheim Investigational Site 1","city":"Frankfurt","country":"Germany","geoPoint":{"lat":50.11552,"lon":8.68417}},{"facility":"Boehringer Ingelheim Investigational Site 8","city":"Hannover","country":"Germany","geoPoint":{"lat":52.37052,"lon":9.73322}},{"facility":"Boehringer Ingelheim Investigational Site 14","city":"Heidelberg","country":"Germany","geoPoint":{"lat":49.40768,"lon":8.69079}},{"facility":"Boehringer Ingelheim Investigational Site 11","city":"Leipzig","country":"Germany","geoPoint":{"lat":51.33962,"lon":12.37129}},{"facility":"Boehringer Ingelheim Investigational Site 2","city":"Mannheim","country":"Germany","geoPoint":{"lat":49.4891,"lon":8.46694}},{"facility":"Boehringer Ingelheim Investigational Site 7","city":"Marburg","country":"Germany","geoPoint":{"lat":50.80904,"lon":8.77069}},{"facility":"Boehringer Ingelheim Investigational Site 13","city":"München","country":"Germany","geoPoint":{"lat":48.13743,"lon":11.57549}},{"facility":"Boehringer Ingelheim Investigational Site 4","city":"Nürnberg","country":"Germany","geoPoint":{"lat":49.45421,"lon":11.07752}},{"facility":"Boehringer Ingelheim Investigational Site 12","city":"Rostock","country":"Germany","geoPoint":{"lat":54.0887,"lon":12.14049}},{"facility":"Boehringer Ingelheim Investigational Site 122","city":"Banska Bystrica","country":"Slovakia","geoPoint":{"lat":48.73946,"lon":19.15349}},{"facility":"Boehringer Ingelheim Investigational Site 127","city":"Bardejov","country":"Slovakia","geoPoint":{"lat":49.29175,"lon":21.27271}},{"facility":"Boehringer Ingelheim Investigational Site 152","city":"Bratislava","country":"Slovakia","geoPoint":{"lat":48.14816,"lon":17.10674}},{"facility":"Boehringer Ingelheim Investigational Site 146","city":"Cierna nad Tisou","country":"Slovakia","geoPoint":{"lat":48.41704,"lon":22.08865}},{"facility":"Boehringer Ingelheim Investigational Site 149","city":"Cierne Klacany","country":"Slovakia"},{"facility":"Boehringer Ingelheim Investigational Site 154","city":"Cierny Brod","country":"Slovakia","geoPoint":{"lat":48.14731,"lon":17.65319}},{"facility":"Boehringer Ingelheim Investigational Site 139","city":"Dolne Kockovce","country":"Slovakia","geoPoint":{"lat":49.09435,"lon":18.32528}},{"facility":"Boehringer Ingelheim Investigational Site 141","city":"Horny Vadicov","country":"Slovakia","geoPoint":{"lat":49.27501,"lon":18.89366}},{"facility":"Boehringer Ingelheim Investigational Site 137","city":"Ivanka pri Dunaji","country":"Slovakia","geoPoint":{"lat":48.18675,"lon":17.2554}},{"facility":"Boehringer Ingelheim Investigational Site 140","city":"Jelka","country":"Slovakia","geoPoint":{"lat":48.14545,"lon":17.51126}},{"facility":"Boehringer Ingelheim Investigational Site 159","city":"Kokava nad Rimavicou","country":"Slovakia","geoPoint":{"lat":48.56893,"lon":19.84346}},{"facility":"Boehringer Ingelheim Investigational Site 125","city":"Kosice","country":"Slovakia","geoPoint":{"lat":48.71395,"lon":21.25808}},{"facility":"Boehringer Ingelheim Investigational Site 158","city":"Kostany nad Turcom","country":"Slovakia","geoPoint":{"lat":49.02989,"lon":18.90437}},{"facility":"Boehringer Ingelheim Investigational Site 160","city":"Krasno nad Kysucou","country":"Slovakia","geoPoint":{"lat":49.39572,"lon":18.83431}},{"facility":"Boehringer Ingelheim Investigational Site 134","city":"Lalinok","country":"Slovakia"},{"facility":"Boehringer Ingelheim Investigational Site 120","city":"Lastovce","country":"Slovakia","geoPoint":{"lat":48.5391,"lon":21.62814}},{"facility":"Boehringer Ingelheim Investigational Site 155","city":"Liptovsky Hradok","country":"Slovakia","geoPoint":{"lat":49.03962,"lon":19.72335}},{"facility":"Boehringer Ingelheim Investigational Site 145","city":"Lucenec","country":"Slovakia","geoPoint":{"lat":48.33249,"lon":19.66708}},{"facility":"Boehringer Ingelheim Investigational Site 144","city":"Nitra","country":"Slovakia","geoPoint":{"lat":48.30763,"lon":18.08453}},{"facility":"Boehringer Ingelheim Investigational Site 119","city":"Nove Mesto nad Vahom","country":"Slovakia","geoPoint":{"lat":48.75763,"lon":17.8309}},{"facility":"Boehringer Ingelheim Investigational Site 150","city":"Nove Zamky","country":"Slovakia","geoPoint":{"lat":47.98544,"lon":18.16195}},{"facility":"Boehringer Ingelheim Investigational Site 124","city":"Odorin","country":"Slovakia","geoPoint":{"lat":48.9337,"lon":20.6346}},{"facility":"Boehringer Ingelheim Investigational Site 142","city":"Oscadnica","country":"Slovakia","geoPoint":{"lat":49.43572,"lon":18.8819}},{"facility":"Boehringer Ingelheim Investigational Site 157","city":"Poprad","country":"Slovakia","geoPoint":{"lat":49.06144,"lon":20.29798}},{"facility":"Boehringer Ingelheim Investigational Site 128","city":"Povazska Bystrica","country":"Slovakia","geoPoint":{"lat":49.12153,"lon":18.42169}},{"facility":"Boehringer Ingelheim Investigational Site 132","city":"Povazsky Chlmec","country":"Slovakia","geoPoint":{"lat":49.24069,"lon":18.72109}},{"facility":"Boehringer Ingelheim Investigational Site 118","city":"Presov","country":"Slovakia","geoPoint":{"lat":48.99839,"lon":21.23393}},{"facility":"Boehringer Ingelheim Investigational Site 138","city":"Puchov","country":"Slovakia","geoPoint":{"lat":49.12494,"lon":18.32597}},{"facility":"Boehringer Ingelheim Investigational Site 143","city":"Radola","country":"Slovakia","geoPoint":{"lat":49.2942,"lon":18.79244}},{"facility":"Boehringer Ingelheim Investigational Site 153","city":"Resov","country":"Slovakia","geoPoint":{"lat":49.23995,"lon":21.33072}},{"facility":"Boehringer Ingelheim Investigational Site 156","city":"Revuca","country":"Slovakia","geoPoint":{"lat":48.68346,"lon":20.11734}},{"facility":"Boehringer Ingelheim Investigational Site 147","city":"Rozkovany","country":"Slovakia","geoPoint":{"lat":49.13789,"lon":20.98986}},{"facility":"Boehringer Ingelheim Investigational Site 131","city":"Rudinka","country":"Slovakia","geoPoint":{"lat":49.27233,"lon":18.75056}},{"facility":"Boehringer Ingelheim Investigational Site 126","city":"Sabinov","country":"Slovakia","geoPoint":{"lat":49.10309,"lon":21.0988}},{"facility":"Boehringer Ingelheim Investigational Site 161","city":"Skalite","country":"Slovakia","geoPoint":{"lat":49.49664,"lon":18.89706}},{"facility":"Boehringer Ingelheim Investigational Site 123","city":"Spisska Nova Ves","country":"Slovakia","geoPoint":{"lat":48.94464,"lon":20.56153}},{"facility":"Boehringer Ingelheim Investigational Site 130","city":"Stranavy","country":"Slovakia","geoPoint":{"lat":49.17147,"lon":18.82183}},{"facility":"Boehringer Ingelheim Investigational Site 121","city":"Trebisov","country":"Slovakia","geoPoint":{"lat":48.62858,"lon":21.71954}},{"facility":"Boehringer Ingelheim Investigational Site 151","city":"Trnava","country":"Slovakia","geoPoint":{"lat":48.37741,"lon":17.58723}},{"facility":"Boehringer Ingelheim Investigational Site 129","city":"Trnove","country":"Slovakia","geoPoint":{"lat":49.19196,"lon":18.7872}},{"facility":"Boehringer Ingelheim Investigational Site 135","city":"Valasska Bela","country":"Slovakia"},{"facility":"Boehringer Ingelheim Investigational Site 148","city":"Vrable","country":"Slovakia","geoPoint":{"lat":48.24371,"lon":18.30846}},{"facility":"Boehringer Ingelheim Investigational Site 133","city":"Zilina","country":"Slovakia","geoPoint":{"lat":49.22315,"lon":18.73941}},{"facility":"Boehringer Ingelheim Investigational Site 136","city":"Zvolen","country":"Slovakia","geoPoint":{"lat":48.57442,"lon":19.15324}},{"facility":"Boehringer Ingelheim Investigational Site 23","city":"Baleares","country":"Spain"},{"facility":"Boehringer Ingelheim Investigational Site 22","city":"Barcelona","country":"Spain","geoPoint":{"lat":41.38879,"lon":2.15899}},{"facility":"Boehringer Ingelheim Investigational Site 15","city":"Ciudad Real","country":"Spain","geoPoint":{"lat":38.98626,"lon":-3.92907}},{"facility":"Boehringer Ingelheim Investigational Site 16","city":"Galicia","country":"Spain"},{"facility":"Boehringer Ingelheim Investigational Site 17","city":"Madrid","country":"Spain","geoPoint":{"lat":40.4165,"lon":-3.70256}},{"facility":"Boehringer Ingelheim Investigational Site 18","city":"Murcia","country":"Spain","geoPoint":{"lat":37.98704,"lon":-1.13004}},{"facility":"Boehringer Ingelheim Investigational Site 19","city":"Sevilla","country":"Spain","geoPoint":{"lat":37.38283,"lon":-5.97317}},{"facility":"Boehringer Ingelheim Investigational Site 20","city":"Valencia","country":"Spain","geoPoint":{"lat":39.46975,"lon":-0.37739}},{"facility":"Boehringer Ingelheim Investigational Site 21","city":"Zaragoza","country":"Spain","geoPoint":{"lat":41.65606,"lon":-0.87734}},{"facility":"Boehringer Ingelheim Investigational Site 71","city":"Brighton","country":"United Kingdom","geoPoint":{"lat":50.82838,"lon":-0.13947}},{"facility":"Boehringer Ingelheim Investigational Site 76","city":"Cheadle","country":"United Kingdom","geoPoint":{"lat":52.98333,"lon":-1.98333}},{"facility":"Boehringer Ingelheim Investigational Site 78","city":"Essex","country":"United Kingdom"},{"facility":"Boehringer Ingelheim Investigational Site 70","city":"London","country":"United Kingdom","geoPoint":{"lat":51.50853,"lon":-0.12574}},{"facility":"Boehringer Ingelheim Investigational Site 77","city":"Manchester","country":"United Kingdom","geoPoint":{"lat":53.48095,"lon":-2.23743}},{"facility":"Boehringer Ingelheim Investigational Site 74","city":"Middlesex","country":"United Kingdom","geoPoint":{"lat":51.53174,"lon":-0.26856}},{"facility":"Boehringer Ingelheim Investigational Site 73","city":"Romford","country":"United Kingdom","geoPoint":{"lat":51.57515,"lon":0.18582}},{"facility":"Boehringer Ingelheim Investigational Site 75","city":"Stockport","country":"United Kingdom","geoPoint":{"lat":53.40979,"lon":-2.15761}},{"facility":"Boehringer Ingelheim Investigational Site 72","city":"Surrey","country":"United Kingdom"}]}},"resultsSection":{"participantFlowModule":{"recruitmentDetails":"This is a cross-sectional survey. Pradaxa® prescribing healthcare professionals and Pradaxa® treated patients were randomly selected and interviewed (face-to-face).\n\n411 healthcare professionals and 802 patients with atrial fibrillation were enrolled and entered the study","groups":[{"id":"FG000","title":"Physicians","description":"Current prescribers of Pradaxa® for stroke prevention in patients with atrial fibrillation (AF)."},{"id":"FG001","title":"Patients","description":"AF patients on treatment with Pradaxa®."}],"periods":[{"title":"Overall Study","milestones":[{"type":"STARTED","achievements":[{"groupId":"FG000","numSubjects":"411"},{"groupId":"FG001","numSubjects":"802"}]},{"type":"COMPLETED","achievements":[{"groupId":"FG000","numSubjects":"411"},{"groupId":"FG001","numSubjects":"802"}]},{"type":"NOT COMPLETED","achievements":[{"groupId":"FG000","numSubjects":"0"},{"groupId":"FG001","numSubjects":"0"}]}]}]},"baselineCharacteristicsModule":{"populationDescription":"Physicians who were current prescribers of Pradaxa® for stroke prevention in patients with atrial fibrillation (AF) and AF patients who were currently receiving treatment with Pradaxa® entered this non-interventional survey","groups":[{"id":"BG000","title":"Physicians","description":"Current prescribers of Pradaxa® for stroke prevention in patients with atrial fibrillation (AF)."},{"id":"BG001","title":"Patients","description":"AF patients on treatment with Pradaxa®."},{"id":"BG002","title":"Total","description":"Total of all reporting groups"}],"denoms":[{"units":"Participants","counts":[{"groupId":"BG000","value":"411"},{"groupId":"BG001","value":"802"},{"groupId":"BG002","value":"1213"}]}],"measures":[{"title":"Age, Customized","paramType":"NUMBER","unitOfMeasure":"Participants","classes":[{"title":"<75 years","categories":[{"measurements":[{"groupId":"BG000","value":"NA","comment":"Information about physicians age is not available"},{"groupId":"BG001","value":"480"},{"groupId":"BG002","value":"NA","comment":"Total not calculated because data are not available (NA) in one or more arms."}]}]},{"title":"≥ 75 years","categories":[{"measurements":[{"groupId":"BG000","value":"NA","comment":"Information about physicians age is not available"},{"groupId":"BG001","value":"322"},{"groupId":"BG002","value":"NA","comment":"Total not calculated because data are not available (NA) in one or more arms."}]}]}]},{"title":"Sex: Female, Male","paramType":"COUNT_OF_PARTICIPANTS","unitOfMeasure":"Participants","classes":[{"categories":[{"title":"Female","measurements":[{"groupId":"BG000","value":"NA","comment":"Information about physicians gender is not available"},{"groupId":"BG001","value":"370"},{"groupId":"BG002","value":"NA","comment":"Total not calculated because data are not available (NA) in one or more arms."}]},{"title":"Male","measurements":[{"groupId":"BG000","value":"NA","comment":"Information about physicians gender is not available"},{"groupId":"BG001","value":"432"},{"groupId":"BG002","value":"NA","comment":"Total not calculated because data are not available (NA) in one or more arms."}]}]}]}]},"outcomeMeasuresModule":{"outcomeMeasures":[{"type":"PRIMARY","title":"Physician's Knowledge and Recommendations to Their Patients on Appropriate Dosing and Minimizing the Risk of Bleeding When Treated With Pradaxa® (Questionnaire)","description":"The Outcome measure is summarized using the following categories; A: Physicians who spontaneously remembered the receipt of the Patient alert card, B: Physicians who spontaneously remembered the receipt of the Prescriber Guide, C: Physicians who were satisfied with the information provided in the Prescriber guide, D: Physicians who were aware of the importance of determining and controlling of the Patients renal function for correct pradaxa dosing.\n\nThis Outcome measure is applicable only for the Physicians group.","populationDescription":"Physicians who were current prescribers of Pradaxa® for stroke prevention in patients with atrial fibrillation (AF)","reportingStatus":"POSTED","paramType":"NUMBER","unitOfMeasure":"Percentage of Participants","timeFrame":"Day 1","groups":[{"id":"OG000","title":"Physicians","description":"Current prescribers of Pradaxa® for stroke prevention in patients with atrial fibrillation (AF)."},{"id":"OG001","title":"Patients","description":"AF patients on treatment with Pradaxa®."}],"denoms":[{"units":"Participants","counts":[{"groupId":"OG000","value":"411"},{"groupId":"OG001","value":"0"}]}],"classes":[{"title":"A","categories":[{"measurements":[{"groupId":"OG000","value":"65"}]}]},{"title":"B","categories":[{"measurements":[{"groupId":"OG000","value":"71"}]}]},{"title":"C","categories":[{"measurements":[{"groupId":"OG000","value":"95"}]}]},{"title":"D","categories":[{"measurements":[{"groupId":"OG000","value":"100"}]}]}]},{"type":"PRIMARY","title":"Patient's Understanding of the Disease, Bleeding Signs, What to do in Case of Bleeding and How to Deal With Emergency Situations (Measuring Physician Compliance From Patient Perspective) (Questionnaire)","description":"The Outcome measure is summarized using the following categories; A: Patients who received the Patient Alert Card, read it and understood its content, B: Patients who completed the Patient Alert Card with the patient specific information, C: Patients who were well informed about their treatment and the actions to be taken in case of serious complications, D: Patents who knew about the anticoagulant effect of Pradaxa®, E: Patients who were well aware of the potential side effect-bruising, F: Patients who were well aware of the potential side effect-bleeding. This Outcome measure is applicable only for the Patients group.","populationDescription":"AF patients on treatment with Pradaxa®.","reportingStatus":"POSTED","paramType":"NUMBER","unitOfMeasure":"Percentage of Participants","timeFrame":"Day 1","groups":[{"id":"OG000","title":"Physicians","description":"Current prescribers of Pradaxa® for stroke prevention in patients with atrial fibrillation (AF)."},{"id":"OG001","title":"Patients","description":"AF patients on treatment with Pradaxa®."}],"denoms":[{"units":"Participants","counts":[{"groupId":"OG000","value":"0"},{"groupId":"OG001","value":"802"}]}],"classes":[{"title":"A","categories":[{"measurements":[{"groupId":"OG001","value":"55"}]}]},{"title":"B","categories":[{"measurements":[{"groupId":"OG001","value":"83"}]}]},{"title":"C","categories":[{"measurements":[{"groupId":"OG001","value":"100"}]}]},{"title":"D","categories":[{"measurements":[{"groupId":"OG001","value":"89"}]}]},{"title":"E","categories":[{"measurements":[{"groupId":"OG001","value":"54"}]}]},{"title":"F","categories":[{"measurements":[{"groupId":"OG001","value":"52"}]}]}]}]},"adverseEventsModule":{"frequencyThreshold":"5","description":"Adverse events (AE) were not reported in this trial report but in case a physician or patient mentioned an AE during the interview, the interviewer together with the physician or patient was to complete an AE form which was forwarded to pharmacovigilance unit of BI.","eventGroups":[{"id":"EG000","title":"Physicians","description":"Current prescribers of Pradaxa® for stroke prevention in patients with atrial fibrillation (AF).","seriousNumAffected":0,"seriousNumAtRisk":0,"otherNumAffected":0,"otherNumAtRisk":0},{"id":"EG001","title":"Patients","description":"AF patients on treatment with Pradaxa®.","seriousNumAffected":0,"seriousNumAtRisk":0,"otherNumAffected":0,"otherNumAtRisk":0}]},"moreInfoModule":{"certainAgreement":{"piSponsorEmployee":false,"restrictionType":"OTHER","restrictiveAgreement":true,"otherDetails":"Boehringer Ingelheim (BI) acknowledges that investigators have the right to publish the study results. Investigators shall provide BI with a copy of any publication or presentation for review prior to any submission. Such review will be done with regard to proprietary information, information related to patentable inventions, medical, scientific, and statistical accuracy within 60 days. BI may request a delay of the publication in order to protect BI's intellectual property rights"},"pointOfContact":{"title":"Boehringer Ingelheim Call Center","organization":"Boehringer Ingelheim","email":"clintriage.rdg@boehringer-ingelheim.com","phone":"800-243-0127","phoneExt":"+1"}}},"derivedSection":{"miscInfoModule":{"versionHolder":"2024-02-14"},"conditionBrowseModule":{"meshes":[{"id":"D000001281","term":"Atrial Fibrillation"}],"ancestors":[{"id":"D000001145","term":"Arrhythmias, Cardiac"},{"id":"D000006331","term":"Heart Diseases"},{"id":"D000002318","term":"Cardiovascular Diseases"},{"id":"D000010335","term":"Pathologic Processes"}],"browseLeaves":[{"id":"M21996","name":"Stroke","relevance":"LOW"},{"id":"M4276","name":"Atrial Fibrillation","asFound":"Atrial Fibrillation","relevance":"HIGH"},{"id":"M4143","name":"Arrhythmias, Cardiac","relevance":"LOW"},{"id":"M9109","name":"Heart Diseases","relevance":"LOW"}],"browseBranches":[{"abbrev":"BC10","name":"Nervous System Diseases"},{"abbrev":"BC14","name":"Heart and Blood Diseases"},{"abbrev":"All","name":"All Conditions"},{"abbrev":"BC23","name":"Symptoms and General Pathology"}]}},"hasResults":true}