{"protocolSection":{"identificationModule":{"nctId":"NCT05018650","orgStudyIdInfo":{"id":"CIP 0974"},"organization":{"fullName":"Route 92 Medical, Inc.","class":"INDUSTRY"},"briefTitle":"A Randomized, Controlled Trial to Evaluate the Safety and Effectiveness of the Route 92 Medical Reperfusion System (SUMMIT MAX)","officialTitle":"A Prospective, Randomized, Controlled, Interventional Clinical Trial to Evaluate the Safety and Effectiveness of the Route 92 Medical MonoPoint® Reperfusion System for Aspiration Embolectomy in Acute Ischemic Stroke Patients (SUMMIT MAX)"},"statusModule":{"statusVerifiedDate":"2023-06","overallStatus":"RECRUITING","expandedAccessInfo":{"hasExpandedAccess":false},"startDateStruct":{"date":"2021-12-15","type":"ACTUAL"},"primaryCompletionDateStruct":{"date":"2023-12-30","type":"ESTIMATED"},"completionDateStruct":{"date":"2024-02-28","type":"ESTIMATED"},"studyFirstSubmitDate":"2021-08-18","studyFirstSubmitQcDate":"2021-08-18","studyFirstPostDateStruct":{"date":"2021-08-24","type":"ACTUAL"},"lastUpdateSubmitDate":"2023-06-06","lastUpdatePostDateStruct":{"date":"2023-06-08","type":"ACTUAL"}},"sponsorCollaboratorsModule":{"responsibleParty":{"type":"SPONSOR"},"leadSponsor":{"name":"Route 92 Medical, Inc.","class":"INDUSTRY"}},"oversightModule":{"oversightHasDmc":true,"isFdaRegulatedDrug":false,"isFdaRegulatedDevice":true,"isUnapprovedDevice":true},"descriptionModule":{"briefSummary":"The SUMMIT MAX study is a prospective, randomized, controlled, interventional clinical trial to evaluate the safety and effectiveness of the Route 92 Medical MonoPoint® Reperfusion System for aspiration thrombectomy in acute ischemic stroke patients.","detailedDescription":"The purpose of the SUMMIT MAX study is to obtain the safety and effectiveness data necessary to demonstrate substantial equivalence of the Route 92 Medical Reperfusion System with a predicate aspiration device to support a 510(k) application to the U.S. Food and Drug Administration (FDA) under the classification product code, NRY."},"conditionsModule":{"conditions":["Acute Ischemic Stroke"]},"designModule":{"studyType":"INTERVENTIONAL","phases":["NA"],"designInfo":{"allocation":"RANDOMIZED","interventionModel":"PARALLEL","primaryPurpose":"TREATMENT","maskingInfo":{"masking":"NONE"}},"enrollmentInfo":{"count":250,"type":"ESTIMATED"}},"armsInterventionsModule":{"armGroups":[{"label":"Route 92 Medical Reperfusion System","type":"EXPERIMENTAL","description":"Aspiration thrombectomy with the Route 92 Reperfusion System to treat acute ischemic stroke","interventionNames":["Device: Route 92 Medical Reperfusion System"]},{"label":"Aspiration Predicate","type":"ACTIVE_COMPARATOR","description":"Aspiration thrombectomy with a predicate aspiration device to treat acute ischemic stroke","interventionNames":["Device: Route 92 Medical Reperfusion System"]}],"interventions":[{"type":"DEVICE","name":"Route 92 Medical Reperfusion System","description":"Mechanical thrombectomy for acute ischemic stroke patients with large vessel occlusions will be performed with direct aspiration consisting of navigating a large-bore catheter up to the face of the clot and initiating vacuum suction.","armGroupLabels":["Aspiration Predicate","Route 92 Medical Reperfusion System"]}]},"outcomesModule":{"primaryOutcomes":[{"measure":"Proportion of subjects with successful arterial revascularization defined as a modified Thrombolysis in Cerebrovascular Infarction (mTICI) score of 2b or greater","description":"mTICI of 2b or greater indicates successful reperfusion following blood clot removal","timeFrame":"During procedure"},{"measure":"Incidence of all symptomatic intracerebral hemorrhage (sICH)","description":"Evaluation of sICH per von Kummer et al","timeFrame":"within 24 hours post-procedure"}]},"eligibilityModule":{"eligibilityCriteria":"Inclusion Criteria:\n\n1. The consent process has been completed and documented according to applicable country regulations and as approved by the IRB / Ethics Committee\n2. Age \\>=18 years\n3. Patient presenting with clinical signs consistent with an acute ischemic stroke\n4. Baseline National Institutes of Health Stroke Scale (NIHSS) score \\>= 6\n5. Pre-stroke modified Rankin Score (mRS) \\<= 2\n6. Baseline ASPECTS \\>= 6\n7. Endovascular treatment initiated (defined as time of groin puncture) within 8 hours from time last known well\n8. If indicated, thrombolytic therapy shall be initiated per clinical guidelines. If eligible for thrombolytic therapy, subjects should be treated as soon as possible and lytic use should not be delayed regardless of potential eligibility for mechanical neurothrombectomy.\n9. The patient is indicated for aspiration neurothrombectomy with the Route 92 Medical Reperfusion System as determined by the Investigator\n10. Angiographic confirmation of a large vessel occlusion of the M1 segment of the middle cerebral artery or distal internal carotid artery\n\nExclusion Criteria:\n\n1. Known pregnancy or breast feeding\n2. In the Investigator's opinion, any known comorbidity (including COVID-19 positivity) that may complicate treatment or prevent improvement or follow-up\n3. Known serious, advanced, or terminal illness with anticipated life expectancy \\< 12 months\n4. Known history of severe allergy to contrast medium\n5. Known to have suffered a stroke in the past 90 days\n6. Known connective tissue disorder affecting the arteries (e.g. Marfan syndrome, Ehlers-Danlos syndrome)\n7. Any known previous cerebral hemorrhagic event\n8. Any known pre-existing coagulation deficiency\n9. Known hemorrhagic diathesis, coagulation factor deficiency, or oral anticoagulant therapy with INR \\>3.0\n10. Known baseline platelet count \\<50,000/µL\n11. Known baseline blood glucose of \\<50 mg/dL or \\>400 mg/dL\n12. Known to be participating in another study involving an investigational device or drug\n13. Clinical symptoms suggestive of bilateral stroke or stroke in multiple territories.\n14. Computed Tomography (CT) or Magnetic Resonance Imaging (MRI) evidence of recent/ fresh cerebral hemorrhage (the presence of microbleeds is allowed)\n15. Baseline CT or MRI showing intracranial tumor (except small meningioma \\<= 2cm) or significant mass effect with midline shift due to the tumor\n16. Presumed septic thrombus, or suspicion of bacterial endocarditis\n17. Inability to access the cerebral vasculature in the opinion of the neurointerventional team\n18. Unlikely to be available for a 90-day follow-up (e.g. no fixed home address)\n19. Evidence of arterial dissection in a vessel that must be traversed\n20. Evidence of high-grade stenosis or occlusion (i.e., tandem occlusion) in a vessel that must be traversed\n21. Known active or recent history of cocaine or methamphetamine abuse (within last 6 months)\n22. Known history or presence of aneurysm or arteriovenous malformation (AVM) in the territory of the target lesion\n23. For all patients, severe sustained hypertension with SBP \\>200 and/or DBP \\>120; for patients treated with a lytic, sustained hypertension despite treatment with SBP \\>185 and/or DBP \\>110\n24. Treatment with heparin within 48 hours with a partial thromboplastic time more than two times the laboratory normal or treatment with any LMWH within 48 hours\n25. Renal failure with serum creatinine \\>3.0 or Glomerular Filtration Rate (GFR) \\<30\n26. Ongoing seizure due to stroke\n27. Evidence of active systemic infection\n28. Known cancer with metastases\n29. Angiographic evidence of a dissection in the extracranial or intracranial cerebral arteries\n30. Arterial stenosis requiring balloon angioplasty or stenting at the time of the procedure\n31. Angiographic evidence of multiple cerebrovascular occlusions (e.g., bilateral anterior circulation, anterior/posterior circulation, tandem occlusions)\n32. Angiographic evidence of known or suspected underlying intracranial vasculopathy or atherosclerotic lesions responsible for the target occlusion\n33. Angiographic evidence or suspicion of aortic dissection\n34. Angiographic evidence of an aneurysm or arteriovenous malformation (AVM) in the territory of the target lesion","healthyVolunteers":false,"sex":"ALL","minimumAge":"18 Years","stdAges":["ADULT","OLDER_ADULT"]},"contactsLocationsModule":{"centralContacts":[{"name":"Renée Kochevar, PhD, ALM","role":"CONTACT","phone":"(415)336-7433","email":"reneek@r92m.com"}],"overallOfficials":[{"name":"Guilherme Dabus, MD","affiliation":"Baptist Health - Miami","role":"PRINCIPAL_INVESTIGATOR"},{"name":"Ajit Puri, MD","affiliation":"University of Massachusetts, Worcester","role":"PRINCIPAL_INVESTIGATOR"},{"name":"Thanh Nguyen, MD","affiliation":"Boston Medical Center","role":"PRINCIPAL_INVESTIGATOR"}],"locations":[{"facility":"Banner Health","status":"RECRUITING","city":"Mesa","state":"Arizona","zip":"85202","country":"United States","contacts":[{"name":"Emily Stevens","role":"CONTACT","phone":"480-412-7797"},{"name":"Mohamed Teleb, MD","role":"PRINCIPAL_INVESTIGATOR"}],"geoPoint":{"lat":33.42227,"lon":-111.82264}},{"facility":"Mercy San Juan Medical Center","status":"RECRUITING","city":"Carmichael","state":"California","zip":"95608","country":"United States","contacts":[{"name":"Lucian Maidan, MD","role":"PRINCIPAL_INVESTIGATOR"}],"geoPoint":{"lat":38.61713,"lon":-121.32828}},{"facility":"Christiana Care","status":"RECRUITING","city":"Newark","state":"Delaware","zip":"19718","country":"United States","contacts":[{"name":"AnnMarie LeNoir","role":"CONTACT"},{"name":"Sudhaker Satti, MD","role":"PRINCIPAL_INVESTIGATOR"}],"geoPoint":{"lat":39.68372,"lon":-75.74966}},{"facility":"Baptist Jacksonville","status":"RECRUITING","city":"Jacksonville","state":"Florida","zip":"32207","country":"United States","contacts":[{"name":"LeNaya Lewis","role":"CONTACT"},{"name":"Ricardo Hanel, MD","role":"PRINCIPAL_INVESTIGATOR"}],"geoPoint":{"lat":30.33218,"lon":-81.65565}},{"facility":"Baptist Hospital of Miami","status":"RECRUITING","city":"Miami","state":"Florida","zip":"33176","country":"United States","contacts":[{"name":"Yudmila Tamayo","role":"CONTACT"},{"name":"Guilherme Dabus, MD","role":"PRINCIPAL_INVESTIGATOR"}],"geoPoint":{"lat":25.77427,"lon":-80.19366}},{"facility":"Advocate Aurora Health","status":"RECRUITING","city":"Chicago","state":"Illinois","zip":"60657","country":"United States","contacts":[{"name":"Lynda Yanny","role":"CONTACT"},{"name":"Demetrius Lopes, MD","role":"PRINCIPAL_INVESTIGATOR"}],"geoPoint":{"lat":41.85003,"lon":-87.65005}},{"facility":"University of Kansas","status":"RECRUITING","city":"Kansas City","state":"Kansas","zip":"66160","country":"United States","contacts":[{"name":"Peyton Ackerman, BA, CCRP","role":"CONTACT"}],"geoPoint":{"lat":39.11417,"lon":-94.62746}},{"facility":"Baptist Health Lexington","status":"RECRUITING","city":"Lexington","state":"Kentucky","zip":"40503","country":"United States","contacts":[{"name":"Misty Burns","role":"CONTACT"},{"name":"Nicolas Villelli, MD","role":"PRINCIPAL_INVESTIGATOR"}],"geoPoint":{"lat":37.98869,"lon":-84.47772}},{"facility":"Tufts","status":"RECRUITING","city":"Boston","state":"Massachusetts","zip":"02111","country":"United States","contacts":[{"name":"Grace Lynch","role":"CONTACT"},{"name":"Adel Malek, MD","role":"PRINCIPAL_INVESTIGATOR"}],"geoPoint":{"lat":42.35843,"lon":-71.05977}},{"facility":"Boston Medical Center","status":"RECRUITING","city":"Boston","state":"Massachusetts","zip":"02118","country":"United States","contacts":[{"name":"Robert Araujo","role":"CONTACT"},{"name":"Thanh Nguyen, MD","role":"PRINCIPAL_INVESTIGATOR"}],"geoPoint":{"lat":42.35843,"lon":-71.05977}},{"facility":"University of Massachusetts","status":"RECRUITING","city":"Worcester","state":"Massachusetts","zip":"01655","country":"United States","contacts":[{"name":"Noelle Bodkin","role":"CONTACT"},{"name":"Ajit Puri, MD","role":"PRINCIPAL_INVESTIGATOR"}],"geoPoint":{"lat":42.26259,"lon":-71.80229}},{"facility":"Saint Luke's","status":"RECRUITING","city":"Kansas City","state":"Missouri","zip":"64111","country":"United States","contacts":[{"name":"Debbie Summers","role":"CONTACT"},{"name":"Coleman Martin, MD","role":"PRINCIPAL_INVESTIGATOR"}],"geoPoint":{"lat":39.09973,"lon":-94.57857}},{"facility":"Cooper Health System","status":"RECRUITING","city":"Camden","state":"New Jersey","zip":"08103","country":"United States","contacts":[{"name":"Lindsey Colman","role":"CONTACT"},{"name":"Hamza Shaikh, MD","role":"PRINCIPAL_INVESTIGATOR"}],"geoPoint":{"lat":39.92595,"lon":-75.11962}},{"facility":"Rutgers","status":"RECRUITING","city":"Piscataway","state":"New Jersey","zip":"08854","country":"United States","contacts":[{"name":"Roxanne Nagurka","role":"CONTACT"},{"name":"Priyank Khandelwal, MD","role":"PRINCIPAL_INVESTIGATOR"}],"geoPoint":{"lat":40.49927,"lon":-74.39904}},{"facility":"Stony Brook University Hospital","status":"RECRUITING","city":"Stony Brook","state":"New York","zip":"11794","country":"United States","contacts":[{"name":"Dawn Madigan","role":"CONTACT"},{"name":"David J Fiorella, MD, PhD","role":"PRINCIPAL_INVESTIGATOR"}],"geoPoint":{"lat":40.92565,"lon":-73.14094}},{"facility":"Cleveland Clinic","status":"RECRUITING","city":"Cleveland","state":"Ohio","zip":"44195","country":"United States","contacts":[{"name":"Joyce Barmen","role":"CONTACT"},{"name":"Shazam Hussain, MD","role":"PRINCIPAL_INVESTIGATOR"}],"geoPoint":{"lat":41.4995,"lon":-81.69541}},{"facility":"Ohio Health","status":"RECRUITING","city":"Columbus","state":"Ohio","zip":"43214","country":"United States","contacts":[{"name":"Megan Heckathorn","role":"CONTACT"},{"name":"Ron Budzik, MD","role":"PRINCIPAL_INVESTIGATOR"}],"geoPoint":{"lat":39.96118,"lon":-82.99879}},{"facility":"Wright State University","status":"RECRUITING","city":"Dayton","state":"Ohio","zip":"45409","country":"United States","contacts":[{"name":"Madison Davis, RN","role":"CONTACT","phone":"937-208-3689"},{"name":"Esteban Cheng-Ching, MD","role":"PRINCIPAL_INVESTIGATOR"}],"geoPoint":{"lat":39.75895,"lon":-84.19161}},{"facility":"Mercy Health St. Vincent","status":"RECRUITING","city":"Toledo","state":"Ohio","zip":"43608","country":"United States","contacts":[{"name":"Micah Ward","role":"CONTACT"},{"name":"Osama Zaidat, MD","role":"PRINCIPAL_INVESTIGATOR"}],"geoPoint":{"lat":41.66394,"lon":-83.55521}},{"facility":"OHSU","status":"RECRUITING","city":"Portland","state":"Oregon","zip":"97219","country":"United States","contacts":[{"name":"Emilie Bode","role":"CONTACT"},{"name":"Ryan Priest, MD","role":"PRINCIPAL_INVESTIGATOR"}],"geoPoint":{"lat":45.52345,"lon":-122.67621}},{"facility":"Geisinger Clinic","status":"RECRUITING","city":"Danville","state":"Pennsylvania","zip":"17822","country":"United States","contacts":[{"name":"Paula Nicoletto","role":"CONTACT","phone":"570-808-5595"},{"name":"Clemens Schirmer, MD, PhD","role":"PRINCIPAL_INVESTIGATOR"}],"geoPoint":{"lat":40.96342,"lon":-76.61273}},{"facility":"Thomas Jefferson University","status":"RECRUITING","city":"Philadelphia","state":"Pennsylvania","zip":"19107","country":"United States","contacts":[{"name":"Nadirah Jones","role":"CONTACT"},{"name":"Pascal Jabbour, MD","role":"PRINCIPAL_INVESTIGATOR"}],"geoPoint":{"lat":39.95233,"lon":-75.16379}},{"facility":"UPMC","status":"RECRUITING","city":"Pittsburgh","state":"Pennsylvania","zip":"15213","country":"United States","contacts":[{"name":"Christopher Wiltrout","role":"CONTACT"},{"name":"Brad Gross, MD","role":"PRINCIPAL_INVESTIGATOR"}],"geoPoint":{"lat":40.44062,"lon":-79.99589}},{"facility":"Fort Sanders Medical Center","status":"RECRUITING","city":"Knoxville","state":"Tennessee","zip":"37902","country":"United States","contacts":[{"name":"Casey Ogle","role":"CONTACT"},{"name":"Keith Woodward, MD","role":"PRINCIPAL_INVESTIGATOR"}],"geoPoint":{"lat":35.96064,"lon":-83.92074}},{"facility":"University of Texas Southwestern","status":"RECRUITING","city":"Dallas","state":"Texas","zip":"75390","country":"United States","contacts":[{"name":"Claire Starcke, B.S","role":"CONTACT"},{"name":"Roberta Novakovic, MD","role":"PRINCIPAL_INVESTIGATOR"}],"geoPoint":{"lat":32.78306,"lon":-96.80667}},{"facility":"Valley Baptist","status":"RECRUITING","city":"Harlingen","state":"Texas","zip":"78550","country":"United States","contacts":[{"name":"Pualani Smith","role":"CONTACT"},{"name":"Ameer Hassan, MD","role":"PRINCIPAL_INVESTIGATOR"}],"geoPoint":{"lat":26.19063,"lon":-97.6961}},{"facility":"Medical City Plano","status":"RECRUITING","city":"Plano","state":"Texas","zip":"75075","country":"United States","contacts":[{"name":"Rocio Sauder","role":"CONTACT"},{"name":"Albert Yoo, MD, PhD","role":"PRINCIPAL_INVESTIGATOR"}],"geoPoint":{"lat":33.01984,"lon":-96.69889}},{"facility":"University of Utah","status":"RECRUITING","city":"Salt Lake City","state":"Utah","zip":"84123","country":"United States","contacts":[{"name":"Sarah Hassan Al-Nemer","role":"CONTACT"},{"name":"Ramesh Grandhi, MD","role":"PRINCIPAL_INVESTIGATOR"}],"geoPoint":{"lat":40.76078,"lon":-111.89105}},{"facility":"West Virginia University","status":"RECRUITING","city":"Morgantown","state":"West Virginia","zip":"26506","country":"United States","contacts":[{"name":"Jennifer Domico","role":"CONTACT"},{"name":"Ansaar Rai, MD","role":"PRINCIPAL_INVESTIGATOR"}],"geoPoint":{"lat":39.62953,"lon":-79.9559}},{"facility":"Auckland City Hospital","status":"RECRUITING","city":"Auckland","zip":"1023","country":"New Zealand","contacts":[{"name":"Davina McCallister","role":"CONTACT"},{"name":"Ben McGuinness, MD","role":"PRINCIPAL_INVESTIGATOR"}],"geoPoint":{"lat":-36.84853,"lon":174.76349}}]},"ipdSharingStatementModule":{"ipdSharing":"NO"}},"derivedSection":{"miscInfoModule":{"versionHolder":"2024-02-14"},"conditionBrowseModule":{"meshes":[{"id":"D000083242","term":"Ischemic Stroke"}],"ancestors":[{"id":"D000020521","term":"Stroke"},{"id":"D000002561","term":"Cerebrovascular Disorders"},{"id":"D000001927","term":"Brain Diseases"},{"id":"D000002493","term":"Central Nervous System Diseases"},{"id":"D000009422","term":"Nervous System Diseases"},{"id":"D000014652","term":"Vascular Diseases"},{"id":"D000002318","term":"Cardiovascular Diseases"}],"browseLeaves":[{"id":"M21996","name":"Stroke","relevance":"LOW"},{"id":"M10233","name":"Ischemia","relevance":"LOW"},{"id":"M2401","name":"Ischemic Stroke","asFound":"Ischemic Stroke","relevance":"HIGH"},{"id":"M5500","name":"Cerebrovascular Disorders","relevance":"LOW"},{"id":"M4894","name":"Brain Diseases","relevance":"LOW"},{"id":"M5432","name":"Central Nervous System Diseases","relevance":"LOW"},{"id":"M17090","name":"Vascular Diseases","relevance":"LOW"},{"id":"T170","name":"Acute Graft Versus Host Disease","relevance":"LOW"}],"browseBranches":[{"abbrev":"BC10","name":"Nervous System Diseases"},{"abbrev":"BC14","name":"Heart and Blood Diseases"},{"abbrev":"All","name":"All Conditions"},{"abbrev":"BC23","name":"Symptoms and General Pathology"},{"abbrev":"Rare","name":"Rare Diseases"}]}},"hasResults":false}