{"protocolSection":{"identificationModule":{"nctId":"NCT04693767","orgStudyIdInfo":{"id":"CLP 15131"},"organization":{"fullName":"Penumbra Inc.","class":"INDUSTRY"},"briefTitle":"Investigation of Clot in Ischemic Stroke and Hematoma Evacuation","officialTitle":"Investigation of Clot in Ischemic Stroke and Hematoma Evacuation","acronym":"INSIGHT"},"statusModule":{"statusVerifiedDate":"2022-12","overallStatus":"ACTIVE_NOT_RECRUITING","expandedAccessInfo":{"hasExpandedAccess":false},"startDateStruct":{"date":"2021-02-16","type":"ACTUAL"},"primaryCompletionDateStruct":{"date":"2022-07-22","type":"ACTUAL"},"completionDateStruct":{"date":"2023-07","type":"ESTIMATED"},"studyFirstSubmitDate":"2020-12-30","studyFirstSubmitQcDate":"2020-12-30","studyFirstPostDateStruct":{"date":"2021-01-05","type":"ACTUAL"},"lastUpdateSubmitDate":"2023-02-06","lastUpdatePostDateStruct":{"date":"2023-02-08","type":"ACTUAL"}},"sponsorCollaboratorsModule":{"responsibleParty":{"type":"SPONSOR"},"leadSponsor":{"name":"Penumbra Inc.","class":"INDUSTRY"}},"oversightModule":{"oversightHasDmc":false,"isFdaRegulatedDrug":false,"isFdaRegulatedDevice":true},"descriptionModule":{"briefSummary":"The aim of the study is to collect and analyze specimen from ischemic stroke patients undergoing thrombectomy procedures and from patients undergoing minimally invasive surgery for intracranial hematoma evacuation."},"conditionsModule":{"conditions":["Ischemic Stroke","Intracranial Hematoma"]},"designModule":{"studyType":"OBSERVATIONAL","patientRegistry":false,"designInfo":{"observationalModel":"COHORT","timePerspective":"PROSPECTIVE"},"bioSpec":{"retention":"SAMPLES_WITH_DNA","description":"Clot and blood specimen"},"enrollmentInfo":{"count":400,"type":"ACTUAL"}},"armsInterventionsModule":{"armGroups":[{"label":"Patients with ischemic stroke","interventionNames":["Other: Mechanical thrombectomy"]},{"label":"Patients with intracranial hematoma","interventionNames":["Other: Minimally invasive surgery"]}],"interventions":[{"type":"OTHER","name":"Mechanical thrombectomy","description":"1. Clot specimen collection\n2. Extracranial blood collection","armGroupLabels":["Patients with ischemic stroke"]},{"type":"OTHER","name":"Minimally invasive surgery","description":"1. Clot specimen collection\n2. Arterial blood collection","armGroupLabels":["Patients with intracranial hematoma"]}]},"outcomesModule":{"primaryOutcomes":[{"measure":"Clot specimen histology","description":"Numbers of clot specimen for histology analysis","timeFrame":"Clot specimen obtained during procedure"},{"measure":"Blood and clot specimen transcriptomics","description":"Numbers of blood and clot for RNA sequency","timeFrame":"Blood and clot specimen obtained during procedure"},{"measure":"Blood and clot specimen proteomics","description":"Numbers of blood and clot specimen for proteomic analysis","timeFrame":"Blood and clot specimen obtained during procedure"},{"measure":"Blood and clot specimen genomics","description":"Numbers of blood and clot specimen for single nucleotide polymorphisms (SNPs)","timeFrame":"Blood and clot specimen obtained during procedure"}]},"eligibilityModule":{"eligibilityCriteria":"Inclusion Criteria:\n\n* â‰¥ 18 Years of Age\n* Frontline treatment with: Penumbra System for ischemic stroke patients eligible for mechanical thrombectomy or Artemis Neuro Evacuation device for intracranial hematoma evacuation in patients eligible for minimally invasive surgery (MIS)\n* Extracted thrombus/embolus\n* Informed consent is obtained from either the patient or legally authorized representative (LAR)\n\nExclusion Criteria:\n\n* Pregnancy or positive pregnancy test according to site routine practice (only required for women of child bearing potential; serum or urine acceptable)\n* Currently participating in an investigational drug or device clinical trial that may confound the ability to capture clot and/or influence clot composition. Patients in observational, natural history, and/or epidemiological studies not involving intervention are eligible","healthyVolunteers":false,"sex":"ALL","minimumAge":"18 Years","stdAges":["ADULT","OLDER_ADULT"],"studyPopulation":"Patients undergoing either ischemic stroke thrombectomy procedures or minimally invasive interventions for intracranial hematoma evacuation","samplingMethod":"NON_PROBABILITY_SAMPLE"},"contactsLocationsModule":{"locations":[{"facility":"Banner Desert Medical Center","city":"Mesa","state":"Arizona","zip":"85202","country":"United States","geoPoint":{"lat":33.42227,"lon":-111.82264}},{"facility":"Banner University Medical Center - Phoenix","city":"Phoenix","state":"Arizona","zip":"85006","country":"United States","geoPoint":{"lat":33.44838,"lon":-112.07404}},{"facility":"Christiana Care","city":"Newark","state":"Delaware","zip":"19713","country":"United States","geoPoint":{"lat":39.68372,"lon":-75.74966}},{"facility":"George Washington University","city":"Washington","state":"District of Columbia","zip":"20037","country":"United States","geoPoint":{"lat":38.89511,"lon":-77.03637}},{"facility":"Baptist Medical Center","city":"Jacksonville","state":"Florida","zip":"32207","country":"United States","geoPoint":{"lat":30.33218,"lon":-81.65565}},{"facility":"Northwestern University","city":"Chicago","state":"Illinois","zip":"60611","country":"United States","geoPoint":{"lat":41.85003,"lon":-87.65005}},{"facility":"Indiana University Health Methodist Hospital","city":"Indianapolis","state":"Indiana","zip":"46202","country":"United States","geoPoint":{"lat":39.76838,"lon":-86.15804}},{"facility":"University of Kentucky","city":"Lexington","state":"Kentucky","zip":"40536","country":"United States","geoPoint":{"lat":37.98869,"lon":-84.47772}},{"facility":"Norton Neuroscience Institute","city":"Louisville","state":"Kentucky","zip":"40241","country":"United States","geoPoint":{"lat":38.25424,"lon":-85.75941}},{"facility":"MaineHealth","city":"Portland","state":"Maine","zip":"04012","country":"United States","geoPoint":{"lat":43.66147,"lon":-70.25533}},{"facility":"Adventist Healthcare Shady Grove Medical Center","city":"Rockville","state":"Maryland","zip":"20850","country":"United States","geoPoint":{"lat":39.084,"lon":-77.15276}},{"facility":"Massachusetts General Hospital","city":"Boston","state":"Massachusetts","zip":"02114","country":"United States","geoPoint":{"lat":42.35843,"lon":-71.05977}},{"facility":"Metro Health","city":"Wyoming","state":"Michigan","zip":"49519","country":"United States","geoPoint":{"lat":42.91336,"lon":-85.70531}},{"facility":"St. Dominic Jackson Memorial Hospital","city":"Jackson","state":"Mississippi","zip":"39216","country":"United States","geoPoint":{"lat":32.29876,"lon":-90.18481}},{"facility":"SSM St. Clare Healthcare","city":"Fenton","state":"Missouri","zip":"63026","country":"United States","geoPoint":{"lat":38.51311,"lon":-90.43595}},{"facility":"Mount Sinai","city":"New York","state":"New York","zip":"10029","country":"United States","geoPoint":{"lat":40.71427,"lon":-74.00597}},{"facility":"Stony Brook University","city":"Stony Brook","state":"New York","zip":"11794","country":"United States","geoPoint":{"lat":40.92565,"lon":-73.14094}},{"facility":"Westchester Medical Center","city":"Valhalla","state":"New York","zip":"10595","country":"United States","geoPoint":{"lat":41.07482,"lon":-73.77513}},{"facility":"Miami Valley Hospital","city":"Dayton","state":"Ohio","zip":"45409","country":"United States","geoPoint":{"lat":39.75895,"lon":-84.19161}},{"facility":"University of Pennsylvania","city":"Philadelphia","state":"Pennsylvania","zip":"19104","country":"United States","geoPoint":{"lat":39.95233,"lon":-75.16379}},{"facility":"Greenville Memorial / Prisma Health","city":"Greenville","state":"South Carolina","zip":"29605","country":"United States","geoPoint":{"lat":34.85262,"lon":-82.39401}},{"facility":"Fort Sanders Regional Medical Center","city":"Knoxville","state":"Tennessee","zip":"37916","country":"United States","geoPoint":{"lat":35.96064,"lon":-83.92074}},{"facility":"Methodist University","city":"Memphis","state":"Tennessee","zip":"38104","country":"United States","geoPoint":{"lat":35.14953,"lon":-90.04898}},{"facility":"University of Texas Health Center, Memorial Hermann Medical Center","city":"Houston","state":"Texas","zip":"77030","country":"United States","geoPoint":{"lat":29.76328,"lon":-95.36327}},{"facility":"Virginia Commonwealth University","city":"Richmond","state":"Virginia","zip":"23298","country":"United States","geoPoint":{"lat":37.55376,"lon":-77.46026}},{"facility":"Swedish Health Services, Swedish Cherry Hill","city":"Seattle","state":"Washington","zip":"98122","country":"United States","geoPoint":{"lat":47.60621,"lon":-122.33207}},{"facility":"Tacoma General Hosptial","city":"Tacoma","state":"Washington","zip":"98405","country":"United States","geoPoint":{"lat":47.25288,"lon":-122.44429}}]}},"derivedSection":{"miscInfoModule":{"versionHolder":"2024-02-14","submissionTracking":{"estimatedResultsFirstSubmitDate":"2023-09-25","submissionInfos":[{"releaseDate":"2023-09-25"}]}},"conditionBrowseModule":{"meshes":[{"id":"D000020521","term":"Stroke"},{"id":"D000083242","term":"Ischemic Stroke"},{"id":"D000002544","term":"Cerebral Infarction"},{"id":"D000007511","term":"Ischemia"},{"id":"D000006406","term":"Hematoma"}],"ancestors":[{"id":"D000002561","term":"Cerebrovascular Disorders"},{"id":"D000001927","term":"Brain Diseases"},{"id":"D000002493","term":"Central Nervous System Diseases"},{"id":"D000009422","term":"Nervous System Diseases"},{"id":"D000014652","term":"Vascular Diseases"},{"id":"D000002318","term":"Cardiovascular Diseases"},{"id":"D000010335","term":"Pathologic Processes"},{"id":"D000020520","term":"Brain Infarction"},{"id":"D000002545","term":"Brain Ischemia"},{"id":"D000007238","term":"Infarction"},{"id":"D000009336","term":"Necrosis"},{"id":"D000006470","term":"Hemorrhage"}],"browseLeaves":[{"id":"M21996","name":"Stroke","asFound":"Stroke","relevance":"HIGH"},{"id":"M10233","name":"Ischemia","asFound":"Ischemic","relevance":"HIGH"},{"id":"M2401","name":"Ischemic Stroke","asFound":"Ischemic Stroke","relevance":"HIGH"},{"id":"M9183","name":"Hematoma","asFound":"Hematoma","relevance":"HIGH"},{"id":"M9972","name":"Infarction","relevance":"LOW"},{"id":"M5483","name":"Cerebral Infarction","asFound":"Ischemic Stroke","relevance":"HIGH"},{"id":"M5500","name":"Cerebrovascular Disorders","relevance":"LOW"},{"id":"M4894","name":"Brain Diseases","relevance":"LOW"},{"id":"M5432","name":"Central Nervous System Diseases","relevance":"LOW"},{"id":"M17090","name":"Vascular Diseases","relevance":"LOW"},{"id":"M21995","name":"Brain Infarction","relevance":"LOW"},{"id":"M5484","name":"Brain Ischemia","relevance":"LOW"},{"id":"M11974","name":"Necrosis","relevance":"LOW"},{"id":"M9246","name":"Hemorrhage","relevance":"LOW"}],"browseBranches":[{"abbrev":"BC10","name":"Nervous System Diseases"},{"abbrev":"BC14","name":"Heart and Blood Diseases"},{"abbrev":"All","name":"All Conditions"},{"abbrev":"BC23","name":"Symptoms and General Pathology"}]}},"hasResults":false}