{"protocolSection":{"identificationModule":{"nctId":"NCT03090113","orgStudyIdInfo":{"id":"2014ZX09201022-010-11"},"organization":{"fullName":"Beijing Tiantan Hospital","class":"OTHER"},"briefTitle":"Shuxuetong for Prevention of Recurrence in Acute Cerebrovascular Events With Embolism","officialTitle":"A Random, Double-blind, Parallel, Placebo-controlled, Multi-center Study of Shuxuetong for Prevention of Recurrence in Acute Cerebrovascular Events With Embolism","acronym":"SPACE"},"statusModule":{"statusVerifiedDate":"2020-07","overallStatus":"COMPLETED","expandedAccessInfo":{"hasExpandedAccess":false},"startDateStruct":{"date":"2017-05-12","type":"ACTUAL"},"primaryCompletionDateStruct":{"date":"2019-03-30","type":"ACTUAL"},"completionDateStruct":{"date":"2019-06-21","type":"ACTUAL"},"studyFirstSubmitDate":"2017-03-09","studyFirstSubmitQcDate":"2017-03-18","studyFirstPostDateStruct":{"date":"2017-03-24","type":"ACTUAL"},"lastUpdateSubmitDate":"2020-07-21","lastUpdatePostDateStruct":{"date":"2020-07-22","type":"ACTUAL"}},"sponsorCollaboratorsModule":{"responsibleParty":{"type":"PRINCIPAL_INVESTIGATOR","investigatorFullName":"Yongjun Wang","investigatorTitle":"Executive Vice-President","investigatorAffiliation":"Beijing Tiantan Hospital"},"leadSponsor":{"name":"Beijing Tiantan Hospital","class":"OTHER"}},"oversightModule":{"oversightHasDmc":true,"isFdaRegulatedDrug":false,"isFdaRegulatedDevice":false},"descriptionModule":{"briefSummary":"This is a randomized, double blind, placebo-controlled, parallel, multicenter research in order to evaluate the effect of Shuxuetong injection in prevention of symptomatic or asymptomatic new cerebral infarction within 10 days.\n\nSubgroup study：Evaluate the role of advanced diagnostic technique in identifying potential causes of Embolic Stroke of Undetermined Source (ESUS).","detailedDescription":"Shuxuetong injection or Placebo injection for 10days. About 2416 patients randomized at 80 centers all over China with 20 subgroup study centers.\n\nFace to face interview at baseline, 10 days, and 90 days."},"conditionsModule":{"conditions":["Embolic Stroke"],"keywords":["Stroke","Embolic Stroke","Shuxuetong","Recurrence","Symptomatic New Cerebral Infarction","Asymptomatic New Cerebral Infarction"]},"designModule":{"studyType":"INTERVENTIONAL","phases":["PHASE4"],"designInfo":{"allocation":"RANDOMIZED","interventionModel":"PARALLEL","primaryPurpose":"PREVENTION","maskingInfo":{"masking":"QUADRUPLE","whoMasked":["PARTICIPANT","CARE_PROVIDER","INVESTIGATOR","OUTCOMES_ASSESSOR"]}},"enrollmentInfo":{"count":2416,"type":"ACTUAL"}},"armsInterventionsModule":{"armGroups":[{"label":"Shuxuetong Injection","type":"EXPERIMENTAL","description":"Shuxuetong Injection,12ml,ivgtt,day1; Shuxuetong Injection,6ml,ivgtt,day2 to day10;","interventionNames":["Drug: Shuxuetong Injection"]},{"label":"Placebo Injection","type":"PLACEBO_COMPARATOR","description":"Placebo Injection,12ml,ivgtt,day1; Placebo Injection,6ml,ivgtt,day2 to day10;","interventionNames":["Drug: Placebo Injection"]}],"interventions":[{"type":"DRUG","name":"Shuxuetong Injection","description":"intravenous drip","armGroupLabels":["Shuxuetong Injection"],"otherNames":["Shuxuetong"]},{"type":"DRUG","name":"Placebo Injection","description":"intravenous drip","armGroupLabels":["Placebo Injection"],"otherNames":["Placebo"]}]},"outcomesModule":{"primaryOutcomes":[{"measure":"Symptomatic or Asymptomatic New Cerebral Infarction","description":"Those patients who are still alive at 10 days after randomization will be contacted to set up a follow-up clinical visit. Information of recurrent symptomatic cerebral infarction will be collected and MRI examination will be performed to detect asymptomatic new cerebral infarction.","timeFrame":"10 days"}],"secondaryOutcomes":[{"measure":"Symptomatic Cerebral Infarction","description":"Those patients who are still alive at 10 days after randomization will be contacted to set up a follow-up clinical visit. Information of recurrent symptomatic cerebral infarction will be collected.","timeFrame":"10 days"},{"measure":"Asymptomatic Cerebral Infarction","description":"Those patients who are still alive at 10 days after randomization will be contacted to set up a follow-up clinical visit. MRI examination including diffusion weighted imaging (DWI) sequence will be performed.","timeFrame":"10 days"},{"measure":"Cerebral Infarction Volume Expansion","description":"Those patients who are still alive at hospital discharge will be contacted to set up a follow-up clinical visit. MRI examination will be performed.","timeFrame":"10 days"},{"measure":"NIHSS Score Increase","description":"Those patients who are still alive at hospital discharge will be contacted to set up a follow-up clinical visit. Neurological and functional assessments including NIHSS will be performed.","timeFrame":"10 days"},{"measure":"Recurrent Symptomatic Stroke(Cerebral infarction, cerebral hemorrhage)","description":"Those patients who are still alive at 90days after onset will be contacted by telephone to set up a follow-up clinical visit. Information of recurrent symptomatic stroke will be collected.","timeFrame":"90 days"},{"measure":"Recurrent Symptomatic Ischemic Stroke","description":"Those patients who are still alive at 90days after onset will be contacted by telephone to set up a follow-up clinical visit. Information of recurrent symptomatic ischmemic stroke will be collected.","timeFrame":"90 days"},{"measure":"Combined Vascular Events","description":"Combined Vascular Events was defined as a combination of symptomatic stroke, myocardial infarction and vascular death.","timeFrame":"90 days"},{"measure":"Disability or Death","description":"Disability or Death was defined as a score of 3 to 6 on the modified Rankin Scale at 90days after onset.","timeFrame":"90 days"}],"otherOutcomes":[{"measure":"Detected an Atrial Fibrillation Persistent ≥ 30s","description":"Pre-specified Outcomes for Substudy of 'Etiology Study in Patients with ESUS'","timeFrame":"90 days"}]},"eligibilityModule":{"eligibilityCriteria":"Inclusion criteria\n\n1. More than or equal to 18 years old and less than 80 years old;\n2. Acute ischemic stroke, brain magnetic resonance imaging showed non lacunar infarction (subcortical infarction less than or equal to 1.5 cm);\n3. Onset within 72 hours;\n4. Patients or their family members are willing to sign the informed consent.\n\nExclusion criteria\n\n1. Intracranial hemorrhage: cerebral hemorrhage, subarachnoid hemorrhage, etc.;\n2. Transient ischemic attack;\n3. Lacunar infarction;\n4. History of acute stroke within 6 months;\n5. Clear diagnosis of other causes of ischemic stroke (arterial dissection, arteritis, vasospasm, etc.);\n6. The acute infarcts lesion more than one-half lobe in size;\n7. Preceding modified Rankin Scale (mRS) score ≥ 2;\n8. Cumulative usage of traditional Chinese medicine which activating blood circulation more than 3 times after onset, including but not limited to: Danhong, Xueshuantong, Xuesaitong, Ginkgo biloba, sodium ozagrel, Salvia miltiorrhiza, ligustrazine, Erigeron breviscapus, etc;\n9. Chronic liver disease, liver and kidney dysfunction, lifted alanine aminotransferase (\\>3 times the ULN), lifted serum creatinine (\\>2 times the ULN）;\n10. History of coagulopathy, systemic bleeding, thrombocytopenia or neutropenia;\n11. Blood pressure \\>90/60 mmHg or ≤220/120 mmHg after treatment;\n12. Serious heart or lung disease, in the judgment of clinical study staff, would not suitable to participant in the trial;\n13. Patients with atrial fibrillation who were scheduled or likely to receive anticoagulant therapy with unfractionated heparin or low molecular weight heparin within 2 weeks after randomization\n14. A medical condition likely to limit survival to less than three months or any other condition judged by the clinic team to likely limit the adherence to study procedures;\n15. Known allergies for ingredients of the drug, allergy history for food or drug;\n16. Pregnant, currently trying to become pregnant, or of child-bearing potential and not using birth control;\n17. Participation in another clinical trial within 30 days;\n18. Unable to understand and/or comply with the study procedures and/or follow-up studies due to mental illness, cognitive or emotional disorders.\n\nSubgroup Exclusion Criteria\n\n1. History of atrial fibrillation\n2. Atrial fibrillation in 12-lead electrocardiogram (ECG);\n3. Heart rate monitoring (dynamic electrocardiogram telemetry) up to 20 hours or more detected atrial fibrillation for 6 minutes or more;\n4. Intracardiac thrombosis in thoracic or esophageal echocardiography;\n5. Occlusion or proximal vessel infarction for more than 50%.","healthyVolunteers":false,"sex":"ALL","minimumAge":"18 Years","maximumAge":"80 Years","stdAges":["ADULT","OLDER_ADULT"]},"contactsLocationsModule":{"overallOfficials":[{"name":"Wang yongjun, MD","affiliation":"Beijing Tian Tan Hospital, Capital Medical University, Beijing, China","role":"PRINCIPAL_INVESTIGATOR"}],"locations":[{"facility":"Wuhu No.1 People's Hospital","city":"Wuhu","state":"Anhui","country":"China","geoPoint":{"lat":31.33728,"lon":118.37351}},{"facility":"Beijing Tian Tan Hospital, Capital Medical University","city":"Beijing","state":"Beijing","zip":"100050","country":"China","geoPoint":{"lat":39.9075,"lon":116.39723}},{"facility":"Ansteel Group Hospital","city":"Beijing","state":"Beijing","country":"China","geoPoint":{"lat":39.9075,"lon":116.39723}},{"facility":"Beiujing Fengtai Youanmen Hospital","city":"Beijing","state":"Beijing","country":"China","geoPoint":{"lat":39.9075,"lon":116.39723}},{"facility":"The First Hospital of Fangshan District","city":"Beijing","state":"Beijing","country":"China","geoPoint":{"lat":39.9075,"lon":116.39723}},{"facility":"Yongchuan hospital of Traditional Chinese Medicine","city":"Chongqing","state":"Chongqing","country":"China","geoPoint":{"lat":29.56278,"lon":106.55278}},{"facility":"Houjie Hospital","city":"Dongguan","state":"Guangzhou","country":"China","geoPoint":{"lat":23.01797,"lon":113.74866}},{"facility":"Cangzhou Peoole's Hospital","city":"Cangzhou","state":"Hebei","country":"China","geoPoint":{"lat":38.31667,"lon":116.86667}},{"facility":"People's Hospital of Hejian","city":"Cangzhou","state":"Hebei","country":"China","geoPoint":{"lat":38.31667,"lon":116.86667}},{"facility":"Kuancheng County Hospital","city":"Chengde","state":"Hebei","country":"China","geoPoint":{"lat":40.9519,"lon":117.95883}},{"facility":"Traditional Chinese Medicine Hospital of Qiu County","city":"Handan","state":"Hebei","country":"China","geoPoint":{"lat":36.60056,"lon":114.46778}},{"facility":"Hengshui Fourth Hospital","city":"Hengshui","state":"Hebei","country":"China","geoPoint":{"lat":37.73222,"lon":115.70111}},{"facility":"Jizhou District Hospital of Hengshui","city":"Hengshui","state":"Hebei","country":"China","geoPoint":{"lat":37.73222,"lon":115.70111}},{"facility":"Shijiazhuang Pingan Hospital Affiliated to Hebei Medical University","city":"Shijiazhuang","state":"Hebei","country":"China","geoPoint":{"lat":38.04139,"lon":114.47861}},{"facility":"The Second Hospital of Hebei Medical University","city":"Shijiazhuang","state":"Hebei","country":"China","geoPoint":{"lat":38.04139,"lon":114.47861}},{"facility":"The Second Affiliated Hospital of Jiamusi University","city":"Jiamusi","state":"Heilongjiang","country":"China","geoPoint":{"lat":46.79927,"lon":130.31633}},{"facility":"Heilongjiang Province Agricultural Reclamation Mudanjiang Authority Central Hospital","city":"Mudanjiang","state":"Heilongjiang","country":"China","geoPoint":{"lat":44.58333,"lon":129.6}},{"facility":"Handan Municipal Center Hospital","city":"Handan","state":"Henan","country":"China","geoPoint":{"lat":36.60056,"lon":114.46778}},{"facility":"The First Affiliated Hospital of University of South China","city":"Hengyang","state":"Henan","country":"China","geoPoint":{"lat":26.88946,"lon":112.61888}},{"facility":"People's Hospital of Zhongmu","city":"Zhengzhou","state":"Henan","country":"China","geoPoint":{"lat":34.75778,"lon":113.64861}},{"facility":"Zhengzhou Yihe Hospital Affiliated to Henan University","city":"Zhengzhou","state":"Henan","country":"China","geoPoint":{"lat":34.75778,"lon":113.64861}},{"facility":"Jingmen City Hospital of Traditional Chinese Medicine","city":"Jingmen","state":"Hubei","country":"China","geoPoint":{"lat":31.03361,"lon":112.20472}},{"facility":"Wuhan NO.1 Hospital,Wuhan Hospital Of Traditional Chinese And Western Medicine","city":"Wuhan","state":"Hubei","country":"China","geoPoint":{"lat":30.58333,"lon":114.26667}},{"facility":"Jiangsu Province Hospital of TCM","city":"Nanjing","state":"Jiangsu","country":"China","geoPoint":{"lat":32.06167,"lon":118.77778}},{"facility":"Nantong 3rd People's Hospital","city":"Nantong","state":"Jiangsu","country":"China","geoPoint":{"lat":32.03028,"lon":120.87472}},{"facility":"Zhangjiagang First People's Hospital","city":"Suzhou","state":"Jiangsu","country":"China","geoPoint":{"lat":31.30408,"lon":120.59538}},{"facility":"Zhangjiagang Hospital of Traditional Chinese Medicine affiliated to Nanjing University of Chinese Medicine","city":"Suzhou","state":"Jiangsu","country":"China","geoPoint":{"lat":31.30408,"lon":120.59538}},{"facility":"The Affiliated Hospital of Xuzhou Medical College","city":"Xuzhou","state":"Jiangsu","country":"China","geoPoint":{"lat":34.18045,"lon":117.15707}},{"facility":"Jiangxi Provincial People's Hospital","city":"Nanchang","state":"Jiangxi","country":"China","geoPoint":{"lat":28.68396,"lon":115.85306}},{"facility":"The First Hospital of Jilin University-the Eastern Division","city":"Changchun","state":"Jilin","country":"China","geoPoint":{"lat":43.88,"lon":125.32278}},{"facility":"The Second People's Hospital of Huludao","city":"Huludao","state":"Liaoning","country":"China","geoPoint":{"lat":40.75243,"lon":120.83552}},{"facility":"Jinzhou Medical University","city":"Jinzhou","state":"Liaoning","country":"China","geoPoint":{"lat":41.10778,"lon":121.14167}},{"facility":"The First Affiliated Hospital of Baotou Medical College","city":"Baotou","state":"Neimenggu","country":"China","geoPoint":{"lat":40.65222,"lon":109.82222}},{"facility":"Wu Yuan People's Hospital","city":"Bayan Nur","state":"Neimenggu","country":"China","geoPoint":{"lat":38.23333,"lon":103.93333}},{"facility":"Affiliated Hospital of Chifeng University","city":"Chifeng","state":"Neimenggu","country":"China","geoPoint":{"lat":42.26833,"lon":118.96361}},{"facility":"Huimin People's Hospital","city":"Binzhou","state":"Shandong","country":"China","geoPoint":{"lat":37.36667,"lon":118.01667}},{"facility":"Ningjin County People's Hospital","city":"Dezhou","state":"Shandong","country":"China","geoPoint":{"lat":37.45127,"lon":116.31046}},{"facility":"Shandong Provincial Western Hospital","city":"Jinan","state":"Shandong","country":"China","geoPoint":{"lat":36.66833,"lon":116.99722}},{"facility":"People's Hospital of Penglai","city":"Penglai","state":"Shandong","country":"China"},{"facility":"People's Hospital of Qingdao West Coast New Area","city":"Qingdao","state":"Shandong","country":"China","geoPoint":{"lat":36.06488,"lon":120.38042}},{"facility":"Qingdao Haci medical group hospital","city":"Qingdao","state":"Shandong","country":"China","geoPoint":{"lat":36.06488,"lon":120.38042}},{"facility":"The Affiliated Hospital of Qingdao University","city":"Qingdao","state":"Shandong","country":"China","geoPoint":{"lat":36.06488,"lon":120.38042}},{"facility":"First Hospital of Shanxi Medical University","city":"Taiyuan","state":"Shanxi","country":"China","geoPoint":{"lat":37.86944,"lon":112.56028}},{"facility":"The Second People's Hospital of Shenzhen","city":"Shenzhen","state":"Shenzhen","country":"China","geoPoint":{"lat":22.54554,"lon":114.0683}},{"facility":"Dongyang People's Hopital","city":"Dongyang","state":"Zhejiang","country":"China","geoPoint":{"lat":29.26778,"lon":120.22528}},{"facility":"Lishui People's Hospital","city":"Lishui","state":"Zhejiang","country":"China","geoPoint":{"lat":28.46042,"lon":119.91029}},{"facility":"No.1 People's Hospital of Taizhou","city":"Taizhou","state":"Zhejiang","country":"China","geoPoint":{"lat":32.49069,"lon":119.90812}},{"facility":"Ruian People's Hospital","city":"Wenzhou","state":"Zhejiang","country":"China","geoPoint":{"lat":27.99942,"lon":120.66682}}]},"referencesModule":{"references":[{"pmid":"32994371","type":"DERIVED","citation":"Gu HQ, Xie XW, Jing J, Meng X, Lv W, Yu JD, Lv XP, Li H, Wang YL, Wang YJ. Shuxuetong for Prevention of recurrence in Acute Cerebrovascular events with Embolism (SPACE) trial: rationale and design. Stroke Vasc Neurol. 2020 Sep;5(3):311-314. doi: 10.1136/svn-2019-000293. Epub 2020 Feb 27."}]},"ipdSharingStatementModule":{"ipdSharing":"NO"}},"derivedSection":{"miscInfoModule":{"versionHolder":"2024-02-14"},"conditionBrowseModule":{"meshes":[{"id":"D000083262","term":"Embolic Stroke"},{"id":"D000004617","term":"Embolism"},{"id":"D000012008","term":"Recurrence"}],"ancestors":[{"id":"D000020521","term":"Stroke"},{"id":"D000002561","term":"Cerebrovascular Disorders"},{"id":"D000001927","term":"Brain Diseases"},{"id":"D000002493","term":"Central Nervous System Diseases"},{"id":"D000009422","term":"Nervous System Diseases"},{"id":"D000014652","term":"Vascular Diseases"},{"id":"D000002318","term":"Cardiovascular Diseases"},{"id":"D000020969","term":"Disease Attributes"},{"id":"D000010335","term":"Pathologic Processes"},{"id":"D000016769","term":"Embolism and Thrombosis"},{"id":"D000083242","term":"Ischemic Stroke"}],"browseLeaves":[{"id":"M21996","name":"Stroke","relevance":"LOW"},{"id":"M7474","name":"Embolism","asFound":"Embolism","relevance":"HIGH"},{"id":"M14540","name":"Recurrence","asFound":"Recurrence","relevance":"HIGH"},{"id":"M9972","name":"Infarction","relevance":"LOW"},{"id":"M5483","name":"Cerebral Infarction","relevance":"LOW"},{"id":"M2403","name":"Embolic Stroke","asFound":"Embolic Stroke","relevance":"HIGH"},{"id":"M5500","name":"Cerebrovascular Disorders","relevance":"LOW"},{"id":"M4894","name":"Brain Diseases","relevance":"LOW"},{"id":"M5432","name":"Central Nervous System Diseases","relevance":"LOW"},{"id":"M17090","name":"Vascular Diseases","relevance":"LOW"},{"id":"M22390","name":"Disease Attributes","relevance":"LOW"},{"id":"M16376","name":"Thrombosis","relevance":"LOW"},{"id":"M18818","name":"Embolism and Thrombosis","relevance":"LOW"},{"id":"M10233","name":"Ischemia","relevance":"LOW"},{"id":"M2401","name":"Ischemic Stroke","relevance":"LOW"},{"id":"T170","name":"Acute Graft Versus Host Disease","relevance":"LOW"}],"browseBranches":[{"abbrev":"BC10","name":"Nervous System Diseases"},{"abbrev":"BC14","name":"Heart and Blood Diseases"},{"abbrev":"All","name":"All Conditions"},{"abbrev":"BC23","name":"Symptoms and General Pathology"},{"abbrev":"Rare","name":"Rare Diseases"}]}},"hasResults":false}