{"protocolSection":{"identificationModule":{"nctId":"NCT02447081","orgStudyIdInfo":{"id":"SJM-CIP-10053"},"organization":{"fullName":"Abbott Medical Devices","class":"INDUSTRY"},"briefTitle":"Amplatzer™Amulet™ Post-Market Study (Amulet™PMS)","officialTitle":"Amplatzer™Amulet™ Observational Post-Market Study","acronym":"Amulet™PMS"},"statusModule":{"statusVerifiedDate":"2019-12","overallStatus":"COMPLETED","expandedAccessInfo":{"hasExpandedAccess":false},"startDateStruct":{"date":"2015-06-01","type":"ACTUAL"},"primaryCompletionDateStruct":{"date":"2018-10-23","type":"ACTUAL"},"completionDateStruct":{"date":"2018-10-23","type":"ACTUAL"},"studyFirstSubmitDate":"2015-04-27","studyFirstSubmitQcDate":"2015-05-13","studyFirstPostDateStruct":{"date":"2015-05-18","type":"ESTIMATED"},"resultsFirstSubmitDate":"2019-11-01","resultsFirstSubmitQcDate":"2019-12-11","resultsFirstPostDateStruct":{"date":"2019-12-30","type":"ACTUAL"},"lastUpdateSubmitDate":"2019-12-11","lastUpdatePostDateStruct":{"date":"2019-12-30","type":"ACTUAL"}},"sponsorCollaboratorsModule":{"responsibleParty":{"type":"SPONSOR"},"leadSponsor":{"name":"Abbott Medical Devices","class":"INDUSTRY"}},"oversightModule":{"oversightHasDmc":false},"descriptionModule":{"briefSummary":"This was a prospective, multicenter, observational, nonrandomized study to compile real world outcome data on the use of the Amulet™ device in non-valvular atrial fibrillation (NVAF) subjects. The study was designed to follow the Instructions For Use (IFU) to gather data on the implant procedure through two years of follow up with the Amulet™ device in a commercial clinical setting.\"","detailedDescription":"A total of 1088 subjects were enrolled in the study at 61 sites internationally, outside the United States.\n\nThe study assessed acute and late serious adverse events and reports the rate of stroke and bleeding events through 2 years. No formal hypothesis were tested for this observational post-market study.\n\nEach patient was followed at study visits at baseline, implant, 1-3 months, 6 months, 12 months, and 24 months post implant.\""},"conditionsModule":{"conditions":["Atrial Fibrillation","Thromboembolism","Stroke"]},"designModule":{"studyType":"OBSERVATIONAL","patientRegistry":true,"targetDuration":"2 Years","designInfo":{"observationalModel":"OTHER","timePerspective":"PROSPECTIVE"},"enrollmentInfo":{"count":1088,"type":"ACTUAL"}},"armsInterventionsModule":{"armGroups":[{"label":"Subjects implanted with Amulet Device","description":"All subjects who receive the Amulet device will be followed.","interventionNames":["Device: Subjects implanted with Amulet Device"]}],"interventions":[{"type":"DEVICE","name":"Subjects implanted with Amulet Device","description":"Percutaneous Left Atrial Appendage occlusion with successful implant of occlusion device.","armGroupLabels":["Subjects implanted with Amulet Device"]}]},"outcomesModule":{"primaryOutcomes":[{"measure":"Number of Participants With Acute Serious Adverse Events","description":"Acute adverse events were defined as those serious events with an onset date ≤ 7 days post-procedure","timeFrame":"0 to 7 days post procedure"},{"measure":"Number of Participants With Late Serious Adverse Events Greater Than 7 Days Post Procedure","description":"Late adverse events were defined as those serious events with an onset date \\> 7 days post-procedure","timeFrame":"7 days through 2 years"},{"measure":"Number of Participants With Ischemic Stroke, Systemic Embolism and Cardiovascular Death","description":"Occurrence of ischemic stroke, systemic embolism, and cardiovascular death through 2 years","timeFrame":"Implant through 2 years"},{"measure":"Number of Participants With Major Bleeding Events","description":"Clinical events were adjudicated by the CEC as major bleeding events if they met the definition of Type 3 or greater on the Bleeding Academic Research Consortium (BARC) scale.","timeFrame":"Implant through 2 years"}],"secondaryOutcomes":[{"measure":"Number of Participants With Technical Success","description":"Technical success is defined as successful implantation of the Amulet device in the left arterial appendage (LAA).","timeFrame":"During implant procedure, approximately 30 to 60 minutes"},{"measure":"Number of Participants With Procedural Success","description":"Procedural success is based on Amulet device being implanted day 0 through hospital discharge, on average one night stay (day 1). Amulet device implanted and subject discharged the following day without an adverse event","timeFrame":"During the implant procedure and hospital stay, approximately 1 or 2 days"},{"measure":"Number of Participants With Oral Anti-coagulation Usage","timeFrame":"At discharge, approximately 1 or 2 days after the procedure"},{"measure":"Number of Participants With Oral Anti-coagulation Usage","timeFrame":"At 1 to 3 months"},{"measure":"Number of Participants With Oral Anti-coagulation Usage","timeFrame":"At 6 months"},{"measure":"Number of Participants With Oral Anti-coagulation Usage","timeFrame":"At 12 months"},{"measure":"Number of Participants With Oral Anti-coagulation Usage","timeFrame":"At 24 months"}]},"eligibilityModule":{"eligibilityCriteria":"Inclusion Criteria:\n\n1. Subject with history of paroxysmal, persistent or permanent NVAF\n2. Subject who is 18 years or older, or of legal age to give informed consent specific to state and national law\n3. Subject who is eligible for an Amulet LAA Occluder device according to current international guidelines and per physician discretion\n4. Subject who is willing and capable of providing informed consent, participating in all associated study activities\n\nExclusion Criteria:\n\n1. Subject with evidence of an intracardiac thrombus\n2. Subject with active infection or active endocarditis or other infections producing bacteremia\n3. Subject where the placement of the device would interfere with any intracardiac or intravascular structures\n4. Subject with any medical disorder that would interfere with completion or evaluation of clinical study results\n5. Women of childbearing potential who are, or plan to become, pregnant during the time of the study (method of assessment per physician discretion)\n6. Subject with LAA anatomy that does not accommodate a device per the sizing guidelines","healthyVolunteers":false,"sex":"ALL","minimumAge":"18 Years","stdAges":["ADULT","OLDER_ADULT"],"studyPopulation":"Patients with non-valvular atrial fibrillation","samplingMethod":"NON_PROBABILITY_SAMPLE"},"contactsLocationsModule":{"overallOfficials":[{"name":"David Hildick-Smith, MD","affiliation":"Brighton and Sussex University Hospitals","role":"PRINCIPAL_INVESTIGATOR"},{"name":"Claudio Tondo, MD PhD","affiliation":"University of Milan","role":"PRINCIPAL_INVESTIGATOR"}],"locations":[{"facility":"Fiona Stanley Hospital","city":"Murdoch","state":"Western Australia","zip":"WA 6150","country":"Australia","geoPoint":{"lat":-32.06987,"lon":115.83757}},{"facility":"Universitaire Ziekenhuizen Gasthuisberg","city":"Leuven","country":"Belgium","geoPoint":{"lat":50.87959,"lon":4.70093}},{"facility":"Hospital Clinico San Borja Arriaran","city":"Santiago","zip":"83600160","country":"Chile","geoPoint":{"lat":-33.45694,"lon":-70.64827}},{"facility":"Rigshospitalet","city":"Copenhagen","zip":"2100","country":"Denmark","geoPoint":{"lat":55.67594,"lon":12.56553}},{"facility":"Helsinki University Central Hospital","city":"Helsinki","state":"Uusimaa","country":"Finland","geoPoint":{"lat":60.16952,"lon":24.93545}},{"facility":"Turku University Hospital","city":"Turku","country":"Finland","geoPoint":{"lat":60.45148,"lon":22.26869}},{"facility":"Hopital Haut Leveque","city":"Pessac","state":"Aquitaine","zip":"33600","country":"France","geoPoint":{"lat":44.81011,"lon":-0.64129}},{"facility":"CHU du Bocage","city":"Dijon","state":"Burgundy","zip":"21034","country":"France","geoPoint":{"lat":47.31667,"lon":5.01667}},{"facility":"CHRU Lille","city":"Lille","state":"North-Calais","zip":"59037","country":"France","geoPoint":{"lat":50.63297,"lon":3.05858}},{"facility":"CHU d'Amiens","city":"Amiens","state":"Picardy","zip":"80054","country":"France","geoPoint":{"lat":49.9,"lon":2.3}},{"facility":"Klinikum Coburg","city":"Coburg","state":"Bavaria","zip":"96450","country":"Germany","geoPoint":{"lat":50.25937,"lon":10.96384}},{"facility":"Internistische Klinik Dr. Müller, München-Thalkirchen","city":"Muenchen","state":"Bavaria","zip":"81379","country":"Germany","geoPoint":{"lat":51.60698,"lon":13.31243}},{"facility":"Universitaetsklinikum Ulm","city":"Ulm","state":"Bavaria","zip":"89081","country":"Germany","geoPoint":{"lat":48.39841,"lon":9.99155}},{"facility":"Zentrum fur Herzgesundheit/Kardiologie am Alice Hospital Darmstadt","city":"Darmstadt","state":"Hesse","zip":"64287","country":"Germany","geoPoint":{"lat":49.87167,"lon":8.65027}},{"facility":"CardioVaskuläres Centrum St. Katharinen","city":"Frankfurt","state":"Hesse","zip":"60389","country":"Germany","geoPoint":{"lat":50.11552,"lon":8.68417}},{"facility":"Universitätsklinikum Düsseldorf","city":"Duesseldorf","state":"North Rhine-Westphal","zip":"40225","country":"Germany","geoPoint":{"lat":51.22172,"lon":6.77616}},{"facility":"Zentralklinik Bad Berka Gmbh","city":"Bad Berka","state":"Thuringia","zip":"99437","country":"Germany","geoPoint":{"lat":50.89982,"lon":11.28245}},{"facility":"Zentralklinik Bad Berka","city":"Bad Berka","country":"Germany","geoPoint":{"lat":50.89982,"lon":11.28245}},{"facility":"Segeberger Kliniken Gmbh","city":"Bad Segeberg","zip":"23795","country":"Germany","geoPoint":{"lat":53.94313,"lon":10.30215}},{"facility":"Segeberger Kliniken GmbH","city":"Bad Segeberg","country":"Germany","geoPoint":{"lat":53.94313,"lon":10.30215}},{"facility":"Charité - Universitätsmedizin Berlin (CBF)","city":"Berlin","zip":"12203","country":"Germany","geoPoint":{"lat":52.52437,"lon":13.41053}},{"facility":"St. Marien Hospital Bonn","city":"Bonn","zip":"53115","country":"Germany","geoPoint":{"lat":50.73438,"lon":7.09549}},{"facility":"Herzzentrum Dresden","city":"Dresden","country":"Germany","geoPoint":{"lat":51.05089,"lon":13.73832}},{"facility":"Cardioangiologisches Centrum Bethanien","city":"Frankfurt","zip":"60431","country":"Germany","geoPoint":{"lat":50.11552,"lon":8.68417}},{"facility":"Klinikum Frankfurt Höchst","city":"Frankfurt","zip":"65929","country":"Germany","geoPoint":{"lat":50.11552,"lon":8.68417}},{"facility":"Harzklinikum Dorothea Christiane Erxleben GmbH","city":"Quedlinburg","country":"Germany","geoPoint":{"lat":51.78843,"lon":11.15006}},{"facility":"Rems-Murr-Klinikum Winnenden","city":"Winnenden","zip":"71364","country":"Germany","geoPoint":{"lat":48.87563,"lon":9.39819}},{"facility":"Mater Hospital","city":"Dublin","country":"Ireland","geoPoint":{"lat":53.33306,"lon":-6.24889}},{"facility":"The Chaim Sheba Medical Center","city":"Tel Hashomer","zip":"52621","country":"Israel","geoPoint":{"lat":32.04195,"lon":34.85623}},{"facility":"Nuovo Ospedale Civile Sant'Agostino Estense","city":"Baggiovara, 1355","state":"Modena","zip":"41126","country":"Italy","geoPoint":{"lat":44.60416,"lon":10.86256}},{"facility":"Ospedale dell'Angelo and Ospedale SS Giovanni e Paolo Venezia","city":"Mestre","state":"Veneto","zip":"30174","country":"Italy","geoPoint":{"lat":45.49167,"lon":12.24538}},{"facility":"Università degli Studi di Padova","city":"Padova","state":"Veneto","zip":"35128","country":"Italy","geoPoint":{"lat":45.40797,"lon":11.88586}},{"facility":"Azienda Ospedaliera S. Anna e S. Sebastiano","city":"Caserta","zip":"81100","country":"Italy","geoPoint":{"lat":41.07262,"lon":14.33231}},{"facility":"Ospedale del Cuoro Fondazione C. N. R. Regione Toscana G. Monasterio","city":"Massa","country":"Italy","geoPoint":{"lat":44.03541,"lon":10.13927}},{"facility":"Ospedale Luigi Sacco","city":"Milano","zip":"20157","country":"Italy","geoPoint":{"lat":45.46427,"lon":9.18951}},{"facility":"Cardiac Arrhythmia Research Center, Centro Cardiologico Monzino, Unveristiy of Milan","city":"Milan","country":"Italy","geoPoint":{"lat":45.46427,"lon":9.18951}},{"facility":"San Raffaele Hospital","city":"Milan","country":"Italy","geoPoint":{"lat":45.46427,"lon":9.18951}},{"facility":"Amsterdam Academic Medical Centre","city":"Veenendaal","country":"Netherlands","geoPoint":{"lat":52.02863,"lon":5.55891}},{"facility":"Ulleval Universitetssykehus","city":"Oslo","zip":"0407","country":"Norway","geoPoint":{"lat":59.91273,"lon":10.74609}},{"facility":"The Cardinal Stefan Wyszynski Institute of Cardiology","city":"Warsaw","zip":"04-628","country":"Poland","geoPoint":{"lat":52.22977,"lon":21.01178}},{"facility":"Slaskie Centrum Chorob Serca","city":"Warszawa","zip":"01-785","country":"Poland","geoPoint":{"lat":52.22977,"lon":21.01178}},{"facility":"Hospital Universitario Virgen Macarena","city":"Sevilla","state":"Andalusia","zip":"41007","country":"Spain","geoPoint":{"lat":37.38283,"lon":-5.97317}},{"facility":"Hospital Universitario Son Espases","city":"Palma de Mallorca","state":"Balearic Island","zip":"07120","country":"Spain","geoPoint":{"lat":39.56939,"lon":2.65024}},{"facility":"Hospital Universitario de Salamanca","city":"Salamanca","state":"Castile And Leon","zip":"37007","country":"Spain","geoPoint":{"lat":40.96882,"lon":-5.66388}},{"facility":"Hospital de la Santa Creu I Sant Pau","city":"Barcelona","state":"Catalonia","zip":"08025","country":"Spain","geoPoint":{"lat":41.38879,"lon":2.15899}},{"facility":"Hospital Universitario Infanta Cristina","city":"Badajoz","state":"Extremadura","zip":"6080","country":"Spain","geoPoint":{"lat":38.87789,"lon":-6.97061}},{"facility":"Hospital Clinic I Provincial de Barcelona","city":"Barcelona","zip":"8028","country":"Spain","geoPoint":{"lat":41.38879,"lon":2.15899}},{"facility":"Karolinska University Hospital Huddinge","city":"Stockholm","zip":"17176","country":"Sweden","geoPoint":{"lat":59.33258,"lon":18.0649}},{"facility":"Liverpool Heart and Chest Hospital","city":"Liverpool","state":"Northwest England","country":"United Kingdom","geoPoint":{"lat":53.41058,"lon":-2.97794}},{"facility":"The Royal Sussex Country Hospital","city":"Brighton","state":"South East England","country":"United Kingdom","geoPoint":{"lat":50.82838,"lon":-0.13947}},{"facility":"St Thomas Hospital","city":"London","zip":"SE1 7EH","country":"United Kingdom","geoPoint":{"lat":51.50853,"lon":-0.12574}}]},"referencesModule":{"references":[{"pmid":"34381870","type":"DERIVED","citation":"De Caterina AR, Nielsen-Kudsk JE, Schmidt B, Mazzone P, Fischer S, Lund J, Montorfano M, Gage R, Lam SCC, Berti S. Gender difference in left atrial appendage occlusion outcomes: Results from the Amplatzer Amulet Observational Study. Int J Cardiol Heart Vasc. 2021 Jul 26;35:100848. doi: 10.1016/j.ijcha.2021.100848. eCollection 2021 Aug."},{"pmid":"33762228","type":"DERIVED","citation":"Piayda K, Hellhammer K, Nielsen-Kudsk JE, Schmidt B, Mazzone P, Berti S, Fischer S, Lund J, Montorfano M, Della Bella P, Gage R, Zeus T. Clinical outcomes of patients undergoing percutaneous left atrial appendage occlusion in general anaesthesia or conscious sedation: data from the prospective global Amplatzer Amulet Occluder Observational Study. BMJ Open. 2021 Mar 24;11(3):e040455. doi: 10.1136/bmjopen-2020-040455."},{"pmid":"33495144","type":"DERIVED","citation":"Aminian A, De Backer O, Nielsen-Kudsk JE, Mazzone P, Berti S, Fischer S, Lund J, Montorfano M, Lam SCC, Freixa X, Gage R, Diener HC, Schmidt B. Incidence and clinical impact of major bleeding following left atrial appendage occlusion: insights from the Amplatzer Amulet Observational Post-Market Study. EuroIntervention. 2021 Oct 20;17(9):774-782. doi: 10.4244/EIJ-D-20-01309."},{"pmid":"32972570","type":"DERIVED","citation":"Tarantini G, D'Amico G, Schmidt B, Mazzone P, Berti S, Fischer S, Lund J, Montorfano M, Della Bella P, Lam SCC, Cruz-Gonzalez I, Gage R, Zhao H, Omran H, Odenstedt J, Nielsen-Kudsk JE. The Impact of CHA2DS2-VASc and HAS-BLED Scores on Clinical Outcomes in the Amplatzer Amulet Study. JACC Cardiovasc Interv. 2020 Sep 28;13(18):2099-2108. doi: 10.1016/j.jcin.2020.06.003."}]}},"resultsSection":{"participantFlowModule":{"recruitmentDetails":"A total of 1088 subjects were enrolled and attempted implant with Amulet left atrial appendage occluder conducted at 61 sites between June 01, 2015 and September 19, 2016. The final study visit at 2 years post-implant was completed by 864 subjects, with the last study visit occurring in October 2018.","groups":[{"id":"FG000","title":"Subjects Implanted With Amulet Device","description":"Subjects implanted with Amulet Device: Percutaneous Left Atrial Appendage occlusion with successful implant of occlusion device."}],"periods":[{"title":"Overall Study","milestones":[{"type":"STARTED","achievements":[{"groupId":"FG000","numSubjects":"1088"}]},{"type":"COMPLETED","achievements":[{"groupId":"FG000","numSubjects":"864"}]},{"type":"NOT COMPLETED","achievements":[{"groupId":"FG000","numSubjects":"224"}]}],"dropWithdraws":[{"type":"Death","reasons":[{"groupId":"FG000","numSubjects":"161"}]},{"type":"Lost to Follow-up","reasons":[{"groupId":"FG000","numSubjects":"36"}]},{"type":"Visit not completed","reasons":[{"groupId":"FG000","numSubjects":"17"}]},{"type":"unsuccessful implant procedure","reasons":[{"groupId":"FG000","numSubjects":"10"}]}]}]},"baselineCharacteristicsModule":{"groups":[{"id":"BG000","title":"Subjects Implanted With Amulet Device","description":"All subjects who received the Amulet device were followed.\n\nSubjects implanted with Amulet Device: Percutaneous Left Atrial Appendage occlusion with successful implant of occlusion device."}],"denoms":[{"units":"Participants","counts":[{"groupId":"BG000","value":"1088"}]}],"measures":[{"title":"Age, Categorical","paramType":"COUNT_OF_PARTICIPANTS","unitOfMeasure":"Participants","classes":[{"denoms":[{"units":"Participants","counts":[{"groupId":"BG000","value":"1088"}]}],"categories":[{"title":"<=18 years","measurements":[{"groupId":"BG000","value":"0"}]},{"title":"Between 18 and 65 years","measurements":[{"groupId":"BG000","value":"122"}]},{"title":">=65 years","measurements":[{"groupId":"BG000","value":"966"}]}]}]},{"title":"Age, Continuous","paramType":"MEAN","dispersionType":"STANDARD_DEVIATION","unitOfMeasure":"years","classes":[{"denoms":[{"units":"Participants","counts":[{"groupId":"BG000","value":"1088"}]}],"categories":[{"measurements":[{"groupId":"BG000","value":"75.2","spread":"8.5"}]}]}]},{"title":"Sex: Female, Male","paramType":"COUNT_OF_PARTICIPANTS","unitOfMeasure":"Participants","classes":[{"denoms":[{"units":"Participants","counts":[{"groupId":"BG000","value":"1088"}]}],"categories":[{"title":"Female","measurements":[{"groupId":"BG000","value":"386"}]},{"title":"Male","measurements":[{"groupId":"BG000","value":"702"}]}]}]},{"title":"Race and Ethnicity Not Collected","populationDescription":"Race and Ethnicity were not collected from any participant.","paramType":"COUNT_OF_PARTICIPANTS","unitOfMeasure":"Participants","classes":[{"denoms":[{"units":"Participants","counts":[{"groupId":"BG000","value":"0"}]}]}]},{"title":"Region of Enrollment","paramType":"NUMBER","unitOfMeasure":"participants","classes":[{"title":"United Kingdom","denoms":[{"units":"Participants","counts":[{"groupId":"BG000","value":"1088"}]}],"categories":[{"measurements":[{"groupId":"BG000","value":"59"}]}]},{"title":"Spain","denoms":[{"units":"Participants","counts":[{"groupId":"BG000","value":"1088"}]}],"categories":[{"measurements":[{"groupId":"BG000","value":"105"}]}]},{"title":"Netherlands","denoms":[{"units":"Participants","counts":[{"groupId":"BG000","value":"1088"}]}],"categories":[{"measurements":[{"groupId":"BG000","value":"1"}]}]},{"title":"Sweden","denoms":[{"units":"Participants","counts":[{"groupId":"BG000","value":"1088"}]}],"categories":[{"measurements":[{"groupId":"BG000","value":"13"}]}]},{"title":"Belgium","denoms":[{"units":"Participants","counts":[{"groupId":"BG000","value":"1088"}]}],"categories":[{"measurements":[{"groupId":"BG000","value":"17"}]}]},{"title":"Norway","denoms":[{"units":"Participants","counts":[{"groupId":"BG000","value":"1088"}]}],"categories":[{"measurements":[{"groupId":"BG000","value":"5"}]}]},{"title":"Finland","denoms":[{"units":"Participants","counts":[{"groupId":"BG000","value":"1088"}]}],"categories":[{"measurements":[{"groupId":"BG000","value":"55"}]}]},{"title":"Poland","denoms":[{"units":"Participants","counts":[{"groupId":"BG000","value":"1088"}]}],"categories":[{"measurements":[{"groupId":"BG000","value":"26"}]}]},{"title":"Denmark","denoms":[{"units":"Participants","counts":[{"groupId":"BG000","value":"1088"}]}],"categories":[{"measurements":[{"groupId":"BG000","value":"62"}]}]},{"title":"Italy","denoms":[{"units":"Participants","counts":[{"groupId":"BG000","value":"1088"}]}],"categories":[{"measurements":[{"groupId":"BG000","value":"178"}]}]},{"title":"Israel","denoms":[{"units":"Participants","counts":[{"groupId":"BG000","value":"1088"}]}],"categories":[{"measurements":[{"groupId":"BG000","value":"1"}]}]},{"title":"Australia","denoms":[{"units":"Participants","counts":[{"groupId":"BG000","value":"1088"}]}],"categories":[{"measurements":[{"groupId":"BG000","value":"70"}]}]},{"title":"France","denoms":[{"units":"Participants","counts":[{"groupId":"BG000","value":"1088"}]}],"categories":[{"measurements":[{"groupId":"BG000","value":"65"}]}]},{"title":"Chile","denoms":[{"units":"Participants","counts":[{"groupId":"BG000","value":"1088"}]}],"categories":[{"measurements":[{"groupId":"BG000","value":"6"}]}]},{"title":"Germany","denoms":[{"units":"Participants","counts":[{"groupId":"BG000","value":"1088"}]}],"categories":[{"measurements":[{"groupId":"BG000","value":"378"}]}]},{"title":"Hong Kong","denoms":[{"units":"Participants","counts":[{"groupId":"BG000","value":"1088"}]}],"categories":[{"measurements":[{"groupId":"BG000","value":"41"}]}]},{"title":"Switzerland","denoms":[{"units":"Participants","counts":[{"groupId":"BG000","value":"1088"}]}],"categories":[{"measurements":[{"groupId":"BG000","value":"6"}]}]}]}]},"outcomeMeasuresModule":{"outcomeMeasures":[{"type":"PRIMARY","title":"Number of Participants With Acute Serious Adverse Events","description":"Acute adverse events were defined as those serious events with an onset date ≤ 7 days post-procedure","reportingStatus":"POSTED","paramType":"COUNT_OF_PARTICIPANTS","unitOfMeasure":"Participants","timeFrame":"0 to 7 days post procedure","groups":[{"id":"OG000","title":"Subjects Implanted With Amulet Device","description":"All subjects who received the Amulet device were followed.\n\nSubjects implanted with Amulet Device: Percutaneous Left Atrial Appendage occlusion with successful implant of occlusion device."}],"denoms":[{"units":"Participants","counts":[{"groupId":"OG000","value":"1088"}]}],"classes":[{"categories":[{"measurements":[{"groupId":"OG000","value":"83"}]}]}]},{"type":"PRIMARY","title":"Number of Participants With Late Serious Adverse Events Greater Than 7 Days Post Procedure","description":"Late adverse events were defined as those serious events with an onset date \\> 7 days post-procedure","reportingStatus":"POSTED","paramType":"COUNT_OF_PARTICIPANTS","unitOfMeasure":"Participants","timeFrame":"7 days through 2 years","groups":[{"id":"OG000","title":"Subjects Implanted With Amulet Device","description":"All subjects who received the Amulet device were followed.\n\nSubjects implanted with Amulet Device: Percutaneous Left Atrial Appendage occlusion with successful implant of occlusion device."}],"denoms":[{"units":"Participants","counts":[{"groupId":"OG000","value":"1088"}]}],"classes":[{"categories":[{"measurements":[{"groupId":"OG000","value":"504"}]}]}]},{"type":"PRIMARY","title":"Number of Participants With Ischemic Stroke, Systemic Embolism and Cardiovascular Death","description":"Occurrence of ischemic stroke, systemic embolism, and cardiovascular death through 2 years","reportingStatus":"POSTED","paramType":"COUNT_OF_PARTICIPANTS","unitOfMeasure":"Participants","timeFrame":"Implant through 2 years","groups":[{"id":"OG000","title":"Subjects Implanted With Amulet Device","description":"All subjects who received the Amulet device were followed.\n\nSubjects implanted with Amulet Device: Percutaneous Left Atrial Appendage occlusion with successful implant of occlusion device."}],"denoms":[{"units":"Participants","counts":[{"groupId":"OG000","value":"1088"}]}],"classes":[{"categories":[{"measurements":[{"groupId":"OG000","value":"122"}]}]}]},{"type":"PRIMARY","title":"Number of Participants With Major Bleeding Events","description":"Clinical events were adjudicated by the CEC as major bleeding events if they met the definition of Type 3 or greater on the Bleeding Academic Research Consortium (BARC) scale.","reportingStatus":"POSTED","paramType":"COUNT_OF_PARTICIPANTS","unitOfMeasure":"Participants","timeFrame":"Implant through 2 years","groups":[{"id":"OG000","title":"Subjects Implanted With Amulet Device","description":"All subjects who received the Amulet device were followed.\n\nSubjects implanted with Amulet Device: Percutaneous Left Atrial Appendage occlusion with successful implant of occlusion device."}],"denoms":[{"units":"Participants","counts":[{"groupId":"OG000","value":"1088"}]}],"classes":[{"categories":[{"measurements":[{"groupId":"OG000","value":"110"}]}]}]},{"type":"SECONDARY","title":"Number of Participants With Technical Success","description":"Technical success is defined as successful implantation of the Amulet device in the left arterial appendage (LAA).","reportingStatus":"POSTED","paramType":"COUNT_OF_PARTICIPANTS","unitOfMeasure":"Participants","timeFrame":"During implant procedure, approximately 30 to 60 minutes","groups":[{"id":"OG000","title":"Subjects Implanted With Amulet Device","description":"All subjects who received the Amulet device were followed.\n\nSubjects implanted with Amulet Device: Percutaneous Left Atrial Appendage occlusion with successful implant of occlusion device."}],"denoms":[{"units":"Participants","counts":[{"groupId":"OG000","value":"1088"}]}],"classes":[{"categories":[{"measurements":[{"groupId":"OG000","value":"1078"}]}]}]},{"type":"SECONDARY","title":"Number of Participants With Procedural Success","description":"Procedural success is based on Amulet device being implanted day 0 through hospital discharge, on average one night stay (day 1). Amulet device implanted and subject discharged the following day without an adverse event","reportingStatus":"POSTED","paramType":"COUNT_OF_PARTICIPANTS","unitOfMeasure":"Participants","timeFrame":"During the implant procedure and hospital stay, approximately 1 or 2 days","groups":[{"id":"OG000","title":"Subjects Implanted With Amulet Device","description":"All subjects who received the Amulet device were followed.\n\nSubjects implanted with Amulet Device: Percutaneous Left Atrial Appendage occlusion with successful implant of occlusion device."}],"denoms":[{"units":"Participants","counts":[{"groupId":"OG000","value":"1088"}]}],"classes":[{"categories":[{"measurements":[{"groupId":"OG000","value":"1039"}]}]}]},{"type":"SECONDARY","title":"Number of Participants With Oral Anti-coagulation Usage","populationDescription":"The number of participates completing a study visit at the Time Frame","reportingStatus":"POSTED","paramType":"COUNT_OF_PARTICIPANTS","unitOfMeasure":"Participants","timeFrame":"At discharge, approximately 1 or 2 days after the procedure","groups":[{"id":"OG000","title":"Subjects Implanted With Amulet Device","description":"All subjects who received the Amulet device were followed.\n\nSubjects implanted with Amulet Device: Percutaneous Left Atrial Appendage occlusion with successful implant of occlusion device."}],"denoms":[{"units":"Participants","counts":[{"groupId":"OG000","value":"1074"}]}],"classes":[{"title":"OAC without anti-platelet therapy","categories":[{"measurements":[{"groupId":"OG000","value":"49"}]}]},{"title":"OAC with antiplatelet therapy","categories":[{"measurements":[{"groupId":"OG000","value":"71"}]}]}]},{"type":"SECONDARY","title":"Number of Participants With Oral Anti-coagulation Usage","populationDescription":"The number of participates completing a study visit at the Time Frame","reportingStatus":"POSTED","paramType":"COUNT_OF_PARTICIPANTS","unitOfMeasure":"Participants","timeFrame":"At 1 to 3 months","groups":[{"id":"OG000","title":"Subjects Implanted With Amulet Device","description":"All subjects who received the Amulet device were followed.\n\nSubjects implanted with Amulet Device: Percutaneous Left Atrial Appendage occlusion with successful implant of occlusion device."}],"denoms":[{"units":"Participants","counts":[{"groupId":"OG000","value":"1018"}]}],"classes":[{"title":"OAC without anti-platelet therapy","categories":[{"measurements":[{"groupId":"OG000","value":"29"}]}]},{"title":"OAC with anti-platelet therapy","categories":[{"measurements":[{"groupId":"OG000","value":"34"}]}]}]},{"type":"SECONDARY","title":"Number of Participants With Oral Anti-coagulation Usage","populationDescription":"The number of participates completing a study visit at the Time Frame","reportingStatus":"POSTED","paramType":"COUNT_OF_PARTICIPANTS","unitOfMeasure":"Participants","timeFrame":"At 6 months","groups":[{"id":"OG000","title":"Subjects Implanted With Amulet Device","description":"All subjects who received the Amulet device were followed.\n\nSubjects implanted with Amulet Device: Percutaneous Left Atrial Appendage occlusion with successful implant of occlusion device."}],"denoms":[{"units":"Participants","counts":[{"groupId":"OG000","value":"1009"}]}],"classes":[{"title":"OAC without anti-platelet therapy","categories":[{"measurements":[{"groupId":"OG000","value":"33"}]}]},{"title":"OAC with anti-platelet therapy","categories":[{"measurements":[{"groupId":"OG000","value":"23"}]}]}]},{"type":"SECONDARY","title":"Number of Participants With Oral Anti-coagulation Usage","populationDescription":"The number of participates completing a study visit at the Time Frame","reportingStatus":"POSTED","paramType":"COUNT_OF_PARTICIPANTS","unitOfMeasure":"Participants","timeFrame":"At 12 months","groups":[{"id":"OG000","title":"Subjects Implanted With Amulet Device","description":"All subjects who received the Amulet device were followed.\n\nSubjects implanted with Amulet Device: Percutaneous Left Atrial Appendage occlusion with successful implant of occlusion device."}],"denoms":[{"units":"Participants","counts":[{"groupId":"OG000","value":"950"}]}],"classes":[{"title":"OAC without anti-platelet therapy","categories":[{"measurements":[{"groupId":"OG000","value":"35"}]}]},{"title":"OAC with anti-platelet therapy","categories":[{"measurements":[{"groupId":"OG000","value":"21"}]}]}]},{"type":"SECONDARY","title":"Number of Participants With Oral Anti-coagulation Usage","reportingStatus":"POSTED","paramType":"COUNT_OF_PARTICIPANTS","unitOfMeasure":"Participants","timeFrame":"At 24 months","groups":[{"id":"OG000","title":"Subjects Implanted With Amulet Device","description":"All subjects who received the Amulet device were followed.\n\nSubjects implanted with Amulet Device: Percutaneous Left Atrial Appendage occlusion with successful implant of occlusion device."}],"denoms":[{"units":"Participants","counts":[{"groupId":"OG000","value":"864"}]}],"classes":[{"title":"OAC without anti-platelet therapy","categories":[{"measurements":[{"groupId":"OG000","value":"38"}]}]},{"title":"OAC with anti-platelet therapy","categories":[{"measurements":[{"groupId":"OG000","value":"19"}]}]}]}]},"adverseEventsModule":{"frequencyThreshold":"0","timeFrame":"2 years","description":"Non-serious adverse event information was not analyzed.","eventGroups":[{"id":"EG000","title":"Subjects Implanted With Amulet Device","description":"All subjects who received the Amulet device were followed.\n\nSubjects implanted with Amulet Device: Percutaneous Left Atrial Appendage occlusion with successful implant of occlusion device.","deathsNumAffected":161,"deathsNumAtRisk":1088,"seriousNumAffected":538,"seriousNumAtRisk":1088,"otherNumAffected":0,"otherNumAtRisk":0}],"seriousEvents":[{"term":"Abdominal Pain","organSystem":"Gastrointestinal disorders","assessmentType":"SYSTEMATIC_ASSESSMENT","stats":[{"groupId":"EG000","numAffected":2,"numAtRisk":1088}]},{"term":"Acute bacterial endocarditis","organSystem":"Cardiac disorders","sourceVocabulary":"MedDRA (10.0)","assessmentType":"SYSTEMATIC_ASSESSMENT","stats":[{"groupId":"EG000","numAffected":1,"numAtRisk":1088}]},{"term":"Acute bronchitis","organSystem":"Respiratory, thoracic and mediastinal disorders","sourceVocabulary":"MedDRA (10.0)","assessmentType":"SYSTEMATIC_ASSESSMENT","stats":[{"groupId":"EG000","numAffected":5,"numAtRisk":1088}]},{"term":"Acute erosive gastritis","organSystem":"Gastrointestinal disorders","assessmentType":"SYSTEMATIC_ASSESSMENT","stats":[{"groupId":"EG000","numAffected":3,"numAtRisk":1088}]},{"term":"Acute kidney injury","organSystem":"Renal and urinary disorders","assessmentType":"SYSTEMATIC_ASSESSMENT","stats":[{"groupId":"EG000","numAffected":2,"numAtRisk":1088}]},{"term":"Acute pancreatitis","organSystem":"Gastrointestinal disorders","assessmentType":"SYSTEMATIC_ASSESSMENT","stats":[{"groupId":"EG000","numAffected":1,"numAtRisk":1088}]},{"term":"Acute pulmonary edema","organSystem":"Respiratory, thoracic and mediastinal disorders","assessmentType":"SYSTEMATIC_ASSESSMENT","stats":[{"groupId":"EG000","numAffected":2,"numAtRisk":1088}]},{"term":"Acute renal failure","organSystem":"Renal and urinary disorders","assessmentType":"SYSTEMATIC_ASSESSMENT","stats":[{"groupId":"EG000","numAffected":20,"numAtRisk":1088}]},{"term":"Acute subdural hematoma","organSystem":"Nervous system disorders","assessmentType":"SYSTEMATIC_ASSESSMENT","stats":[{"groupId":"EG000","numAffected":1,"numAtRisk":1088}]},{"term":"Adult respiratory distress syndrome(ARDS)","organSystem":"Respiratory, thoracic and mediastinal disorders","assessmentType":"SYSTEMATIC_ASSESSMENT","stats":[{"groupId":"EG000","numAffected":1,"numAtRisk":1088}]},{"term":"Air embolus","organSystem":"Respiratory, thoracic and mediastinal disorders","assessmentType":"SYSTEMATIC_ASSESSMENT","stats":[{"groupId":"EG000","numAffected":1,"numAtRisk":1088}]},{"term":"Alcohol intoxication","organSystem":"Injury, poisoning and procedural complications","assessmentType":"SYSTEMATIC_ASSESSMENT","stats":[{"groupId":"EG000","numAffected":2,"numAtRisk":1088}]},{"term":"Anemias","organSystem":"Blood and lymphatic system disorders","assessmentType":"SYSTEMATIC_ASSESSMENT","stats":[{"groupId":"EG000","numAffected":26,"numAtRisk":1088}]},{"term":"Angina pectoris","organSystem":"Cardiac disorders","assessmentType":"SYSTEMATIC_ASSESSMENT","stats":[{"groupId":"EG000","numAffected":8,"numAtRisk":1088}]},{"term":"Aortic dissection","organSystem":"Cardiac disorders","assessmentType":"SYSTEMATIC_ASSESSMENT","stats":[{"groupId":"EG000","numAffected":2,"numAtRisk":1088}]},{"term":"Aortic value stenosis","organSystem":"Cardiac disorders","assessmentType":"SYSTEMATIC_ASSESSMENT","stats":[{"groupId":"EG000","numAffected":5,"numAtRisk":1088}]},{"term":"Aphasia","organSystem":"Nervous system disorders","assessmentType":"SYSTEMATIC_ASSESSMENT","stats":[{"groupId":"EG000","numAffected":1,"numAtRisk":1088}]},{"term":"Arm fracture","organSystem":"Musculoskeletal and connective tissue disorders","assessmentType":"SYSTEMATIC_ASSESSMENT","stats":[{"groupId":"EG000","numAffected":2,"numAtRisk":1088}]},{"term":"Arterial hypertension/Hypertension","organSystem":"Cardiac disorders","assessmentType":"SYSTEMATIC_ASSESSMENT","stats":[{"groupId":"EG000","numAffected":5,"numAtRisk":1088}]},{"term":"Ascites","organSystem":"Cardiac disorders","assessmentType":"SYSTEMATIC_ASSESSMENT","stats":[{"groupId":"EG000","numAffected":7,"numAtRisk":1088}]},{"term":"Aspiration Pneumonia/Necrotizing pneumonia/Aspiration of vomitus","organSystem":"Gastrointestinal disorders","assessmentType":"SYSTEMATIC_ASSESSMENT","stats":[{"groupId":"EG000","numAffected":4,"numAtRisk":1088}]},{"term":"Atrial fibrillation","organSystem":"Cardiac disorders","assessmentType":"SYSTEMATIC_ASSESSMENT","stats":[{"groupId":"EG000","numAffected":37,"numAtRisk":1088}]},{"term":"Atrial flutter","organSystem":"Cardiac disorders","assessmentType":"SYSTEMATIC_ASSESSMENT","stats":[{"groupId":"EG000","numAffected":8,"numAtRisk":1088}]},{"term":"Atrial tachycardia","organSystem":"Cardiac disorders","assessmentType":"SYSTEMATIC_ASSESSMENT","stats":[{"groupId":"EG000","numAffected":2,"numAtRisk":1088}]},{"term":"Atrioventricular block","organSystem":"Cardiac disorders","assessmentType":"SYSTEMATIC_ASSESSMENT","stats":[{"groupId":"EG000","numAffected":5,"numAtRisk":1088}]},{"term":"Atrioventricular dissociation","organSystem":"Cardiac disorders","assessmentType":"SYSTEMATIC_ASSESSMENT","stats":[{"groupId":"EG000","numAffected":1,"numAtRisk":1088}]},{"term":"Back pain","organSystem":"Musculoskeletal and connective tissue disorders","assessmentType":"SYSTEMATIC_ASSESSMENT","stats":[{"groupId":"EG000","numAffected":1,"numAtRisk":1088}]},{"term":"Bacterial infection","organSystem":"Infections and infestations","assessmentType":"SYSTEMATIC_ASSESSMENT","stats":[{"groupId":"EG000","numAffected":19,"numAtRisk":1088}]},{"term":"Bacterial infections of the skin","organSystem":"Infections and infestations","assessmentType":"SYSTEMATIC_ASSESSMENT","stats":[{"groupId":"EG000","numAffected":7,"numAtRisk":1088}]},{"term":"Benign Tumors","organSystem":"Gastrointestinal disorders","assessmentType":"SYSTEMATIC_ASSESSMENT","stats":[{"groupId":"EG000","numAffected":2,"numAtRisk":1088}]},{"term":"Bleeding","organSystem":"Blood and lymphatic system disorders","assessmentType":"SYSTEMATIC_ASSESSMENT","stats":[{"groupId":"EG000","numAffected":6,"numAtRisk":1088}]},{"term":"Bowel Obstruction","organSystem":"Gastrointestinal disorders","sourceVocabulary":"MedDRA (10.0)","assessmentType":"SYSTEMATIC_ASSESSMENT","stats":[{"groupId":"EG000","numAffected":2,"numAtRisk":1088}]},{"term":"Brain Tumor","organSystem":"Nervous system disorders","sourceVocabulary":"MedDRA (10.0)","assessmentType":"SYSTEMATIC_ASSESSMENT","stats":[{"groupId":"EG000","numAffected":1,"numAtRisk":1088}]},{"term":"Breast Cancer","organSystem":"Neoplasms benign, malignant and unspecified (incl cysts and polyps)","sourceVocabulary":"MedDRA (10.0)","assessmentType":"SYSTEMATIC_ASSESSMENT","stats":[{"groupId":"EG000","numAffected":1,"numAtRisk":1088}]},{"term":"Bronchitis","organSystem":"Respiratory, thoracic and mediastinal disorders","sourceVocabulary":"MedDRA (10.0)","assessmentType":"SYSTEMATIC_ASSESSMENT","stats":[{"groupId":"EG000","numAffected":2,"numAtRisk":1088}]},{"term":"Burns","organSystem":"Injury, poisoning and procedural complications","sourceVocabulary":"MedDRA (10.0)","assessmentType":"SYSTEMATIC_ASSESSMENT","stats":[{"groupId":"EG000","numAffected":1,"numAtRisk":1088}]},{"term":"Bursitis","organSystem":"Musculoskeletal and connective tissue disorders","assessmentType":"SYSTEMATIC_ASSESSMENT","stats":[{"groupId":"EG000","numAffected":1,"numAtRisk":1088}]},{"term":"Cancer","organSystem":"Neoplasms benign, malignant and unspecified (incl cysts and polyps)","assessmentType":"SYSTEMATIC_ASSESSMENT","stats":[{"groupId":"EG000","numAffected":23,"numAtRisk":1088}]},{"term":"Cardiac Arrest","organSystem":"Cardiac disorders","assessmentType":"SYSTEMATIC_ASSESSMENT","stats":[{"groupId":"EG000","numAffected":12,"numAtRisk":1088}]},{"term":"Cardiac Decompensation","organSystem":"Cardiac disorders","sourceVocabulary":"MedDRA (10.0)","assessmentType":"SYSTEMATIC_ASSESSMENT","stats":[{"groupId":"EG000","numAffected":15,"numAtRisk":1088}]},{"term":"Cardiac Perforation","organSystem":"Cardiac disorders","assessmentType":"SYSTEMATIC_ASSESSMENT","stats":[{"groupId":"EG000","numAffected":1,"numAtRisk":1088}]},{"term":"Cardiogenic Shock","organSystem":"Cardiac disorders","assessmentType":"SYSTEMATIC_ASSESSMENT","stats":[{"groupId":"EG000","numAffected":1,"numAtRisk":1088}]},{"term":"Cellulitis","organSystem":"Infections and infestations","assessmentType":"SYSTEMATIC_ASSESSMENT","stats":[{"groupId":"EG000","numAffected":2,"numAtRisk":1088}]},{"term":"Cerebral Aneurysm","organSystem":"Nervous system disorders","assessmentType":"SYSTEMATIC_ASSESSMENT","stats":[{"groupId":"EG000","numAffected":1,"numAtRisk":1088}]},{"term":"Chest Pain","organSystem":"Cardiac disorders","assessmentType":"SYSTEMATIC_ASSESSMENT","stats":[{"groupId":"EG000","numAffected":7,"numAtRisk":1088}]},{"term":"Cholecystitis","organSystem":"Hepatobiliary disorders","assessmentType":"SYSTEMATIC_ASSESSMENT","stats":[{"groupId":"EG000","numAffected":2,"numAtRisk":1088}]},{"term":"Choledocholithiaisis","organSystem":"Hepatobiliary disorders","assessmentType":"SYSTEMATIC_ASSESSMENT","stats":[{"groupId":"EG000","numAffected":1,"numAtRisk":1088}]},{"term":"Cholelithiasis","organSystem":"Hepatobiliary disorders","assessmentType":"SYSTEMATIC_ASSESSMENT","stats":[{"groupId":"EG000","numAffected":4,"numAtRisk":1088}]},{"term":"Chronic Obstructive Pulmonary Disease (COPD)","organSystem":"Respiratory, thoracic and mediastinal disorders","assessmentType":"SYSTEMATIC_ASSESSMENT","stats":[{"groupId":"EG000","numAffected":2,"numAtRisk":1088}]},{"term":"Chronic Renal Failure","organSystem":"General disorders","assessmentType":"SYSTEMATIC_ASSESSMENT","stats":[{"groupId":"EG000","numAffected":6,"numAtRisk":1088}]},{"term":"Chronic Subdural Hematoma","organSystem":"Nervous system disorders","assessmentType":"SYSTEMATIC_ASSESSMENT","stats":[{"groupId":"EG000","numAffected":1,"numAtRisk":1088}]},{"term":"Clostridum difficile Infection","organSystem":"Infections and infestations","assessmentType":"SYSTEMATIC_ASSESSMENT","stats":[{"groupId":"EG000","numAffected":4,"numAtRisk":1088}]},{"term":"Cognitive Impairment","organSystem":"Psychiatric disorders","assessmentType":"SYSTEMATIC_ASSESSMENT","stats":[{"groupId":"EG000","numAffected":1,"numAtRisk":1088}]},{"term":"Colitis","organSystem":"Gastrointestinal disorders","assessmentType":"SYSTEMATIC_ASSESSMENT","stats":[{"groupId":"EG000","numAffected":4,"numAtRisk":1088}]},{"term":"Colon Cancer","organSystem":"Neoplasms benign, malignant and unspecified (incl cysts and polyps)","assessmentType":"SYSTEMATIC_ASSESSMENT","stats":[{"groupId":"EG000","numAffected":4,"numAtRisk":1088}]},{"term":"Compression Fracture","organSystem":"Injury, poisoning and procedural complications","assessmentType":"SYSTEMATIC_ASSESSMENT","stats":[{"groupId":"EG000","numAffected":2,"numAtRisk":1088}]},{"term":"Confusion","organSystem":"General disorders","assessmentType":"SYSTEMATIC_ASSESSMENT","stats":[{"groupId":"EG000","numAffected":4,"numAtRisk":1088}]},{"term":"Congestive Heart Failure","organSystem":"Cardiac disorders","assessmentType":"SYSTEMATIC_ASSESSMENT","stats":[{"groupId":"EG000","numAffected":13,"numAtRisk":1088}]},{"term":"Constipation","organSystem":"Gastrointestinal disorders","assessmentType":"SYSTEMATIC_ASSESSMENT","stats":[{"groupId":"EG000","numAffected":1,"numAtRisk":1088}]},{"term":"Coronary Artery Disease","organSystem":"Cardiac disorders","assessmentType":"SYSTEMATIC_ASSESSMENT","stats":[{"groupId":"EG000","numAffected":2,"numAtRisk":1088}]},{"term":"Cutaneous Abcesses","organSystem":"Skin and subcutaneous tissue disorders","assessmentType":"SYSTEMATIC_ASSESSMENT","stats":[{"groupId":"EG000","numAffected":1,"numAtRisk":1088}]},{"term":"Cystitis","organSystem":"Renal and urinary disorders","assessmentType":"SYSTEMATIC_ASSESSMENT","stats":[{"groupId":"EG000","numAffected":1,"numAtRisk":1088}]},{"term":"Decompensated Heart Failure","organSystem":"Cardiac disorders","assessmentType":"SYSTEMATIC_ASSESSMENT","stats":[{"groupId":"EG000","numAffected":62,"numAtRisk":1088}]},{"term":"Deep Vein/Venous Thrombosis","organSystem":"Vascular disorders","assessmentType":"SYSTEMATIC_ASSESSMENT","stats":[{"groupId":"EG000","numAffected":5,"numAtRisk":1088}]},{"term":"Dehydration","organSystem":"Metabolism and nutrition disorders","assessmentType":"SYSTEMATIC_ASSESSMENT","stats":[{"groupId":"EG000","numAffected":1,"numAtRisk":1088}]},{"term":"Delirium","organSystem":"Psychiatric disorders","assessmentType":"SYSTEMATIC_ASSESSMENT","stats":[{"groupId":"EG000","numAffected":4,"numAtRisk":1088}]},{"term":"Dementia","organSystem":"Nervous system disorders","assessmentType":"SYSTEMATIC_ASSESSMENT","stats":[{"groupId":"EG000","numAffected":1,"numAtRisk":1088}]},{"term":"Device Embolization","organSystem":"Surgical and medical procedures","assessmentType":"SYSTEMATIC_ASSESSMENT","stats":[{"groupId":"EG000","numAffected":2,"numAtRisk":1088}]},{"term":"Diabetes Mellitus","organSystem":"Endocrine disorders","sourceVocabulary":"MedDRA (10.0)","assessmentType":"SYSTEMATIC_ASSESSMENT","stats":[{"groupId":"EG000","numAffected":2,"numAtRisk":1088}]},{"term":"Diarrhea","organSystem":"Gastrointestinal disorders","sourceVocabulary":"MedDRA (10.0)","assessmentType":"SYSTEMATIC_ASSESSMENT","stats":[{"groupId":"EG000","numAffected":5,"numAtRisk":1088}]},{"term":"Diverticulitis","organSystem":"Gastrointestinal disorders","assessmentType":"SYSTEMATIC_ASSESSMENT","stats":[{"groupId":"EG000","numAffected":1,"numAtRisk":1088}]},{"term":"Diverticulosis","organSystem":"Gastrointestinal disorders","assessmentType":"SYSTEMATIC_ASSESSMENT","stats":[{"groupId":"EG000","numAffected":1,"numAtRisk":1088}]},{"term":"Dizziness","organSystem":"Nervous system disorders","assessmentType":"SYSTEMATIC_ASSESSMENT","stats":[{"groupId":"EG000","numAffected":1,"numAtRisk":1088}]},{"term":"Drug Side Effect","organSystem":"General disorders","assessmentType":"SYSTEMATIC_ASSESSMENT","stats":[{"groupId":"EG000","numAffected":1,"numAtRisk":1088}]},{"term":"Duodenal Ulcer","organSystem":"Gastrointestinal disorders","assessmentType":"SYSTEMATIC_ASSESSMENT","stats":[{"groupId":"EG000","numAffected":2,"numAtRisk":1088}]},{"term":"Dyspnea","organSystem":"Cardiac disorders","assessmentType":"SYSTEMATIC_ASSESSMENT","stats":[{"groupId":"EG000","numAffected":2,"numAtRisk":1088}]},{"term":"EKG Abnormalities","organSystem":"Cardiac disorders","assessmentType":"SYSTEMATIC_ASSESSMENT","stats":[{"groupId":"EG000","numAffected":1,"numAtRisk":1088}]},{"term":"Elective Cardiac Surgery","organSystem":"Surgical and medical procedures","sourceVocabulary":"MedDRA (10.0)","assessmentType":"SYSTEMATIC_ASSESSMENT","stats":[{"groupId":"EG000","numAffected":1,"numAtRisk":1088}]},{"term":"Emesis/Vomiting","organSystem":"Gastrointestinal disorders","sourceVocabulary":"MedDRA (10.0)","assessmentType":"SYSTEMATIC_ASSESSMENT","stats":[{"groupId":"EG000","numAffected":1,"numAtRisk":1088}]},{"term":"Encephalopathy","organSystem":"Nervous system disorders","sourceVocabulary":"MedDRA (10.0)","assessmentType":"SYSTEMATIC_ASSESSMENT","stats":[{"groupId":"EG000","numAffected":1,"numAtRisk":1088}]},{"term":"Epididymitis","organSystem":"Infections and infestations","assessmentType":"SYSTEMATIC_ASSESSMENT","stats":[{"groupId":"EG000","numAffected":1,"numAtRisk":1088}]},{"term":"Epistaxis","organSystem":"Respiratory, thoracic and mediastinal disorders","assessmentType":"SYSTEMATIC_ASSESSMENT","stats":[{"groupId":"EG000","numAffected":2,"numAtRisk":1088}]},{"term":"Eye Bleed","organSystem":"Eye disorders","assessmentType":"SYSTEMATIC_ASSESSMENT","stats":[{"groupId":"EG000","numAffected":1,"numAtRisk":1088}]},{"term":"Fall","organSystem":"Injury, poisoning and procedural complications","sourceVocabulary":"MedDRA (10.0)","assessmentType":"SYSTEMATIC_ASSESSMENT","stats":[{"groupId":"EG000","numAffected":9,"numAtRisk":1088}]},{"term":"Fever","organSystem":"Injury, poisoning and procedural complications","assessmentType":"SYSTEMATIC_ASSESSMENT","stats":[{"groupId":"EG000","numAffected":4,"numAtRisk":1088}]},{"term":"Fracture","organSystem":"Musculoskeletal and connective tissue disorders","assessmentType":"SYSTEMATIC_ASSESSMENT","stats":[{"groupId":"EG000","numAffected":6,"numAtRisk":1088}]},{"term":"Fungal Skin Infection","organSystem":"Infections and infestations","assessmentType":"SYSTEMATIC_ASSESSMENT","stats":[{"groupId":"EG000","numAffected":1,"numAtRisk":1088}]},{"term":"Gastritis","organSystem":"Gastrointestinal disorders","assessmentType":"SYSTEMATIC_ASSESSMENT","stats":[{"groupId":"EG000","numAffected":4,"numAtRisk":1088}]},{"term":"Gastroenteritis","organSystem":"Gastrointestinal disorders","assessmentType":"SYSTEMATIC_ASSESSMENT","stats":[{"groupId":"EG000","numAffected":4,"numAtRisk":1088}]},{"term":"Gastrointestinal Bleeding","organSystem":"Gastrointestinal disorders","assessmentType":"SYSTEMATIC_ASSESSMENT","stats":[{"groupId":"EG000","numAffected":57,"numAtRisk":1088}]},{"term":"Gastroparesis","organSystem":"Gastrointestinal disorders","sourceVocabulary":"MedDRA (10.0)","assessmentType":"SYSTEMATIC_ASSESSMENT","stats":[{"groupId":"EG000","numAffected":1,"numAtRisk":1088}]},{"term":"Generalized Seizures","organSystem":"Nervous system disorders","sourceVocabulary":"MedDRA (10.0)","assessmentType":"SYSTEMATIC_ASSESSMENT","stats":[{"groupId":"EG000","numAffected":1,"numAtRisk":1088}]},{"term":"Glaucoma","organSystem":"Eye disorders","sourceVocabulary":"MedDRA (10.0)","assessmentType":"SYSTEMATIC_ASSESSMENT","stats":[{"groupId":"EG000","numAffected":1,"numAtRisk":1088}]},{"term":"Gout","organSystem":"General disorders","assessmentType":"SYSTEMATIC_ASSESSMENT","stats":[{"groupId":"EG000","numAffected":4,"numAtRisk":1088}]},{"term":"Hallucinations","organSystem":"Psychiatric disorders","sourceVocabulary":"MedDRA (10.0)","assessmentType":"SYSTEMATIC_ASSESSMENT","stats":[{"groupId":"EG000","numAffected":1,"numAtRisk":1088}]},{"term":"Heart Block","organSystem":"Cardiac disorders","sourceVocabulary":"MedDRA (10.0)","assessmentType":"SYSTEMATIC_ASSESSMENT","stats":[{"groupId":"EG000","numAffected":1,"numAtRisk":1088}]},{"term":"Heart Failure","organSystem":"Cardiac disorders","sourceVocabulary":"MedDRA (10.0)","assessmentType":"SYSTEMATIC_ASSESSMENT","stats":[{"groupId":"EG000","numAffected":6,"numAtRisk":1088}]},{"term":"Heartburn","organSystem":"Gastrointestinal disorders","sourceVocabulary":"MedDRA (10.0)","assessmentType":"SYSTEMATIC_ASSESSMENT","stats":[{"groupId":"EG000","numAffected":1,"numAtRisk":1088}]},{"term":"Hematemesis","organSystem":"Gastrointestinal disorders","sourceVocabulary":"MedDRA (10.0)","assessmentType":"SYSTEMATIC_ASSESSMENT","stats":[{"groupId":"EG000","numAffected":1,"numAtRisk":1088}]},{"term":"Hematochezia","organSystem":"Gastrointestinal disorders","assessmentType":"SYSTEMATIC_ASSESSMENT","stats":[{"groupId":"EG000","numAffected":2,"numAtRisk":1088}]},{"term":"Hematoma","organSystem":"Vascular disorders","sourceVocabulary":"MedDRA (10.0)","assessmentType":"SYSTEMATIC_ASSESSMENT","stats":[{"groupId":"EG000","numAffected":5,"numAtRisk":1088}]},{"term":"Hematuria","organSystem":"Renal and urinary disorders","sourceVocabulary":"MedDRA (10.0)","assessmentType":"SYSTEMATIC_ASSESSMENT","stats":[{"groupId":"EG000","numAffected":12,"numAtRisk":1088}]},{"term":"Hemiblock (Fascicular Block)","organSystem":"Cardiac disorders","sourceVocabulary":"MedDRA (10.0)","assessmentType":"SYSTEMATIC_ASSESSMENT","stats":[{"groupId":"EG000","numAffected":1,"numAtRisk":1088}]},{"term":"Hemoperitoneum","organSystem":"Gastrointestinal disorders","assessmentType":"SYSTEMATIC_ASSESSMENT","stats":[{"groupId":"EG000","numAffected":1,"numAtRisk":1088}]},{"term":"Hemoptysis","organSystem":"General disorders","assessmentType":"SYSTEMATIC_ASSESSMENT","stats":[{"groupId":"EG000","numAffected":2,"numAtRisk":1088}]},{"term":"Hepatic and Biliary Disorders","organSystem":"Hepatobiliary disorders","assessmentType":"SYSTEMATIC_ASSESSMENT","stats":[{"groupId":"EG000","numAffected":1,"numAtRisk":1088}]},{"term":"Hernia","organSystem":"Congenital, familial and genetic disorders","assessmentType":"SYSTEMATIC_ASSESSMENT","stats":[{"groupId":"EG000","numAffected":1,"numAtRisk":1088}]},{"term":"Hip Dislocation","organSystem":"Musculoskeletal and connective tissue disorders","assessmentType":"SYSTEMATIC_ASSESSMENT","stats":[{"groupId":"EG000","numAffected":1,"numAtRisk":1088}]},{"term":"Hip Fracture","organSystem":"Musculoskeletal and connective tissue disorders","sourceVocabulary":"MedDRA (10.0)","assessmentType":"SYSTEMATIC_ASSESSMENT","stats":[{"groupId":"EG000","numAffected":7,"numAtRisk":1088}]},{"term":"Hip Pain","organSystem":"Musculoskeletal and connective tissue disorders","assessmentType":"SYSTEMATIC_ASSESSMENT","stats":[{"groupId":"EG000","numAffected":1,"numAtRisk":1088}]},{"term":"Hypercalcemia","organSystem":"Metabolism and nutrition disorders","assessmentType":"SYSTEMATIC_ASSESSMENT","stats":[{"groupId":"EG000","numAffected":1,"numAtRisk":1088}]},{"term":"Hyperkalemia","organSystem":"Metabolism and nutrition disorders","assessmentType":"SYSTEMATIC_ASSESSMENT","stats":[{"groupId":"EG000","numAffected":1,"numAtRisk":1088}]},{"term":"Hypertensive Crisis","organSystem":"Vascular disorders","assessmentType":"SYSTEMATIC_ASSESSMENT","stats":[{"groupId":"EG000","numAffected":4,"numAtRisk":1088}]},{"term":"Hyperthyroidism","organSystem":"Endocrine disorders","assessmentType":"SYSTEMATIC_ASSESSMENT","stats":[{"groupId":"EG000","numAffected":2,"numAtRisk":1088}]},{"term":"Hypoglycemia","organSystem":"Metabolism and nutrition disorders","assessmentType":"SYSTEMATIC_ASSESSMENT","stats":[{"groupId":"EG000","numAffected":1,"numAtRisk":1088}]},{"term":"Hypokalemia","organSystem":"General disorders","assessmentType":"SYSTEMATIC_ASSESSMENT","stats":[{"groupId":"EG000","numAffected":1,"numAtRisk":1088}]},{"term":"Hypotension","organSystem":"Cardiac disorders","assessmentType":"SYSTEMATIC_ASSESSMENT","stats":[{"groupId":"EG000","numAffected":5,"numAtRisk":1088}]},{"term":"Hypothermia","organSystem":"General disorders","assessmentType":"SYSTEMATIC_ASSESSMENT","stats":[{"groupId":"EG000","numAffected":1,"numAtRisk":1088}]},{"term":"Hypoventilation","organSystem":"Respiratory, thoracic and mediastinal disorders","sourceVocabulary":"MedDRA (10.0)","assessmentType":"SYSTEMATIC_ASSESSMENT","stats":[{"groupId":"EG000","numAffected":1,"numAtRisk":1088}]},{"term":"Infective/Bacterial Endocarditis","organSystem":"Infections and infestations","sourceVocabulary":"MedDRA (10.0)","assessmentType":"SYSTEMATIC_ASSESSMENT","stats":[{"groupId":"EG000","numAffected":1,"numAtRisk":1088}]},{"term":"Inguinal Hernia","organSystem":"Gastrointestinal disorders","assessmentType":"SYSTEMATIC_ASSESSMENT","stats":[{"groupId":"EG000","numAffected":2,"numAtRisk":1088}]},{"term":"Intracerebral Haemorrhage","organSystem":"Nervous system disorders","assessmentType":"SYSTEMATIC_ASSESSMENT","stats":[{"groupId":"EG000","numAffected":10,"numAtRisk":1088}]},{"term":"Iron-Deficiency Anemia","organSystem":"Gastrointestinal disorders","assessmentType":"SYSTEMATIC_ASSESSMENT","stats":[{"groupId":"EG000","numAffected":3,"numAtRisk":1088}]},{"term":"Ischemic Stroke","organSystem":"Cardiac disorders","assessmentType":"SYSTEMATIC_ASSESSMENT","stats":[{"groupId":"EG000","numAffected":39,"numAtRisk":1088}]},{"term":"Knee Pain","organSystem":"Musculoskeletal and connective tissue disorders","assessmentType":"SYSTEMATIC_ASSESSMENT","stats":[{"groupId":"EG000","numAffected":1,"numAtRisk":1088}]},{"term":"Leukemias","organSystem":"Blood and lymphatic system disorders","assessmentType":"SYSTEMATIC_ASSESSMENT","stats":[{"groupId":"EG000","numAffected":2,"numAtRisk":1088}]},{"term":"Low Back Pain","organSystem":"Musculoskeletal and connective tissue disorders","assessmentType":"SYSTEMATIC_ASSESSMENT","stats":[{"groupId":"EG000","numAffected":3,"numAtRisk":1088}]},{"term":"Lumbar Spondylosis","organSystem":"Musculoskeletal and connective tissue disorders","assessmentType":"SYSTEMATIC_ASSESSMENT","stats":[{"groupId":"EG000","numAffected":1,"numAtRisk":1088}]},{"term":"Lung Cancer","organSystem":"Neoplasms benign, malignant and unspecified (incl cysts and polyps)","assessmentType":"SYSTEMATIC_ASSESSMENT","stats":[{"groupId":"EG000","numAffected":7,"numAtRisk":1088}]},{"term":"Melanoma","organSystem":"Neoplasms benign, malignant and unspecified (incl cysts and polyps)","assessmentType":"SYSTEMATIC_ASSESSMENT","stats":[{"groupId":"EG000","numAffected":1,"numAtRisk":1088}]},{"term":"Melena","organSystem":"Blood and lymphatic system disorders","assessmentType":"SYSTEMATIC_ASSESSMENT","stats":[{"groupId":"EG000","numAffected":2,"numAtRisk":1088}]},{"term":"Miscellaneous Infections","organSystem":"Infections and infestations","assessmentType":"SYSTEMATIC_ASSESSMENT","stats":[{"groupId":"EG000","numAffected":1,"numAtRisk":1088}]},{"term":"Mitral Valve Regurgitation/Mitral Insufficiency","organSystem":"Cardiac disorders","assessmentType":"SYSTEMATIC_ASSESSMENT","stats":[{"groupId":"EG000","numAffected":5,"numAtRisk":1088}]},{"term":"Multiple Organ Failure","organSystem":"General disorders","assessmentType":"SYSTEMATIC_ASSESSMENT","stats":[{"groupId":"EG000","numAffected":4,"numAtRisk":1088}]},{"term":"Musculoskeletal Pain","organSystem":"Musculoskeletal and connective tissue disorders","sourceVocabulary":"MedDRA (10.0)","assessmentType":"SYSTEMATIC_ASSESSMENT","stats":[{"groupId":"EG000","numAffected":3,"numAtRisk":1088}]},{"term":"Myocardial Infarction","organSystem":"Cardiac disorders","sourceVocabulary":"MedDRA (10.0)","assessmentType":"SYSTEMATIC_ASSESSMENT","stats":[{"groupId":"EG000","numAffected":10,"numAtRisk":1088}]},{"term":"Nephrolithiasis","organSystem":"Renal and urinary disorders","assessmentType":"SYSTEMATIC_ASSESSMENT","stats":[{"groupId":"EG000","numAffected":2,"numAtRisk":1088}]},{"term":"Neurological Hematoma","organSystem":"Nervous system disorders","assessmentType":"SYSTEMATIC_ASSESSMENT","stats":[{"groupId":"EG000","numAffected":1,"numAtRisk":1088}]},{"term":"Non-Cardiac Chest Pain","organSystem":"General disorders","assessmentType":"SYSTEMATIC_ASSESSMENT","stats":[{"groupId":"EG000","numAffected":2,"numAtRisk":1088}]},{"term":"Ocular Hemorrhage","organSystem":"Eye disorders","sourceVocabulary":"MedDRA (10.0)","assessmentType":"SYSTEMATIC_ASSESSMENT","stats":[{"groupId":"EG000","numAffected":1,"numAtRisk":1088}]},{"term":"Orthostatic Hypotension","organSystem":"Vascular disorders","assessmentType":"SYSTEMATIC_ASSESSMENT","stats":[{"groupId":"EG000","numAffected":1,"numAtRisk":1088}]},{"term":"Osler Weber Rendu Syndrome","organSystem":"Congenital, familial and genetic disorders","assessmentType":"SYSTEMATIC_ASSESSMENT","stats":[{"groupId":"EG000","numAffected":1,"numAtRisk":1088}]},{"term":"Osteoarthritis/Degenerative Joint Disease","organSystem":"Musculoskeletal and connective tissue disorders","assessmentType":"SYSTEMATIC_ASSESSMENT","stats":[{"groupId":"EG000","numAffected":2,"numAtRisk":1088}]},{"term":"Overdose","organSystem":"Cardiac disorders","sourceVocabulary":"MedDRA (10.0)","assessmentType":"SYSTEMATIC_ASSESSMENT","stats":[{"groupId":"EG000","numAffected":1,"numAtRisk":1088}]},{"term":"Pain","organSystem":"General disorders","assessmentType":"SYSTEMATIC_ASSESSMENT","stats":[{"groupId":"EG000","numAffected":2,"numAtRisk":1088}]},{"term":"Palpitations","organSystem":"Cardiac disorders","assessmentType":"SYSTEMATIC_ASSESSMENT","stats":[{"groupId":"EG000","numAffected":1,"numAtRisk":1088}]},{"term":"Pancreatic Cancer","organSystem":"Neoplasms benign, malignant and unspecified (incl cysts and polyps)","assessmentType":"SYSTEMATIC_ASSESSMENT","stats":[{"groupId":"EG000","numAffected":2,"numAtRisk":1088}]},{"term":"Parkinson's Disease","organSystem":"Nervous system disorders","assessmentType":"SYSTEMATIC_ASSESSMENT","stats":[{"groupId":"EG000","numAffected":1,"numAtRisk":1088}]},{"term":"Paroxysmal Atrial Tachycardia","organSystem":"Cardiac disorders","assessmentType":"SYSTEMATIC_ASSESSMENT","stats":[{"groupId":"EG000","numAffected":1,"numAtRisk":1088}]},{"term":"Perforated Appendix","organSystem":"Gastrointestinal disorders","assessmentType":"SYSTEMATIC_ASSESSMENT","stats":[{"groupId":"EG000","numAffected":1,"numAtRisk":1088}]},{"term":"Pericardial Effusion","organSystem":"Cardiac disorders","assessmentType":"SYSTEMATIC_ASSESSMENT","stats":[{"groupId":"EG000","numAffected":9,"numAtRisk":1088}]},{"term":"Pericardial Tamponade","organSystem":"Cardiac disorders","assessmentType":"SYSTEMATIC_ASSESSMENT","stats":[{"groupId":"EG000","numAffected":11,"numAtRisk":1088}]},{"term":"Peripheral Arterial Occlusion","organSystem":"Cardiac disorders","assessmentType":"SYSTEMATIC_ASSESSMENT","stats":[{"groupId":"EG000","numAffected":6,"numAtRisk":1088}]},{"term":"Peripheral Vascular Disease","organSystem":"Cardiac disorders","assessmentType":"SYSTEMATIC_ASSESSMENT","stats":[{"groupId":"EG000","numAffected":7,"numAtRisk":1088}]},{"term":"Persistent Atrial Fibrillation","organSystem":"Cardiac disorders","assessmentType":"SYSTEMATIC_ASSESSMENT","stats":[{"groupId":"EG000","numAffected":2,"numAtRisk":1088}]},{"term":"Pleural Effusion","organSystem":"Respiratory, thoracic and mediastinal disorders","assessmentType":"SYSTEMATIC_ASSESSMENT","stats":[{"groupId":"EG000","numAffected":3,"numAtRisk":1088}]},{"term":"Pneumonia","organSystem":"Respiratory, thoracic and mediastinal disorders","assessmentType":"SYSTEMATIC_ASSESSMENT","stats":[{"groupId":"EG000","numAffected":33,"numAtRisk":1088}]},{"term":"Pneumonia Caused By Gram-Negative Bacilli","organSystem":"Respiratory, thoracic and mediastinal disorders","assessmentType":"SYSTEMATIC_ASSESSMENT","stats":[{"groupId":"EG000","numAffected":2,"numAtRisk":1088}]},{"term":"Pneumonia in the Compromised Host","organSystem":"Respiratory, thoracic and mediastinal disorders","sourceVocabulary":"MedDRA (10.0)","assessmentType":"SYSTEMATIC_ASSESSMENT","stats":[{"groupId":"EG000","numAffected":2,"numAtRisk":1088}]},{"term":"Polyneuropathy","organSystem":"Nervous system disorders","assessmentType":"SYSTEMATIC_ASSESSMENT","stats":[{"groupId":"EG000","numAffected":1,"numAtRisk":1088}]},{"term":"Portal-Systemic Encephalopathy","organSystem":"Nervous system disorders","assessmentType":"SYSTEMATIC_ASSESSMENT","stats":[{"groupId":"EG000","numAffected":1,"numAtRisk":1088}]},{"term":"Pressure Sores","organSystem":"Skin and subcutaneous tissue disorders","assessmentType":"SYSTEMATIC_ASSESSMENT","stats":[{"groupId":"EG000","numAffected":1,"numAtRisk":1088}]},{"term":"Presyncope","organSystem":"General disorders","assessmentType":"SYSTEMATIC_ASSESSMENT","stats":[{"groupId":"EG000","numAffected":3,"numAtRisk":1088}]},{"term":"Primary Biliary Cirrhosis","organSystem":"Hepatobiliary disorders","assessmentType":"SYSTEMATIC_ASSESSMENT","stats":[{"groupId":"EG000","numAffected":2,"numAtRisk":1088}]},{"term":"Psychogenic Event","organSystem":"Psychiatric disorders","assessmentType":"SYSTEMATIC_ASSESSMENT","stats":[{"groupId":"EG000","numAffected":1,"numAtRisk":1088}]},{"term":"Pulmonary Edema","organSystem":"Respiratory, thoracic and mediastinal disorders","assessmentType":"SYSTEMATIC_ASSESSMENT","stats":[{"groupId":"EG000","numAffected":1,"numAtRisk":1088}]},{"term":"Pulmonary Embolism","organSystem":"Vascular disorders","assessmentType":"SYSTEMATIC_ASSESSMENT","stats":[{"groupId":"EG000","numAffected":2,"numAtRisk":1088}]},{"term":"Raynaud's Syndrome","organSystem":"Vascular disorders","assessmentType":"SYSTEMATIC_ASSESSMENT","stats":[{"groupId":"EG000","numAffected":2,"numAtRisk":1088}]},{"term":"Renal Failure","organSystem":"General disorders","assessmentType":"SYSTEMATIC_ASSESSMENT","stats":[{"groupId":"EG000","numAffected":9,"numAtRisk":1088}]},{"term":"Renal Insufficiency","organSystem":"Renal and urinary disorders","assessmentType":"SYSTEMATIC_ASSESSMENT","stats":[{"groupId":"EG000","numAffected":2,"numAtRisk":1088}]},{"term":"Respiratory Failure","organSystem":"Injury, poisoning and procedural complications","assessmentType":"SYSTEMATIC_ASSESSMENT","stats":[{"groupId":"EG000","numAffected":1,"numAtRisk":1088}]},{"term":"Rheumotologic Disease","organSystem":"Musculoskeletal and connective tissue disorders","assessmentType":"SYSTEMATIC_ASSESSMENT","stats":[{"groupId":"EG000","numAffected":1,"numAtRisk":1088}]},{"term":"Right Ventricular Failure","organSystem":"Cardiac disorders","assessmentType":"SYSTEMATIC_ASSESSMENT","stats":[{"groupId":"EG000","numAffected":1,"numAtRisk":1088}]},{"term":"Second Degree Heart Block","organSystem":"Cardiac disorders","assessmentType":"SYSTEMATIC_ASSESSMENT","stats":[{"groupId":"EG000","numAffected":1,"numAtRisk":1088}]},{"term":"Seizure/Convulsions/Epilepsy","organSystem":"Nervous system disorders","assessmentType":"SYSTEMATIC_ASSESSMENT","stats":[{"groupId":"EG000","numAffected":14,"numAtRisk":1088}]},{"term":"Sepsis","organSystem":"Infections and infestations","assessmentType":"SYSTEMATIC_ASSESSMENT","stats":[{"groupId":"EG000","numAffected":19,"numAtRisk":1088}]},{"term":"Septicemia","organSystem":"Infections and infestations","assessmentType":"SYSTEMATIC_ASSESSMENT","stats":[{"groupId":"EG000","numAffected":2,"numAtRisk":1088}]},{"term":"Shock","organSystem":"General disorders","assessmentType":"SYSTEMATIC_ASSESSMENT","stats":[{"groupId":"EG000","numAffected":3,"numAtRisk":1088}]},{"term":"Sick Sinus Syndrome","organSystem":"Cardiac disorders","assessmentType":"SYSTEMATIC_ASSESSMENT","stats":[{"groupId":"EG000","numAffected":2,"numAtRisk":1088}]},{"term":"Simple Partial Seizures","organSystem":"Nervous system disorders","assessmentType":"SYSTEMATIC_ASSESSMENT","stats":[{"groupId":"EG000","numAffected":1,"numAtRisk":1088}]},{"term":"Sinus Bradycardia/Sinus Bradycardia (Cardiac Arrhythmia)","organSystem":"Cardiac disorders","assessmentType":"SYSTEMATIC_ASSESSMENT","stats":[{"groupId":"EG000","numAffected":3,"numAtRisk":1088}]},{"term":"Skin Cancer","organSystem":"Neoplasms benign, malignant and unspecified (incl cysts and polyps)","assessmentType":"SYSTEMATIC_ASSESSMENT","stats":[{"groupId":"EG000","numAffected":2,"numAtRisk":1088}]},{"term":"Skin Ulcer","organSystem":"Skin and subcutaneous tissue disorders","assessmentType":"SYSTEMATIC_ASSESSMENT","stats":[{"groupId":"EG000","numAffected":2,"numAtRisk":1088}]},{"term":"Spinal Stenosis","organSystem":"Musculoskeletal and connective tissue disorders","assessmentType":"SYSTEMATIC_ASSESSMENT","stats":[{"groupId":"EG000","numAffected":1,"numAtRisk":1088}]},{"term":"Status Epilepticus","organSystem":"Nervous system disorders","sourceVocabulary":"MedDRA (10.0)","assessmentType":"SYSTEMATIC_ASSESSMENT","stats":[{"groupId":"EG000","numAffected":1,"numAtRisk":1088}]},{"term":"Stroke","organSystem":"Nervous system disorders","assessmentType":"SYSTEMATIC_ASSESSMENT","stats":[{"groupId":"EG000","numAffected":1,"numAtRisk":1088}]},{"term":"Subdural Haemorrhage","organSystem":"Nervous system disorders","assessmentType":"SYSTEMATIC_ASSESSMENT","stats":[{"groupId":"EG000","numAffected":1,"numAtRisk":1088}]},{"term":"Suicide Attempt","organSystem":"Psychiatric disorders","assessmentType":"SYSTEMATIC_ASSESSMENT","stats":[{"groupId":"EG000","numAffected":1,"numAtRisk":1088}]},{"term":"Sustained Atrial Fibrillation","organSystem":"Cardiac disorders","assessmentType":"SYSTEMATIC_ASSESSMENT","stats":[{"groupId":"EG000","numAffected":1,"numAtRisk":1088}]},{"term":"Syncope","organSystem":"General disorders","assessmentType":"SYSTEMATIC_ASSESSMENT","stats":[{"groupId":"EG000","numAffected":11,"numAtRisk":1088}]},{"term":"TEE-Related Event","organSystem":"Cardiac disorders","assessmentType":"SYSTEMATIC_ASSESSMENT","stats":[{"groupId":"EG000","numAffected":1,"numAtRisk":1088}]},{"term":"Third Degree Heart Block (Complete Heart Block)","organSystem":"Cardiac disorders","assessmentType":"SYSTEMATIC_ASSESSMENT","stats":[{"groupId":"EG000","numAffected":1,"numAtRisk":1088}]},{"term":"Thrombus","organSystem":"Cardiac disorders","assessmentType":"SYSTEMATIC_ASSESSMENT","stats":[{"groupId":"EG000","numAffected":1,"numAtRisk":1088}]},{"term":"Thrombus on Device","organSystem":"Cardiac disorders","assessmentType":"SYSTEMATIC_ASSESSMENT","stats":[{"groupId":"EG000","numAffected":19,"numAtRisk":1088}]},{"term":"Torsade de Pointes","organSystem":"Cardiac disorders","assessmentType":"SYSTEMATIC_ASSESSMENT","stats":[{"groupId":"EG000","numAffected":1,"numAtRisk":1088}]},{"term":"Transient Ischemic Attack (TIA)","organSystem":"General disorders","assessmentType":"SYSTEMATIC_ASSESSMENT","stats":[{"groupId":"EG000","numAffected":14,"numAtRisk":1088}]},{"term":"Trauma","organSystem":"General disorders","sourceVocabulary":"MedDRA (10.0)","assessmentType":"SYSTEMATIC_ASSESSMENT","stats":[{"groupId":"EG000","numAffected":9,"numAtRisk":1088}]},{"term":"Tricuspid Regurgitation/Tricuspid Insufficiency/Valvular Regurgitation Valve","organSystem":"Cardiac disorders","assessmentType":"SYSTEMATIC_ASSESSMENT","stats":[{"groupId":"EG000","numAffected":1,"numAtRisk":1088}]},{"term":"Unstable Angina","organSystem":"Cardiac disorders","assessmentType":"SYSTEMATIC_ASSESSMENT","stats":[{"groupId":"EG000","numAffected":7,"numAtRisk":1088}]},{"term":"Unsustained/Nonsustained Ventricular Tachy/Cardiac Arrhythmia","organSystem":"Cardiac disorders","assessmentType":"SYSTEMATIC_ASSESSMENT","stats":[{"groupId":"EG000","numAffected":1,"numAtRisk":1088}]},{"term":"Urethral Dysfunction","organSystem":"Renal and urinary disorders","assessmentType":"SYSTEMATIC_ASSESSMENT","stats":[{"groupId":"EG000","numAffected":1,"numAtRisk":1088}]},{"term":"Urinary Retention","organSystem":"Renal and urinary disorders","assessmentType":"SYSTEMATIC_ASSESSMENT","stats":[{"groupId":"EG000","numAffected":7,"numAtRisk":1088}]},{"term":"Urinary Tract Infections","organSystem":"Renal and urinary disorders","assessmentType":"SYSTEMATIC_ASSESSMENT","stats":[{"groupId":"EG000","numAffected":11,"numAtRisk":1088}]},{"term":"VASC AV Fistula","organSystem":"Surgical and medical procedures","assessmentType":"SYSTEMATIC_ASSESSMENT","stats":[{"groupId":"EG000","numAffected":4,"numAtRisk":1088}]},{"term":"VASC Bleeding","organSystem":"Vascular disorders","assessmentType":"SYSTEMATIC_ASSESSMENT","stats":[{"groupId":"EG000","numAffected":4,"numAtRisk":1088}]},{"term":"VASC Hematoma","organSystem":"Vascular disorders","assessmentType":"SYSTEMATIC_ASSESSMENT","stats":[{"groupId":"EG000","numAffected":4,"numAtRisk":1088}]},{"term":"VASC Pseudoaneurysm","organSystem":"Injury, poisoning and procedural complications","assessmentType":"SYSTEMATIC_ASSESSMENT","stats":[{"groupId":"EG000","numAffected":4,"numAtRisk":1088}]},{"term":"Vascular Dissection","organSystem":"Cardiac disorders","assessmentType":"SYSTEMATIC_ASSESSMENT","stats":[{"groupId":"EG000","numAffected":1,"numAtRisk":1088}]},{"term":"Vascular Ischemia","organSystem":"Cardiac disorders","assessmentType":"SYSTEMATIC_ASSESSMENT","stats":[{"groupId":"EG000","numAffected":3,"numAtRisk":1088}]},{"term":"Vaso Vagal Response","organSystem":"Nervous system disorders","assessmentType":"SYSTEMATIC_ASSESSMENT","stats":[{"groupId":"EG000","numAffected":1,"numAtRisk":1088}]},{"term":"Ventricular Fibrillation","organSystem":"Cardiac disorders","assessmentType":"SYSTEMATIC_ASSESSMENT","stats":[{"groupId":"EG000","numAffected":3,"numAtRisk":1088}]},{"term":"Ventricular Tachycardia","organSystem":"Cardiac disorders","assessmentType":"SYSTEMATIC_ASSESSMENT","stats":[{"groupId":"EG000","numAffected":4,"numAtRisk":1088}]},{"term":"Vessel Occlusion","organSystem":"Vascular disorders","assessmentType":"SYSTEMATIC_ASSESSMENT","stats":[{"groupId":"EG000","numAffected":1,"numAtRisk":1088}]},{"term":"Viral Syndrome","organSystem":"Infections and infestations","assessmentType":"SYSTEMATIC_ASSESSMENT","stats":[{"groupId":"EG000","numAffected":1,"numAtRisk":1088}]},{"term":"Weakness","organSystem":"General disorders","assessmentType":"SYSTEMATIC_ASSESSMENT","stats":[{"groupId":"EG000","numAffected":1,"numAtRisk":1088}]},{"term":"Wound Dehiscence","organSystem":"General disorders","assessmentType":"SYSTEMATIC_ASSESSMENT","stats":[{"groupId":"EG000","numAffected":1,"numAtRisk":1088}]},{"term":"Other","organSystem":"General disorders","assessmentType":"SYSTEMATIC_ASSESSMENT","stats":[{"groupId":"EG000","numAffected":50,"numAtRisk":1088}]}]},"moreInfoModule":{"certainAgreement":{"piSponsorEmployee":false,"restrictiveAgreement":false},"pointOfContact":{"title":"Ryan Gage, Senior Scientist","organization":"Abbott","email":"Ryan.Gage@abbott.com","phone":"651 756 3334"}}},"documentSection":{"largeDocumentModule":{"largeDocs":[{"typeAbbrev":"Prot_SAP","hasProtocol":true,"hasSap":true,"hasIcf":false,"label":"Study Protocol and Statistical Analysis Plan","date":"2015-04-21","uploadDate":"2019-12-11T04:45","filename":"Prot_SAP_000.pdf","size":1464814}]}},"derivedSection":{"miscInfoModule":{"versionHolder":"2024-02-14"},"conditionBrowseModule":{"meshes":[{"id":"D000001281","term":"Atrial Fibrillation"},{"id":"D000013923","term":"Thromboembolism"}],"ancestors":[{"id":"D000001145","term":"Arrhythmias, Cardiac"},{"id":"D000006331","term":"Heart Diseases"},{"id":"D000002318","term":"Cardiovascular Diseases"},{"id":"D000010335","term":"Pathologic Processes"},{"id":"D000016769","term":"Embolism and Thrombosis"},{"id":"D000014652","term":"Vascular Diseases"}],"browseLeaves":[{"id":"M21996","name":"Stroke","relevance":"LOW"},{"id":"M16372","name":"Thromboembolism","asFound":"Thromboembolism","relevance":"HIGH"},{"id":"M4276","name":"Atrial Fibrillation","asFound":"Atrial Fibrillation","relevance":"HIGH"},{"id":"M4143","name":"Arrhythmias, Cardiac","relevance":"LOW"},{"id":"M9109","name":"Heart Diseases","relevance":"LOW"},{"id":"M16376","name":"Thrombosis","relevance":"LOW"},{"id":"M7474","name":"Embolism","relevance":"LOW"},{"id":"M18818","name":"Embolism and Thrombosis","relevance":"LOW"},{"id":"M17090","name":"Vascular Diseases","relevance":"LOW"}],"browseBranches":[{"abbrev":"BC10","name":"Nervous System Diseases"},{"abbrev":"BC14","name":"Heart and Blood Diseases"},{"abbrev":"All","name":"All Conditions"},{"abbrev":"BC23","name":"Symptoms and General Pathology"}]}},"hasResults":true}